Price,Property Type,Size (m2),Number of Rooms,Number of Bathrooms,Latitude,Longitude,Location
5000.0,chalet,94.0,2,2,37.3733756,-3.7134359,"calle San Antonio, 4"
6200.0,chalet,62.0,3,1,36.9073092,-3.0958426,calle Real
6300.0,flat,88.0,3,1,37.8089134,-2.5407755,Huéscar
7500.0,countryHouse,30.0,0,0,36.9705887,-3.494072,camino Lecrin s/n
8800.0,chalet,156.0,3,1,37.3913467,-3.5309879,calle del Doctor Vilchez Romero
9900.0,chalet,104.0,3,2,37.5578192,-3.4002204,calle Alhambra
9900.0,chalet,114.0,1,1,37.0006567,-3.9932755,calle Barranco
9900.0,chalet,66.0,3,1,37.0030068,-3.9919153,calle la Cruz
10000.0,chalet,74.0,1,0,36.9748152,-3.1911068,"cuesta de la Platera, 55"
10000.0,chalet,60.0,4,1,37.5746148,-3.5050163,calle Alta
10000.0,chalet,184.0,2,2,36.9743697,-3.1915631,"calle Baja Panadería, 64 -48"
10000.0,chalet,80.0,2,1,37.1730637,-2.9509666,calle San Anton
10000.0,chalet,60.0,4,1,37.5733266,-3.5056113,Montejicar
10000.0,countryHouse,55.0,4,1,37.8110669,-2.5413279,"calle Abades, 12"
10000.0,countryHouse,178.0,0,0,37.89265,-2.63718,"calle Canal de San Clemente, 1"
10000.0,chalet,118.0,1,1,37.1625139,-3.4458458,calle Orilla Perales
10000.0,countryHouse,90.0,5,2,37.89232,-2.64025,"calle Canal de San Clemente, 46"
10900.0,chalet,66.0,2,0,37.3737305,-3.7130869,Colomera
11000.0,chalet,70.0,1,1,37.2168789,-4.1372335,A-4154
11800.0,chalet,122.0,4,2,37.8108432,-2.5401523,Huéscar
12000.0,chalet,100.0,3,0,37.5264117,-2.7448021,"calle Londres, 10"
12000.0,countryHouse,80.0,1,0,36.9090861,-3.1796456,"carretera cadiar murtas, 7"
12400.0,chalet,122.0,3,2,37.5045074,-3.2307032,calle Padre Manjon
12500.0,countryHouse,80.0,5,0,37.3715752,-3.2189847,"calle Mochilas, 374"
13000.0,chalet,114.0,2,1,37.1653022,-4.1574411,Loja
13000.0,chalet,223.0,5,1,37.4898028,-2.7690905,Baza
13000.0,chalet,94.0,1,1,37.1890073,-3.7195783,calle Cruces
13900.0,chalet,92.0,2,1,37.5565193,-3.4010989,"plaza de España, 1"
14000.0,countryHouse,78.0,4,0,37.656963,-2.7708674,"calle San Jose, 16"
14900.0,chalet,183.0,2,1,37.3221468,-4.012163,"calle Carmen, 20"
15000.0,chalet,94.0,1,1,37.5015699,-3.2287063,calle Guadix
15000.0,flat,87.0,1,1,37.1837581,-3.1594092,calle Alcazar
15000.0,countryHouse,118.0,2,0,37.32421,-4.1561899,"calle Baja, 27"
15000.0,countryHouse,320.0,6,1,37.6566645,-2.7708774,"calle San Jose, 5"
15000.0,chalet,95.0,4,1,37.27597,-3.28571,"calle Horno, 20"
16000.0,chalet,106.0,3,2,37.2877314,-3.8852906,calle Fuente Apolo
16200.0,chalet,108.0,1,1,37.8071096,-2.5430411,Ua- 4.1 s/n de nueva creación
16700.0,chalet,186.0,3,2,37.4908565,-2.779467,calle Chorrillo
17000.0,countryHouse,10103.0,0,0,37.1973925,-3.44567,Quéntar
17600.0,chalet,163.0,2,1,37.2521066,-3.7450788,"calle Escultor Fuentes, 11"
17888.0,chalet,55.0,2,1,36.9270499,-3.63114,avenida Estacion
17900.0,chalet,60.0,1,1,37.2040964,-4.2281743,Loja
17900.0,countryHouse,182.0,7,1,37.1662338,-4.1521651,Loja
18000.0,countryHouse,48.0,1,0,37.835278,-2.671111,"huescar, 49"
18000.0,chalet,80.0,3,1,36.9199398,-3.4784088,"calle Piedra del Castaño, 17"
18000.0,chalet,65.0,2,1,37.8926,-2.63775,"calle Canal de San Clemente, 7"
18000.0,chalet,120.0,8,1,37.2938366,-2.9563113,"calle ciervo, 1"
18000.0,countryHouse,93.0,4,2,37.4895194,-2.7714387,"calle Carmona López, 12"
18000.0,countryHouse,182.0,4,1,37.2202247,-3.7851628,"ronda del Cuarto, 2"
18000.0,countryHouse,35.0,1,1,37.00263,-3.9903,"calle la Cruz, 5"
18000.0,countryHouse,120.0,9,1,37.2938366,-2.9563113,"calle ciervo, 1"
18000.0,chalet,134.0,3,1,37.3214593,-4.0071085,"calle Veredas del Convento, 17"
18000.0,countryHouse,164.0,2,1,37.50301,-3.67417,"calle Don Sancho, 16"
18500.0,countryHouse,144.0,3,2,36.7877143,-3.3335862,"calle Real, 67"
18800.0,countryHouse,376.0,4,1,37.0092799,-3.01561,"calle la San Juan, 4"
19000.0,chalet,50.0,4,1,37.0563982,-3.9173751,Cacin
19000.0,chalet,44.0,1,1,37.3951138,-3.5310834,calle Gracia
19000.0,flat,116.0,3,2,37.2015888,-3.8060694,camino Romilla
19400.0,chalet,94.0,2,1,37.5709139,-3.5058962,calle Santa Ana
19500.0,flat,50.0,3,1,37.1864768,-3.7213962,"calle Portugal, 1"
19900.0,chalet,82.0,2,1,37.0248615,-3.6295488,Padul
19950.0,chalet,42.0,1,1,36.931125,-3.2553816,calle las Flores
20000.0,chalet,100.0,2,1,36.9299,-3.58072,"calle Iglesia, 6"
20000.0,countryHouse,100.0,3,1,36.9762464,-3.1904414,"calle Fuente Iglesia, 2"
20000.0,chalet,100.0,3,1,37.5596,-3.0886999,"calle rosas, 1"
20000.0,chalet,40.0,2,1,37.348652,-3.1665348,"calle cantareria, 23"
20000.0,countryHouse,170.0,6,2,37.4887858,-2.7808215,"calle Poyos Colegiales, 19"
20000.0,countryHouse,130.0,6,0,37.7925152,-2.5440493,carretera A-326 Galera s/n
20000.0,countryHouse,70.0,3,1,37.58796,-3.10482,"calle de Goya, 30"
20000.0,countryHouse,200.0,5,2,37.4336873,-2.7260485,Barrio San Marcos s/n
20000.0,chalet,258.0,4,1,37.35128,-3.29363,"calle Pasaje, 11"
20000.0,chalet,80.0,3,1,36.9602726,-3.0538526,"calle Zacatin, 16"
20000.0,countryHouse,70.0,3,1,37.7947824,-2.7801085,calle Alamillo s/n
20000.0,countryHouse,142.0,3,0,36.9436,-3.2125499,"calle Erillas, 20"
20000.0,chalet,180.0,1,1,36.7919129,-3.2061301,"calle Calvario, 26"
20000.0,countryHouse,100.0,2,0,37.3446033,-3.3620487,"san jise, 1"
20700.0,flat,94.0,3,2,37.1872179,-3.719052,calle los Cerezos
21000.0,countryHouse,212.0,6,3,37.4913342,-2.7713787,Correo Viejo
21000.0,countryHouse,80.0,3,1,37.2567411,-4.1695605,Zagra
21000.0,countryHouse,27.0,1,0,36.9292162,-3.6306534,calle Bailen
21000.0,chalet,88.0,2,1,37.1982446,-3.8324483,calle Baja
21000.0,countryHouse,150.0,4,2,37.9809605,-2.3377125,"calle Peral, 3"
21000.0,chalet,46.0,2,1,37.1867184,-3.7189935,calle Goro
21000.0,chalet,172.0,4,1,37.1843404,-3.1591421,"calle Iglesia, 3"
21000.0,countryHouse,174.0,4,1,36.7876192,-3.4027487,"calle Arriba, 1"
21000.0,chalet,150.0,4,1,37.5739177,-3.5055334,"calle Tosquillas, 18"
21400.0,flat,136.0,3,2,37.1993692,-3.8053026,camino Romilla
21900.0,chalet,210.0,3,0,37.3728427,-3.7133644,Colomera
22000.0,chalet,117.0,3,2,36.9643895,-3.0547601,calle Huertos
22000.0,flat,74.0,2,1,37.1971966,-4.042178,calle San Antonio
22000.0,flat,74.0,2,1,37.1972274,-4.0419137,calle San Antonio
22000.0,chalet,150.0,4,2,37.4895114,-2.7771388,calle Cruz Baja Espíritu Santo
22000.0,chalet,58.0,3,2,37.2035431,-3.6052403,calle José Risueño
22000.0,chalet,70.0,2,1,37.2546033,-4.1682325,calle Granada
22000.0,countryHouse,111.0,8,0,37.7131627,-2.5470842,"La Alquería, 13"
22200.0,flat,43.0,3,1,37.1844888,-3.7196944,calle Puerto Rico
22500.0,flat,50.0,2,1,37.1879475,-3.7203635,calle Nicaragua
22700.0,chalet,60.0,3,1,37.5424688,-2.8425829,"calle Barea, 8 A"
23000.0,chalet,90.0,2,1,37.18535,-3.15704,"calle Carnero, 3"
23000.0,chalet,90.0,3,1,37.8077132,-2.5477637,"calle Morote, 134"
23000.0,chalet,90.0,2,2,37.8077132,-2.5477637,"calle Morote, 134"
23000.0,chalet,55.0,2,0,36.81599,-3.4912406,Vélez de Benaudalla
23000.0,flat,72.0,1,1,37.2056752,-3.6323219,calle Santa Rosa
23000.0,flat,59.0,1,1,37.1866711,-3.7205416,calle Panamá
23000.0,chalet,122.0,4,1,37.5568354,-3.4014269,calle Ocon
23500.0,chalet,74.0,2,1,37.3241736,-4.1566095,"calle Baja, 18"
23600.0,chalet,54.0,1,0,36.8000435,-3.6420684,Itrabo
24000.0,countryHouse,1830.0,7,1,37.1772484,-2.9515486,camino Ermita s/n sn
24000.0,countryHouse,100.0,4,2,37.29846,-3.1316799,"calle Arrecife Santa Ana, 9"
24500.0,flat,55.0,2,1,37.1882059,-3.7211655,calle Puerto Rico
24500.0,flat,65.0,3,1,37.187014,-3.7198719,calle Puerto Rico
24500.0,chalet,70.0,3,1,37.3260349,-4.1570362,Algarinejo
24900.0,chalet,62.0,3,1,36.9988261,-3.0036194,calle Aurora
24900.0,chalet,75.0,3,1,36.9208018,-3.4788267,calle Hondillo
24900.0,chalet,134.0,3,1,36.9474462,-3.5524242,Lecrin
25000.0,chalet,255.0,6,3,37.4917531,-2.7703519,calle Almendro
25000.0,penthouse,124.0,3,2,36.9953151,-3.0832071,"calle Real, 16"
25000.0,chalet,120.0,3,0,36.9115821,-3.5519806,"calle las Cruces, 1"
25000.0,chalet,162.0,4,1,37.5719323,-3.5047809,Montejicar
25000.0,chalet,93.0,2,1,37.0005117,-3.9945759,calle Tejar Bajo
25000.0,chalet,149.0,3,1,37.3247215,-4.1592638,calle Merino
25000.0,countryHouse,171.0,3,1,37.2672832,-3.1029684,calle Barrio Alto s/n
25000.0,chalet,148.0,3,1,37.3244188,-4.160637,calle Merino
25000.0,chalet,152.0,3,2,37.38837,-3.5271674,"calle Santa Adela, 23"
25000.0,countryHouse,101.0,3,1,36.8632405,-3.056675,"calle Azucena, 3"
25000.0,chalet,149.0,3,1,37.3222719,-4.161177,calle Merino
25000.0,flat,55.0,2,1,37.1875468,-3.7205056,calle Nicaragua
25000.0,chalet,200.0,5,2,36.9461918,-3.1805351,"calle Alhamar, 1"
25000.0,chalet,83.0,3,1,37.251646,-3.753948,callejón San Francisco
25000.0,countryHouse,230.0,3,1,36.9489321,-3.2227771,"Eras baja, 4"
25000.0,countryHouse,60.0,2,0,36.8277256,-3.212022,"calle Visillo, 21"
25000.0,countryHouse,271.0,6,2,37.8093247,-2.5426783,"calle Ogaya, 18"
25000.0,countryHouse,90.0,4,0,37.30387,-3.2200599,"chapulitas, 13"
25000.0,countryHouse,150.0,3,0,37.4862228,-2.7769904,"Alfonso sastre, 53"
25000.0,countryHouse,100.0,2,1,37.0087014,-3.0143516,"VIOLETA, 11"
25100.0,chalet,372.0,4,1,37.1722014,-3.0344627,"calle Iglesia, 6"
25487.0,chalet,320.0,1,1,36.7702125,-3.1672402,carril de la Balsilla
26000.0,flat,50.0,2,1,37.1875883,-3.7206527,calle California
26000.0,chalet,184.0,2,1,37.1853119,-3.1569218,calle Cervantes
26000.0,flat,48.0,1,1,36.9699748,-3.1517661,Alpujarra de la Sierra
26000.0,flat,64.0,2,1,37.528614,-2.9079023,"calle Paseo, 8"
26000.0,countryHouse,100.0,5,2,37.8115863,-2.5396538,Huéscar
26000.0,countryHouse,75.0,2,1,37.4101675,-3.3754039,"calle Cenete, 5"
26000.0,countryHouse,220.0,4,2,37.8091771,-2.5282842,"Barrio San Isidro, 86"
26000.0,flat,77.0,3,1,36.8641989,-3.0573069,"barrio san martin, 5"
26500.0,chalet,114.0,0,0,36.9375666,-3.5559848,"calle Carniceria, 4"
26600.0,chalet,63.0,3,0,37.2927219,-3.1373046,"calle Eras de Lara, Segunda Cañada"
26700.0,chalet,92.0,2,2,36.8338927,-3.5169292,Vélez de Benaudalla
26900.0,chalet,49.0,2,1,36.8338034,-3.5142448,"La fe, 9"
27000.0,chalet,221.0,1,1,37.0611906,-3.759632,calle Real
27000.0,chalet,56.0,2,1,37.3244632,-3.5943062,Deifontes
27000.0,chalet,55.0,2,1,37.3256001,-3.5929346,calle Juan XXIII
27000.0,chalet,100.0,3,2,37.2483339,-3.7467052,calle Batán
27000.0,chalet,89.0,2,1,37.3238563,-3.5956117,plaza España
27000.0,chalet,72.0,2,1,37.1655983,-4.1556767,calle Menéndez y Pelayo
27000.0,chalet,250.0,7,1,36.9544352,-3.856817,"calle Real, 31"
27000.0,countryHouse,220.0,6,2,37.6052575,-2.9236668,"calle gorrión, 71"
27100.0,chalet,112.0,3,1,37.2203905,-3.7868404,"ronda del Cuarto, 50"
27100.0,chalet,372.0,3,2,37.17293,-3.03646,"calle Iglesia, 6"
27170.0,chalet,151.0,2,1,37.2522497,-3.7513209,calle Nueva
27500.0,chalet,177.0,4,2,37.3175104,-3.7853254,calle Eras
27600.0,chalet,81.0,2,1,37.3242075,-4.1569825,"calle Prado de la Fuente, 9"
27900.0,chalet,60.0,5,1,37.2190381,-3.5177947,Huétor Santillán
28000.0,chalet,85.0,3,1,37.256788,-3.7885122,Pinos-Puente
28000.0,chalet,104.0,3,2,37.2564045,-3.7561603,Barriada de la Paz
28000.0,chalet,85.0,3,2,37.2546585,-3.7885216,"plaza Padre García Jiménez, 2"
28000.0,flat,59.0,2,1,37.20684,-3.6081537,calle Vera Moreno
28000.0,flat,86.0,4,1,37.2167223,-3.7845365,calle La Paz
28000.0,chalet,78.0,2,1,37.2222431,-3.7875413,ronda del Cuarto
28000.0,chalet,77.0,3,2,37.2057505,-3.6064842,calle José Risueño
28000.0,flat,71.0,1,1,37.1991367,-3.5970443,ronda de Alfareros
28000.0,countryHouse,125.0,5,1,37.59539,-2.3950999,"Aldea Vertientes, 46"
28000.0,countryHouse,150.0,4,1,37.43935,-3.32936,"calle Serval, 26"
28000.0,countryHouse,138.0,5,1,37.60561,-2.9256701,"Gorrión, 21"
28000.0,chalet,85.0,4,2,36.91059,-3.55661,"calle Correo Viejo, 1"
28382.0,flat,75.0,3,1,37.2058714,-3.5974659,Barrio Polígono Cartuja
28500.0,chalet,40.0,2,1,37.286418,-3.8829319,"plaza Naranjo de Íllora, 1"
28700.0,flat,144.0,3,2,37.2003401,-3.8054632,camino Romilla
28800.0,chalet,258.0,7,1,37.4916939,-2.7728623,calle Almendro
28900.0,flat,64.0,2,1,37.2063098,-3.5984043,calle Joaquín Corral Almagro
28900.0,chalet,102.0,2,2,36.9866144,-3.5652473,Durcal
29000.0,chalet,174.0,4,2,37.2517431,-3.7510902,"calle Fajardo, 11"
29000.0,chalet,316.0,1,1,37.8120159,-2.5396688,calle Serval
29000.0,chalet,90.0,3,1,37.1605306,-3.4382722,"calle de la Carrera, 20"
29000.0,flat,89.0,4,2,37.295196,-3.1359368,calle Cañada Ojeda
29000.0,chalet,113.0,3,1,37.2265682,-3.6903911,calle Menéndez Pelayo
29000.0,countryHouse,180.0,6,1,37.4335643,-2.7276968,Diseminado yeserias s/n
29000.0,flat,86.0,2,1,37.2155358,-3.7846213,calle Ángel Ganivet
29000.0,flat,51.0,2,1,37.2163046,-3.7887795,Barrio a Santa Ana
29000.0,countryHouse,190.0,3,1,37.004066,-3.9891183,"Real, 14"
29000.0,chalet,93.0,3,1,37.3018117,-3.1404125,calle Mensafies
29000.0,chalet,120.0,3,1,36.9577282,-3.1371034,"callejón de la Umbria, 12"
29000.0,countryHouse,130.0,2,1,37.17479,-2.94928,"calle San Francisco Serrano, 28"
29000.0,countryHouse,140.0,4,1,37.37023,-2.97081,"calle Huertos, 7"
29000.0,flat,70.0,3,1,37.2046193,-3.6068624,"calle Fray Francisco Morales, 14"
29500.0,chalet,186.0,3,2,36.9345277,-3.5700514,calle Larga
29500.0,chalet,342.0,5,0,36.9929225,-3.0796425,"Barrio La Jarea, 60"
29500.0,countryHouse,142.0,5,1,36.905037,-3.0979368,calle Cementerio
29500.0,flat,124.0,4,2,37.2742306,-3.5754591,"calle Morales, 1"
29800.0,chalet,189.0,2,1,37.2260066,-3.1613531,calle las Cruces
29800.0,countryHouse,129.0,5,1,36.9577282,-3.1371034,"callejón de la Umbria, 12"
29891.0,flat,94.0,3,1,37.204711,-3.5976292,calle Joaquín Corral Almagro
29891.0,flat,71.0,3,1,37.2041157,-3.6003681,calle Joaquín Corral Almagro
29900.0,countryHouse,40.0,1,1,37.2731921,-3.6176644,sn s/n
29900.0,chalet,180.0,3,2,36.7848441,-3.6074014,"avenida Andalucia, 37"
29900.0,chalet,104.0,3,1,37.2385338,-3.8426987,Illora
29900.0,chalet,107.0,2,0,36.7433383,-3.391954,Gualchos
29900.0,chalet,64.0,2,0,37.1706258,-3.6937228,Belicena
29900.0,chalet,68.0,2,1,36.92968,-3.58083,"calle Concepcion, 7"
29900.0,countryHouse,68.0,2,1,36.92968,-3.58083,"calle CONCEPCIÓN, 7"
30000.0,chalet,382.0,5,1,37.1843404,-3.1591421,"CARNERO, 5"
30000.0,chalet,56.0,2,1,37.3256548,-3.5939254,"calle España, 7"
30000.0,chalet,180.0,5,1,37.001849,-3.9921239,Alhama de Granada
30000.0,countryHouse,90.0,5,1,37.3039426,-3.2217005,"calle Paraíso, 12"
30000.0,chalet,75.0,2,1,36.7854602,-3.6083391,Molvizar
30000.0,countryHouse,130.0,4,0,37.7172332,-2.4758107,"Barrio de San Pedro, 54"
30000.0,flat,87.0,1,1,37.2008211,-3.5987384,calle Mayor
30000.0,flat,87.0,1,1,37.1993284,-3.5994497,calle Mayor
30000.0,flat,67.0,2,1,37.1986564,-3.600129,pasaje de Teba
30000.0,flat,67.0,2,1,37.2017315,-3.5993066,pasaje de Teba
30000.0,countryHouse,148.0,4,2,37.15074,-4.06541,"calle Almeria, 8"
30000.0,chalet,120.0,3,1,37.8090084,-2.5449082,"calle Maestro García Lacal, 2"
30000.0,chalet,620.0,0,0,37.5321395,-2.9081442,"avenida de la Constitución, 2"
30000.0,chalet,58.0,2,1,37.1887046,-3.5916214,"calle León, 12"
30000.0,chalet,137.0,3,2,37.17496,-2.94726,"cuesta de San Blas, 20"
30000.0,countryHouse,53.0,3,2,37.4912319,-2.7738415,"calle Zapatería, 1"
30000.0,countryHouse,305.0,3,1,37.8092229,-2.5389397,"calle Tiendas, 12"
30000.0,countryHouse,100.0,4,1,37.7429277,-2.5516305,"calle Padre Manjón, 18"
30000.0,countryHouse,240.0,10,1,37.4052955,-3.0101075,"Las Viñas, 23"
30000.0,countryHouse,46.0,4,1,37.49266,-2.78496,"Barriada Cuevas de la Fuensanta, 46"
30000.0,countryHouse,150.0,8,2,37.606381,-2.9313297,"Barrio de Gorrión, 55"
30000.0,chalet,257.0,5,1,37.5560128,-3.0914802,"carretera Villanueva de las Torres a A-92, 18"
30000.0,chalet,171.0,3,0,36.9978539,-3.2646091,calle ladera s/n
30000.0,countryHouse,120.0,3,1,36.8780946,-3.2984523,"calle Aguilera, 3"
30300.0,flat,136.0,3,2,37.200456,-3.8051596,camino Romilla
30700.0,chalet,183.0,3,1,37.2537873,-3.7444853,vereda de la Alameda
31000.0,flat,95.0,3,2,37.1873056,-3.7223754,calle Tikaz
31000.0,chalet,140.0,4,2,37.491378,-2.7787738,calle Caños de la Morería
31400.0,flat,62.0,5,1,37.8133275,-2.5426989,calle Rincón del Obispo
31900.0,countryHouse,792.0,1,2,37.0154968,-3.594281,"carretera Bailén-Motril, 8"
32000.0,chalet,180.0,3,1,36.9391718,-3.1801427,calle Baño
32000.0,chalet,114.0,0,0,37.0029806,-3.9908653,calle Antequera
32000.0,chalet,120.0,4,1,37.57305,-3.50584,"calle Aranda, 12"
32000.0,chalet,240.0,3,1,36.940868,-3.1802138,"calle Baño, 2"
32000.0,countryHouse,190.0,4,2,37.18219,-3.15899,"calle Alcazar, 59"
32000.0,chalet,120.0,4,1,37.3218813,-4.0071719,"calle Baja, 64"
32000.0,countryHouse,166.0,12,2,37.4408715,-2.7223759,"calle Henchidor, 2"
32000.0,countryHouse,180.0,5,1,37.2580298,-3.808027,"calle San Rafael, 3"
32500.0,flat,105.0,3,1,37.2548665,-3.7565151,puente Barriada San Cristóbal de Pinos
32900.0,chalet,117.0,3,1,37.5831022,-3.2431936,Barrio Huerta
32900.0,chalet,138.0,3,2,36.9098144,-3.5575117,El Pinar
33000.0,chalet,327.0,6,1,37.3009145,-3.1312554,calle San Francisco
33000.0,chalet,130.0,3,3,37.2301981,-3.2406049,"calle Alamos, 8"
33000.0,flat,90.0,2,1,37.2047729,-3.6060255,calle Antón Calabrés
33000.0,countryHouse,149.0,1,1,37.3214315,-4.1593297,Algarinejo
33000.0,flat,81.0,3,1,37.583165,-2.5775993,"avenida de Juan Pérez Arcas, 25"
33000.0,chalet,350.0,8,2,37.8160844,-2.5384746,"calle Santiago, 18"
33000.0,countryHouse,120.0,3,1,37.5390008,-2.8426439,"calle Jarea, 29"
33300.0,chalet,177.0,5,2,37.1676886,-4.1532559,calle Real
33300.0,chalet,107.0,3,2,37.1666416,-4.1544717,"calle Bellavista, 10"
33500.0,chalet,104.0,2,1,37.370787,-3.7148833,Colomera
34000.0,flat,105.0,3,1,37.2550607,-3.7562804,puente Barriada San Cristóbal de Pinos
34000.0,flat,83.0,3,2,37.2249578,-3.6826582,camino Albolote
34000.0,chalet,140.0,4,2,37.1498166,-4.0665438,Conquista
34000.0,flat,82.0,3,2,37.1986499,-3.5966983,plaza de Mariano Galera
34000.0,flat,89.0,3,2,37.2069841,-3.6069799,calle José Risueño
34000.0,flat,82.0,3,2,37.198228,-3.598922,plaza de Mariano Galera
34000.0,penthouse,100.0,3,2,37.3930099,-3.52998,"calle Gracia, 11"
34000.0,countryHouse,115.0,4,0,37.1486166,-4.0655037,"calle San isidro, 17"
34400.0,flat,90.0,3,1,37.1683282,-4.1611063,calle Abades
34500.0,chalet,144.0,6,1,37.024241,-3.6254435,calle Pintor Julio García Villena
34500.0,chalet,96.0,3,1,37.2490427,-3.7444843,calle Batán
34900.0,chalet,144.0,4,1,37.0249054,-3.6225282,Padul
34900.0,countryHouse,288.0,5,3,37.3714606,-3.7118196,Colomera
34900.0,chalet,137.0,2,1,37.0247714,-3.6224229,Padul
34900.0,countryHouse,41.0,0,0,37.026423,-3.6264605,"calle Vista Alegre, 7"
34900.0,flat,66.0,3,1,37.1680878,-4.1488791,Loja
34900.0,countryHouse,41.0,0,0,37.026423,-3.6264605,"calle Vista Alegre, 7"
34900.0,chalet,41.0,0,0,37.026423,-3.6264605,"calle Vista Alegre, 7"
35000.0,countryHouse,86.0,1,0,37.20194,-3.7736,"calle Ancha, 10"
35000.0,chalet,75.0,2,1,36.9017,-3.29972,"calle Revueltas, 6"
35000.0,countryHouse,42.0,1,0,36.9238875,-3.4792969,WGFC+H74 Lanjarón s/n
35000.0,flat,87.0,3,1,37.200887,-3.5993521,pasaje de Teba
35000.0,chalet,82.0,3,1,36.7874645,-3.6085286,calle Peñuelas Altas s/n
35000.0,chalet,75.0,2,0,36.790028,-3.2056986,calle Jaen
35000.0,chalet,80.0,3,2,37.0586694,-3.9145847,Cacin
35000.0,chalet,207.0,4,2,37.0053784,-3.9840891,Alhama de Granada
35000.0,flat,54.0,3,1,37.1865344,-3.7213332,calle Puerto Rico s/n
35000.0,chalet,115.0,2,1,37.4896404,-2.7725461,Baza
35000.0,chalet,67.0,2,1,37.2079717,-3.6077829,calle Pedro Gutiérrez
35000.0,flat,47.0,2,1,36.817664,-3.2780605,"calle Era de Alfornon, 43"
35000.0,chalet,170.0,3,1,37.220388,-3.7883724,calle Parras
35000.0,studio,75.0,0,1,36.9713433,-3.1523385,"avenida de Andalucía, 14"
35000.0,chalet,40.0,1,1,36.790642,-3.2042126,Castillo
35000.0,chalet,100.0,3,1,37.2208097,-3.7859527,calle Generalife
35000.0,penthouse,95.0,3,1,37.9598393,-2.4375112,"calle Cinta Baja, 68"
35000.0,chalet,170.0,3,1,37.2186006,-3.785922,calle Parras
35000.0,countryHouse,284.0,5,1,37.4375715,-2.7255533,Caniles
35000.0,flat,70.0,3,1,37.3014691,-3.1326389,calle Pachecos
35000.0,flat,73.0,1,1,37.2010631,-3.5988159,calle Doña María Manuela
35000.0,chalet,154.0,3,1,37.5817617,-2.5862909,Cullar
35000.0,countryHouse,216.0,5,2,37.4956303,-3.5105223,"calle Sol, 38"
35000.0,studio,46.0,0,1,37.0105293,-3.0099193,carretera Puerto la Ragua
35000.0,countryHouse,100.0,3,1,37.3746158,-3.0631834,"Grupo casas nuevas, 7"
35000.0,countryHouse,219.0,5,1,37.4902684,-2.7717729,"calle Redondo, 1"
35000.0,countryHouse,70.0,3,1,37.0004798,-3.0067558,"San José, 2"
35000.0,chalet,174.0,5,1,37.2949282,-2.957297,"C Mirasierra, 28"
35000.0,chalet,470.0,1,1,37.1768024,-2.990262,"calle andalucia, 9"
35000.0,countryHouse,120.0,3,1,36.8190387,-3.2781877,"calle Real, 34"
35000.0,chalet,181.0,4,2,37.4918505,-2.7762887,"calle Nueva, 18"
35000.0,chalet,120.0,5,1,36.9751577,-3.1911469,"calle del Agua, 40"
35000.0,chalet,100.0,4,2,37.8149867,-2.5362198,"Barrio los Reyes, 64"
35000.0,chalet,120.0,4,2,37.173802,-4.1519873,"calle las Cruces, 10"
35000.0,countryHouse,40.0,0,0,36.9500076,-3.4402254,calle Cerroman s/n
35000.0,flat,76.0,3,1,36.9179963,-3.4816225,"calle Real, 48 callereal"
35000.0,countryHouse,110.0,4,2,37.5393714,-2.8415046,"calle CIJERILLa, 1"
35000.0,chalet,48.0,2,1,37.4440794,-2.7257179,"cuesta del Convento, 5"
35400.0,flat,50.0,3,1,37.1846221,-3.7223479,calle California
35500.0,chalet,103.0,2,0,37.31925,-3.78565,"tiena, 1"
35700.0,countryHouse,130.0,3,2,37.1531953,-3.6675693,Cullar-Vega
35900.0,chalet,105.0,2,1,36.9266186,-3.6326989,"calle Estación, 89"
35900.0,chalet,130.0,3,1,36.8427012,-3.5869667,Los Guajares
36000.0,countryHouse,111.0,2,1,36.92959,-3.59772,"plaza Constitución, 10"
36000.0,chalet,127.0,4,1,37.2528556,-3.7512927,"calle Vadillo, 38"
36000.0,countryHouse,203.0,5,1,37.256924,-3.8091283,Pinos-Puente
36000.0,chalet,111.0,4,1,37.0026816,-3.9907082,Alhama de Granada
36000.0,chalet,100.0,2,2,37.490176,-2.7693808,calle Yeseros
36000.0,chalet,315.0,2,1,36.9804774,-3.1560979,"calle San José, 21"
36000.0,flat,93.0,3,1,37.2862378,-3.8821956,"calle Alta, 6"
36000.0,chalet,68.0,1,1,37.1070263,-3.6430825,Zona Ayuntamiento
36000.0,countryHouse,177.0,3,1,36.9936601,-3.0794885,"calle Argentina, 7"
36000.0,chalet,274.0,4,2,36.9570542,-3.1799209,"calle los Naranjillos, 14"
36000.0,chalet,152.0,4,1,36.8154624,-3.681644,"calle Moral, 3"
36000.0,flat,93.0,3,1,37.2862599,-3.8822106,"calle alta, 6"
36000.0,flat,133.0,3,2,36.7880765,-3.6154539,Molvizar
36000.0,chalet,84.0,3,2,37.2230818,-3.6924856,calle Menéndez Pelayo
36000.0,countryHouse,62.0,0,0,36.9491969,-3.3546354,"Placeta los Mártires, 11"
36000.0,chalet,172.0,4,1,37.6557979,-2.7724515,Cortes de Baza
36000.0,countryHouse,120.0,2,1,37.17229,-3.03608,"calle Ancha, 24"
36000.0,chalet,222.0,4,1,37.49261,-2.7740882,Baza
36000.0,countryHouse,170.0,6,2,37.4530279,-3.2903107,"avenida Andalucia, 12"
36000.0,countryHouse,97.0,4,1,37.1736151,-4.1521605,"calle Alta de San Francisco, 10"
36000.0,countryHouse,68.0,2,1,37.3256548,-3.5939254,"granada, 27"
36000.0,chalet,156.0,4,1,36.8965766,-3.5283249,El Pinar
36000.0,penthouse,51.0,1,1,37.9580454,-2.4364161,"calle Escuelas, 6"
36000.0,chalet,143.0,3,0,37.8123498,-2.5386549,"calle Buitre, 9"
36500.0,chalet,50.0,2,1,37.197792,-3.8342714,Lachar
36500.0,chalet,109.0,3,1,37.52645,-2.9086038,calle Almendro
36800.0,countryHouse,400.0,6,1,37.0041175,-3.070427,calle Santa Lucía
36900.0,chalet,76.0,3,0,37.1923926,-3.7184747,ronda Granada Norte
37000.0,chalet,286.0,1,1,37.3212186,-3.3325276,calle la Palma
37000.0,chalet,134.0,3,1,37.2855684,-3.8824962,"calle Real, 4"
37000.0,chalet,129.0,3,2,37.4911763,-2.7767312,plaza San Sebastián
37000.0,flat,90.0,3,1,37.199325,-3.5980971,pasaje de Francisca Alba
37000.0,chalet,150.0,4,2,37.2184831,-3.7871918,calle Generalife
37000.0,chalet,58.0,3,2,37.2084664,-3.6088476,calle Ceuta
37000.0,flat,90.0,3,1,37.1974887,-3.5967006,pasaje de Francisca Alba
37000.0,flat,85.0,3,1,37.958962,-2.438523,"calle Cinto Baja, 72"
37000.0,flat,91.0,4,1,37.3520301,-3.1665075,"Paloma, 15"
37000.0,chalet,150.0,4,1,37.3214479,-4.0087249,"calle Baja, 16"
37100.0,chalet,84.0,3,2,37.4791218,-3.0419719,"avenida de Andalucía, 19"
37260.0,chalet,365.0,5,1,37.54039,-2.84222,"plaza Posito, 4"
37400.0,countryHouse,232.0,4,1,37.0075844,-3.0147066,Capitan
38000.0,chalet,77.0,2,1,36.7506551,-3.5184411,"calle Piedrabuena, 93"
38000.0,chalet,41.0,3,2,36.8353673,-3.6729984,calle Estacion
38000.0,chalet,70.0,2,1,36.800888,-3.6402411,Itrabo
38000.0,chalet,65.0,4,1,37.0705176,-3.8203567,GR-3310
38000.0,chalet,132.0,4,1,37.3248398,-4.1567299,"calle cerrillo, 7"
38000.0,flat,1047.0,3,2,37.2721813,-3.6169842,calle Escaleron
38000.0,chalet,70.0,2,2,36.7853932,-3.6078653,Molvizar
38000.0,chalet,108.0,1,1,36.8356169,-3.5806848,"calle San Antonio, 6"
38000.0,chalet,54.0,2,1,37.0105442,-3.0113597,"carretera Puerto la Ragua, 2  E"
38000.0,chalet,161.0,4,1,37.1984355,-3.8721991,"calle Parra, 22"
38000.0,chalet,116.0,3,2,37.1838094,-2.9912751,calle Marquesado
38000.0,chalet,220.0,3,1,36.9009208,-3.4227984,"calle Real, 74"
38000.0,chalet,80.0,4,1,37.3213387,-4.0119551,"calle Gracia, 9"
38000.0,countryHouse,200.0,6,2,36.9263453,-3.1083544,"calle de la Fuente, 9"
38400.0,chalet,154.0,3,1,37.4897572,-2.7782246,calle Pozo
38500.0,chalet,52.0,1,1,37.1905072,-3.5900241,calle Marina
38500.0,chalet,160.0,5,2,37.4915689,-2.7730373,calle Almendro
38900.0,chalet,120.0,2,1,37.607188,-2.7010158,plaza Mayor
39000.0,countryHouse,177.0,3,1,36.9277668,-3.5413502,"Parra, 14"
39000.0,chalet,91.0,3,1,36.9549452,-3.857228,Fornes
39000.0,chalet,200.0,4,1,36.9346354,-3.9089582,"calle Tarragona, 20"
39000.0,chalet,120.0,3,1,37.0049386,-3.9834319,Alhama de Granada
39000.0,chalet,120.0,3,1,36.9552225,-3.8587383,Fornes
39000.0,chalet,112.0,2,1,37.3202668,-3.7885974,calle Realejo s/n
39000.0,chalet,190.0,5,1,37.2030957,-3.7944226,"calle Reina Sofia, 22"
39000.0,chalet,190.0,5,2,37.2036888,-3.7950348,calle Reina Sofia
39000.0,flat,80.0,2,1,37.2000258,-3.829539,calle Vicente Aleixandre
39000.0,chalet,97.0,4,1,37.4406912,-3.4403142,calle Tico Medina
39000.0,flat,117.0,4,1,36.8792982,-3.2984202,"calle la Paloma, 1"
39000.0,chalet,161.0,4,1,37.2018067,-3.7958536,calle Reina Sofia
39000.0,chalet,147.0,3,1,37.2359034,-3.5710603,callejón de la Virgen
39000.0,flat,80.0,2,1,37.1983505,-3.8286648,Lachar
39000.0,chalet,74.0,5,1,37.0854606,-3.8086153,Ventas de Huelma
39000.0,flat,75.0,2,1,37.2051069,-3.5972888,Barrio Polígono Cartuja
39000.0,chalet,162.0,4,1,37.2020769,-3.7935764,calle Reina Sofia
39000.0,countryHouse,52.0,1,1,36.9284888,-3.4836405,Lanjaron
39000.0,studio,22.0,0,1,36.7416083,-3.6881539,"Ctra. Suspiro del Moro, 10"
39000.0,countryHouse,350.0,8,1,37.1781955,-2.9913808,"Mediodía, 9"
39000.0,countryHouse,68.0,4,1,37.0083194,-3.0325016,"calle Real, 18"
39000.0,chalet,200.0,4,1,37.5807293,-3.2454679,"calle Alhambra, 33"
39000.0,countryHouse,193.0,6,2,37.43627,-2.72437,"calle Guardas, 5 T"
39000.0,countryHouse,120.0,4,1,37.1763636,-2.9488154,"Carril, 5"
39000.0,flat,66.0,2,1,37.1973259,-3.8288964,Lachar
39000.0,countryHouse,160.0,4,1,37.22351,-3.60624,"calle Manuel de Gongora, 12"
39500.0,chalet,223.0,5,3,37.1996167,-3.8711984,calle Parra
39500.0,countryHouse,128.0,4,1,37.0680284,-3.8195033,calle Cassinello
39500.0,chalet,85.0,3,2,37.5576934,-3.0875829,calle Pablo Iglesias s/n
39500.0,chalet,106.0,4,1,37.2885766,-3.8767876,"calle Santa Teresa de Ávila, 7"
39500.0,flat,80.0,2,1,37.200037,-3.8311929,Lachar
39500.0,flat,53.0,3,1,37.316328,-3.1285749,avenida Estación
39500.0,chalet,166.0,4,1,37.1984404,-3.8721391,"calle Parra, 20"
39500.0,flat,165.0,3,1,36.9256592,-3.5425095,Lecrin
39630.0,chalet,68.0,3,1,37.3706429,-3.064358,Guadix
39840.0,chalet,126.0,4,1,36.9900956,-3.590267,"calle Real Alta, 28 ----48"
39840.0,countryHouse,126.0,4,1,36.9901169,-3.5901765,"calle REAL ALTA, 38"
39840.0,chalet,126.0,5,1,36.9902196,-3.5907178,Villamena
39900.0,chalet,174.0,4,1,37.022523,-3.6261498,Padul
39900.0,flat,124.0,3,2,37.3195389,-4.0090051,"calle las Parras, 53 -1"
39900.0,flat,124.0,3,2,37.3195389,-4.0090051,"calle las Parras, 53 -1"
39900.0,chalet,128.0,4,1,36.9546473,-3.8584398,"José Antonio, 18"
39900.0,chalet,78.0,0,0,37.2754106,-3.61747,Calicasas
39900.0,countryHouse,260.0,3,2,36.834816,-3.5779851,Las Monjas
39900.0,countryHouse,132.0,2,0,36.8399914,-3.2030186,Lugar Peinados
39900.0,chalet,110.0,4,1,37.2571646,-4.169524,Zagra
39900.0,flat,88.0,3,1,37.163388,-4.1487155,Loja
39900.0,countryHouse,318.0,3,2,36.9087566,-3.0995577,calle Cementerio
39900.0,chalet,131.0,6,3,37.79511,-2.78005,"calle Hondo Bajo, 25"
39999.0,countryHouse,300.0,6,4,37.22788,-3.1341199,"calle Carretera, 4"
40000.0,chalet,150.0,4,1,36.9286472,-3.6310462,"calle Fabrica, 1"
40000.0,chalet,120.0,2,1,37.0296492,-3.8296064,"calle la Fuente, 2 -28"
40000.0,flat,88.0,2,1,37.1656753,-4.1470186,Loja
40000.0,chalet,105.0,3,1,37.1763192,-4.1474065,Loja
40000.0,countryHouse,451.0,2,1,37.18535,-3.15704,"calle Carnero, 3"
40000.0,countryHouse,35.0,1,1,36.7959193,-3.6055238,Molvizar
40000.0,flat,90.0,4,1,36.94203,-3.1801,calle Celestino
40000.0,countryHouse,140.0,5,2,36.78843,-3.403617,calle Castillo s/n
40000.0,chalet,128.0,3,1,36.9299521,-3.58088,"calle Iglesia, 8"
40000.0,chalet,212.0,1,1,37.2499553,-3.7479193,"calle Salvador Ávila, 10"
40000.0,chalet,312.0,7,2,37.178139,-3.1144598,"avenida Hubert Meersmans, 41"
40000.0,chalet,85.0,3,2,37.5576934,-3.0875829,calle Pablo Iglesias s/n
40000.0,flat,85.0,3,2,37.1922757,-3.7159307,"calle Rubén Darío, 5"
40000.0,chalet,227.0,4,5,37.3220356,-4.0186353,Diseminado Extrarradio
40000.0,chalet,91.0,4,1,37.1880153,-3.7193719,"alamos, 18"
40000.0,chalet,40.0,1,1,37.1905127,-3.5893886,calle Bidasoa
40000.0,chalet,226.0,4,5,37.3217398,-4.0116062,calle Gracia
40000.0,countryHouse,120.0,4,1,37.7423465,-2.5550255,"calle la Mariquilla, 22"
40000.0,flat,66.0,2,1,37.2110392,-3.613514,plaza Francisco Javier Simonet
40000.0,countryHouse,197.0,4,2,37.0009875,-3.0044117,GRANADILLOS
40000.0,flat,66.0,2,1,37.2119174,-3.6108023,plaza Francisco Javier Simonet
40000.0,countryHouse,100.0,5,1,37.2965669,-3.1348938,"calle San Marcos, 31"
40000.0,countryHouse,396.0,6,2,36.8942085,-3.5266336,"calle la Fuente, 25"
40000.0,countryHouse,90.0,3,1,37.4899298,-2.6027393,Cortijo en la Jamula s/n  
40000.0,chalet,100.0,2,1,37.1207901,-3.5895562,calle Infantas
40000.0,chalet,84.0,2,1,36.8887769,-3.5135456,"Cueva, 10"
40000.0,countryHouse,227.0,4,1,37.5044185,-3.2289622,"Velazquez, 8"
40000.0,chalet,110.0,3,1,37.2553315,-3.759293,"Barriada de la Paz, 145"
40000.0,chalet,280.0,3,1,36.9471274,-3.1805402,"calle Doña Ana, 3"
40000.0,flat,91.0,2,1,37.4797802,-3.6186138,calle Egido Eras
40000.0,countryHouse,240.0,4,2,37.1763636,-2.9488154,"calle Parras, 22"
40000.0,countryHouse,80.0,4,1,37.7199769,-2.4780152,"Barrio Tarquina alta, 29"
40000.0,countryHouse,60.0,2,2,36.94995,-3.82337,"calle Correos, 27"
40000.0,countryHouse,301.0,5,3,37.6557699,-2.77219,"calle Iglesia, 8"
40000.0,countryHouse,38.0,1,1,36.7867723,-3.6086343,"calle Iglesia, 21"
40000.0,countryHouse,60.0,3,1,36.7854066,-3.610407,"calle Peñuelas Bajas, 2"
40000.0,countryHouse,110.0,3,1,36.9544308,-3.8575773,"ADRIAN, 18"
40000.0,countryHouse,49.0,1,1,37.16165,-3.07288,"calle Andalucia, 5"
40000.0,countryHouse,140.0,4,1,37.1818972,-3.0619729,"calle Alamo, 6"
40000.0,flat,80.0,3,1,37.3925818,-3.5199321,"calle de Andalucía, 3"
40000.0,chalet,100.0,3,1,37.2546194,-3.7587828,Barriada de la Paz s/n
40000.0,countryHouse,70.0,3,1,37.2670478,-3.1045304,"calle Cervantes, 19"
40000.0,countryHouse,100.0,4,1,36.8789528,-3.2995251,"calle Moret, 6"
40000.0,countryHouse,36.0,2,1,37.3247151,-3.5944893,"calle Nuestra Señora del Milagro, 6"
40000.0,countryHouse,30.0,1,1,37.4296408,-2.9063867,"Urbanización torre del romeral, 24"
40000.0,chalet,200.0,4,1,36.8800258,-3.2993867,"calle Colegio, 1"
40000.0,countryHouse,90.0,0,0,37.3022097,-3.210562,"calle Hermanos Quintero, 8"
40000.0,chalet,146.0,4,1,37.4892164,-2.7710391,"calle Corralazo, 30"
40000.0,countryHouse,200.0,10,2,37.22501,-3.16188,"calle del Rosal, 16"
40000.0,countryHouse,300.0,6,1,36.9563471,-3.1795349,"calle real, 33"
40000.0,countryHouse,254.0,3,1,37.22567,-3.16174,"calle San Agustin, 9 N"
40000.0,countryHouse,282.0,9,1,36.9437,-3.21252,"calle Erillas, 18"
40000.0,countryHouse,120.0,8,1,36.918844,-3.47892,"calle Hondillo, 54"
40200.0,flat,122.0,3,1,37.9598393,-2.4375112,"calle Cinta Baja, 68"
40900.0,chalet,106.0,3,1,37.1925204,-3.8306893,Lachar
41000.0,countryHouse,186.0,3,2,37.5277918,-2.9090745,"calle San Isidro, 17"
41000.0,flat,67.0,2,1,37.1993562,-3.8304783,calle Vicente Aleixandre
41000.0,chalet,228.0,2,2,37.5855887,-2.5741493,calle San José Alta
41000.0,chalet,182.0,4,2,37.7384377,-2.7840429,calle Fuente Vera
41000.0,flat,78.0,2,1,37.2193831,-3.6059263,calle la Cruz
41000.0,flat,98.0,3,2,37.2008819,-3.6000087,pasaje de Teba
41000.0,flat,98.0,3,2,37.2011957,-3.5980007,pasaje de Teba
41000.0,chalet,77.0,2,2,37.1117456,-3.6492092,plaza de los Naranjos
41000.0,countryHouse,50.0,2,1,36.96593,-3.19336,"calle al de la Cantera, 30"
41000.0,flat,105.0,3,1,37.2590184,-3.8058387,"calle Alhambra, 5"
41500.0,chalet,186.0,3,1,37.1314011,-3.8256339,"avenida Castillo Tajarja, 26"
41500.0,flat,124.0,3,1,37.3226,-4.00646,"calle Juan Ramon Jimenez, 3"
41600.0,flat,97.0,3,1,37.0622399,-3.9749261,Santa Cruz del Comercio
41700.0,flat,60.0,1,1,37.1695786,-4.1599753,Loja
41900.0,flat,126.0,3,1,37.162811,-4.1441042,Loja
42000.0,chalet,134.0,4,1,37.180745,-3.0652497,"calle Transversal a Justo Cabrera, 61"
42000.0,flat,64.0,3,1,37.2998405,-3.1312025,calle Santa Ana
42000.0,chalet,148.0,2,1,37.161972,-4.147965,calle Haros
42000.0,chalet,127.0,4,1,37.1808678,-3.0659374,calle del Martir Justo Cabrera Gutierrez
42000.0,chalet,150.0,7,1,37.0309441,-3.8280173,calle Rodadero
42000.0,countryHouse,90.0,5,1,36.8340039,-3.2111594,carretera de albuñol s/n
42000.0,chalet,225.0,5,1,37.81332,-2.53848,"calle Buitre, 36"
42000.0,countryHouse,56.0,3,2,37.5289718,-2.9090518,Freila
42000.0,chalet,108.0,2,1,37.2875662,-3.8850135,calle Parras
42000.0,countryHouse,75.0,3,1,37.3721608,-3.2177453,"calle Mirador, 330"
42000.0,chalet,148.0,5,1,37.164101,-4.1510311,Loja
42000.0,chalet,119.0,3,2,37.183135,-2.9889766,calle Marquesado
42000.0,chalet,118.0,3,2,37.1816767,-2.9898578,calle Marquesado
42200.0,flat,112.0,3,1,37.958962,-2.438523,"calle Cinto Baja, 72"
42500.0,countryHouse,35.0,1,1,37.0025628,-3.990517,"calle la Cruz, 11"
42700.0,chalet,156.0,5,1,36.9105742,-3.5560362,"calle Moraleda, 2"
42900.0,chalet,136.0,3,1,37.1705119,-4.152252,Loja
42900.0,chalet,105.0,4,1,36.9907128,-3.5679109,Durcal
43000.0,flat,84.0,2,1,37.1855084,-3.7186915,calle Teotihuacán
43000.0,flat,77.0,2,1,37.1998418,-3.5974908,pasaje de Teba
43000.0,chalet,92.0,3,1,37.237805,-3.570955,callejón de la Virgen
43000.0,flat,63.0,1,1,37.2078367,-3.6302097,calle La Rioja
43000.0,countryHouse,230.0,5,1,36.95561,-3.1793217,"calle Real de Narila, 1"
43000.0,chalet,120.0,5,1,37.3498561,-3.1644761,calle Doña Mercedes
43000.0,flat,66.0,2,1,37.3178206,-3.1878112,calle Callejas
43000.0,chalet,70.0,1,1,36.8395392,-3.5841048,Los Guajares
43000.0,countryHouse,90.0,3,1,37.4401255,-2.7183457,Caniles
43000.0,countryHouse,120.0,5,1,37.3481261,-3.167969,Benalua de Guadix
43100.0,chalet,75.0,3,1,37.1684362,-4.15984,avenida Jesús
43800.0,flat,75.0,1,1,37.1929704,-3.8279577,calle Malaga
43900.0,penthouse,115.0,1,1,37.0012828,-3.2665353,"plaza de la Iglesia, 1"
44000.0,chalet,57.0,2,1,37.256419,-3.5980323,Güevéjar
44000.0,flat,106.0,3,2,37.2011344,-4.0451384,calle Ángel Ganivet
44000.0,flat,95.0,2,1,37.2012109,-3.5990463,calle Henríquez de Jorquera
44000.0,chalet,128.0,3,2,37.1825939,-2.9921746,calle Marquesado
44000.0,countryHouse,750.0,1,1,37.3317554,-3.7681039,"plaza Iglesia, 2"
44200.0,flat,87.0,3,1,37.3692087,-3.715022,calle Santa Catalina
44500.0,countryHouse,120.0,5,1,36.9770514,-3.1904984,calle del agua
44500.0,chalet,52.0,4,4,36.8280606,-3.208913,calle San Luis
44500.0,countryHouse,168.0,3,1,37.37074,-3.71454,"calle Liana, 16"
44600.0,chalet,244.0,4,2,37.2879347,-3.8830645,"calle cuarterones, 16"
44800.0,chalet,244.0,4,2,37.60929,-2.9365199,"calle Decaradas, 78"
44800.0,flat,244.0,4,1,37.6056203,-2.922875,"calle San Isidro, 78"
44900.0,chalet,92.0,3,1,37.1982138,-4.0390228,Huétor-Tajar
44900.0,chalet,54.0,2,1,37.1544326,-4.2144982,Loja
44900.0,flat,105.0,4,2,37.1635367,-4.1478511,Loja
44900.0,chalet,350.0,7,2,36.9958643,-3.0682677,calle Rosario
44900.0,chalet,120.0,3,2,37.2877166,-3.8786035,"Santa Ana de Illora, 33"
44900.0,flat,61.0,3,1,37.317881,-3.1289692,avenida Estación
44900.0,flat,55.0,2,1,37.0012828,-3.2665353,"plaza de la Iglesia, 1 N"
44900.0,countryHouse,55.0,1,1,37.0000192,-3.0061658,"calle Virgen del Rosario, 1"
45000.0,chalet,162.0,3,1,36.9657159,-3.5887929,"Baja, 30"
45000.0,chalet,254.0,4,1,37.2617715,-3.9146977,"calle Correos, 6"
45000.0,chalet,168.0,3,1,37.1127994,-3.6452742,calle Larga
45000.0,flat,127.0,3,2,37.5421139,-2.8427405,Zujar
45000.0,chalet,105.0,2,1,37.1756051,-4.1473624,Loja
45000.0,chalet,115.0,1,2,37.0011789,-3.9923018,Alhama de Granada
45000.0,chalet,170.0,4,1,37.004638,-3.9844008,Alhama de Granada
45000.0,chalet,135.0,2,1,36.9469659,-3.8223521,Jayena
45000.0,chalet,100.0,3,1,36.9469568,-3.8212453,Jayena
45000.0,chalet,120.0,4,1,37.529405,-2.9100438,Freila
45000.0,chalet,68.0,2,1,36.9640556,-3.0514261,"calle Hermanos Sánchez Velayos, 20"
45000.0,chalet,245.0,5,1,36.8640036,-3.0579694,"Granada, 4"
45000.0,chalet,106.0,4,2,37.2531836,-3.7580587,Barriada de la Paz
45000.0,countryHouse,50.0,2,1,36.8510669,-3.3409168,plaza iglesia
45000.0,chalet,170.0,3,1,37.0614572,-3.9757259,"calle CIRCULO MERCANTIL, 24"
45000.0,flat,73.0,1,1,36.9842772,-3.1550343,"avenida Jose Antonio Bravo, 91"
45000.0,chalet,70.0,6,1,37.2881398,-3.8812548,"calle San Pedro, 24"
45000.0,chalet,170.0,7,3,37.575275,-3.5051147,"calle Enmedio, 34"
45000.0,countryHouse,160.0,6,2,37.55698,-3.40118,"plaza de España, 8"
45000.0,chalet,127.0,4,1,37.1820568,-3.064428,travesía Justo Cabrera
45000.0,chalet,110.0,1,2,36.8795626,-3.295812,calle la Cruz
45000.0,countryHouse,135.0,5,2,36.7863218,-3.6067628,"calle Ancha, 9"
45000.0,countryHouse,143.0,3,1,37.4103006,-3.3754796,"calle Nueva, 17"
45000.0,countryHouse,350.0,20,1,37.6553978,-2.763124,"calle Vial, 77"
45000.0,chalet,52.0,4,1,37.1600086,-3.4383831,"calle Rosario, 5"
45000.0,chalet,97.0,1,1,37.195089,-4.0444279,Huétor-Tajar
45000.0,countryHouse,63.0,2,1,37.4413804,-2.7257665,"calle Henchidor, 67"
45000.0,countryHouse,205.0,4,1,37.5951483,-2.3955568,plaza San Juan s/n SN
45000.0,flat,95.0,2,1,37.2561715,-3.0981218,"plaza de la Constitución, 11"
45000.0,chalet,150.0,4,2,37.3199606,-4.0084969,"calle Animas, 19"
45000.0,penthouse,62.0,2,1,37.3516905,-3.1650136,"Doctor Eloy Martínez, 6"
45000.0,countryHouse,194.0,3,1,36.945971,-3.1785935,"calle PRADO, 16"
45000.0,chalet,85.0,5,1,37.0008532,-3.9920568,Alhama de Granada
45000.0,countryHouse,160.0,12,1,36.7923699,-3.2065893,"calle Balates, 10"
45000.0,chalet,86.0,3,2,37.2615769,-3.0998099,Valle del Zalabi
45000.0,countryHouse,100.0,3,1,37.2511376,-3.8576715,"calle Santa Ana, 3"
45000.0,countryHouse,15800.0,1,1,36.946732,-3.5499843,Lecrin
45000.0,chalet,111.0,3,2,36.9633735,-3.054705,Ugijar
45000.0,chalet,228.0,6,1,37.4915778,-2.7705695,calle Almendro
45000.0,chalet,147.0,3,2,37.1811731,-2.989834,calle Marquesado
45000.0,chalet,132.0,3,2,37.1822851,-2.9897508,calle Marquesado
45000.0,countryHouse,120.0,6,1,37.7215984,-2.6438928,"Barrio de la Cruz, 8"
45000.0,chalet,90.0,4,1,37.2866869,-3.8808969,"Virgen del Pilar, 3"
45000.0,countryHouse,60.0,2,2,37.7963249,-2.7783273,"calle los Corralazos, 21"
45000.0,chalet,130.0,5,2,37.7183834,-2.4789547,"cuesta de San Pedro, 1"
45000.0,countryHouse,150.0,4,1,37.5258508,-2.9069649,"calle Barrio Pinares, 47"
45000.0,countryHouse,52.0,0,0,36.8249024,-3.2117954,"calle Pedro Antonio de Alarcon, 6"
45000.0,flat,93.0,2,1,36.9180993,-3.4832399,"calle Melilla, 61"
45000.0,countryHouse,120.0,6,1,37.7215984,-2.6438928,"Barrio de la Cruz, 8"
45000.0,chalet,90.0,3,1,37.4136736,-3.1742006,"Barriada de la costitucion, 20"
45000.0,chalet,80.0,2,2,36.9646685,-3.0534629,"calle Zuritas, 12"
45000.0,countryHouse,130.0,2,1,37.522197,-3.1041521,GR-6101 s/n
45000.0,chalet,139.0,3,1,37.65592,-2.77007,"calle Nueva, 6"
45000.0,countryHouse,120.0,3,1,37.5021958,-3.6722553,"calle Colon, 1"
45000.0,chalet,200.0,3,1,37.3248054,-4.1544845,Algarinejo
45000.0,countryHouse,100.0,3,1,37.7199995,-2.4814904,"calle Carril, 12"
45000.0,countryHouse,150.0,3,1,37.6769446,-2.8354398,"camino de Cortes, 199"
45000.0,chalet,100.0,3,1,37.0583361,-3.9169981,"Virgen de los Dolores, 7"
45000.0,countryHouse,225.0,4,1,37.3709211,-3.0640483,"calle Almería, 24"
45000.0,countryHouse,250.0,7,1,37.7947824,-2.7801085,"calle Santeros, 1"
45700.0,flat,95.0,3,1,37.1868419,-3.719646,calle Tikaz
45700.0,flat,95.0,3,2,37.1871996,-3.7222531,calle Tikaz
45900.0,studio,50.0,0,1,37.1254424,-3.5688906,"San Francisco, 7"
46000.0,chalet,135.0,3,2,36.9293646,-3.5819942,"Real, 25"
46000.0,chalet,89.0,3,1,37.1985118,-3.833894,calle Vuelta
46000.0,chalet,89.0,3,2,37.1965818,-3.8359648,calle Vuelta
46000.0,countryHouse,140.0,2,1,36.9614222,-3.3592706,Capileira
46000.0,chalet,106.0,3,2,37.2082749,-3.6069425,calle Tánger
46000.0,chalet,75.0,3,1,37.3931911,-3.5290958,calle Escuelas
46000.0,flat,77.0,3,2,37.1849946,-3.7208544,pasaje de Victor Jara
46000.0,chalet,255.0,12,2,36.9960542,-3.0824591,calle Cobertizo s/n SN
46000.0,countryHouse,195.0,7,1,37.17666,-3.11384,"calle pilar lozano, 4"
46000.0,countryHouse,36.0,2,1,37.1970723,-3.8296015,"calle Huerta, 1"
46000.0,chalet,250.0,4,3,37.5834003,-2.575351,"calle Mata, 10"
46000.0,countryHouse,120.0,3,1,37.4862228,-2.7769904,"calle Rabalia, 17"
46000.0,chalet,200.0,4,3,37.5837156,-2.5752512,calle Mata s/n
46100.0,chalet,150.0,2,1,37.3246859,-4.1581108,calle Meson
46500.0,flat,78.0,2,1,37.1858295,-3.7204735,calle Tikaz
46900.0,flat,92.0,3,1,37.1672896,-4.1558821,Loja
46900.0,countryHouse,40.0,1,1,37.0079326,-3.58274,Durcal
47000.0,countryHouse,45.0,1,0,36.8462262,-3.6350154,Viña del monte s/n
47000.0,countryHouse,80.0,3,1,36.8084862,-3.1705254,carril los Corros
47000.0,flat,63.0,2,1,37.220452,-3.6860667,Atarfe
47000.0,flat,72.0,3,1,37.4922017,-2.7757929,Nogueras
47000.0,countryHouse,112.0,2,1,36.7855334,-3.6061931,calle Antonio Machado s/n
47000.0,countryHouse,52.0,3,1,37.3700101,-3.2184958,Guadix
47000.0,flat,74.0,2,1,37.279057,-3.5692083,Cogollos Vega
47000.0,chalet,84.0,3,1,37.1590478,-3.4376817,Güéjar-Sierra
47000.0,flat,80.0,3,1,36.7249388,-3.3633619,VIRGEN DEL CARMEN
47000.0,flat,50.0,3,1,37.1920293,-3.6265162,calle Arzobispo Guerrero
47000.0,flat,13.0,2,1,37.1160938,-3.5808891,calle Mimbre
47000.0,flat,79.0,3,1,37.2087043,-3.6303696,calle Santa Paula
47000.0,chalet,156.0,3,2,37.218285,-3.7880906,ronda del Cuarto
47000.0,chalet,144.0,4,1,37.2177976,-3.780625,Fuente Vaqueros
47000.0,countryHouse,60.0,1,1,37.0097735,-4.2210477,A-341 s/n
47000.0,countryHouse,137.0,4,2,37.7949399,-2.77833,"calle Baza, 14"
47500.0,chalet,91.0,2,2,37.0067948,-3.015312,PUERTO DE LA RAGUA
47511.0,chalet,82.0,3,2,37.3542262,-3.1607197,Urbanizacion las Casillas
47511.0,chalet,82.0,3,1,37.3544697,-3.1601949,Urbanizacion las Casillas
47600.0,chalet,481.0,3,2,37.3721221,-3.7163538,calle Barranco Calero
47900.0,flat,90.0,3,1,37.3172593,-3.1867528,Barrio de los pozos s/n
47900.0,chalet,100.0,3,1,37.3151755,-3.1848831,"calle los Pozos, 7"
48000.0,chalet,95.0,2,1,36.8967557,-3.5268846,calle Real
48000.0,chalet,111.0,3,1,37.2504649,-3.7524434,Pinos-Puente
48000.0,chalet,137.0,2,2,36.7595419,-3.3112916,camino de la Fuente
48000.0,chalet,209.0,6,1,37.2873291,-3.8819472,"calle san sebastian de illora, 7"
48000.0,flat,106.0,3,1,37.4919274,-2.7775863,calle Virgen de Guadalupe
48000.0,flat,48.0,2,1,37.3031567,-3.1347663,plaza de la Concordia
48000.0,flat,117.0,3,2,37.4920776,-2.771831,calle Agua
48000.0,chalet,79.0,3,1,37.1350054,-3.6639295,calle Sotillo
48000.0,flat,91.0,3,2,37.369715,-3.7114813,calle Alonso Rivas
48000.0,countryHouse,250.0,8,1,37.5895006,-3.1046295,"calle de Umbría Collado, 7"
48000.0,studio,93.0,0,2,37.3168962,-3.1899453,calle Cañada de Pajares
48000.0,chalet,104.0,4,1,37.3749289,-3.7150766,calle Convento
48000.0,flat,143.0,6,2,37.3513189,-3.1666431,"calle Carmen, 28"
48500.0,chalet,523.0,7,6,37.4923098,-2.7718656,calle Ancha
48800.0,countryHouse,100.0,3,1,36.8769824,-3.2991913,calle Moret
49000.0,chalet,308.0,5,1,37.4823155,-3.6155978,calle Real
49000.0,chalet,286.0,4,1,37.0086655,-3.0148566,"calle Posito, 8"
49000.0,countryHouse,180.0,3,1,37.0004798,-3.0067558,"calle de la Carretera, 24"
49000.0,chalet,308.0,5,1,37.4831745,-3.6180762,calle Real
49000.0,chalet,400.0,5,1,37.0564573,-3.9174015,Cacin
49000.0,chalet,240.0,5,2,37.0602325,-3.9738055,Santa Cruz del Comercio
49000.0,chalet,137.0,3,1,37.1966662,-3.8294701,"calle Real, 9"
49000.0,chalet,90.0,1,1,37.1801606,-2.9917671,"calle Castillo Poniente, 8"
49000.0,chalet,90.0,3,1,37.4855833,-2.7791752,calle Orense
49000.0,countryHouse,120.0,3,1,37.2756919,-3.2850256,La Peza
49000.0,flat,68.0,2,1,36.7250449,-3.5218653,calle Remo s/n
49000.0,chalet,343.0,4,1,36.9407061,-3.1796825,"calle Terrera, 2"
49000.0,chalet,300.0,10,1,37.5291748,-2.9108433,Freila
49000.0,chalet,336.0,4,1,37.225655,-3.9442139,"calle Peñas de Brácana, 6 -8"
49000.0,countryHouse,148.0,3,1,36.8285024,-3.2128136,calle Martires de Cuba
49000.0,chalet,150.0,3,2,37.4843717,-3.6190554,calle Carrera de la Virgen
49000.0,chalet,120.0,3,1,37.0573916,-3.9169973,Cacin
49000.0,chalet,80.0,4,2,37.2575976,-3.0961899,"rambla de las Cruces, 1"
49000.0,chalet,167.0,2,2,36.9871247,-3.5637972,calle Zahor
49000.0,flat,76.0,3,2,37.2041407,-3.6114609,calle Joaquina Eguaras
49000.0,flat,32.0,1,1,36.746415,-3.6633495,"calle Costa Templada, 3"
49000.0,chalet,187.0,4,1,36.8281988,-3.2124951,"Real, 19"
49000.0,countryHouse,80.0,4,1,37.5584,-3.08665,"calle Corralillos, 1"
49000.0,flat,80.0,3,1,37.5745634,-3.5027914,"calle Cruces, 2"
49000.0,chalet,120.0,4,2,37.8133404,-2.5364677,"Barrio los Reyes, 69"
49500.0,flat,54.0,2,1,37.0099929,-3.0116334,"A-337, 26"
49900.0,countryHouse,203.0,5,1,37.030597,-3.8282747,"San José, 59"
49900.0,chalet,82.0,2,2,36.8323092,-3.5144969,Vélez de Benaudalla
49900.0,chalet,52.0,1,1,37.1905543,-3.5927309,calle Marina
49900.0,chalet,164.0,2,1,37.2131511,-4.0123248,Villanueva Mesia
49900.0,chalet,277.0,4,2,37.2874715,-3.8803548,"AYLLONAS, 11"
49900.0,countryHouse,154.0,1,1,36.9284304,-3.597495,calle Llana
49900.0,flat,100.0,3,1,37.1642782,-4.1466856,avenida los Ángeles
49900.0,chalet,210.0,3,1,37.2192616,-3.7789923,Fuente Vaqueros
49900.0,flat,89.0,2,1,37.3706438,-3.7124804,Colomera
49900.0,chalet,212.0,5,2,37.1902531,-3.7192969,Santa Fe
49900.0,chalet,76.0,0,0,37.1722567,-3.6861086,Belicena
49900.0,chalet,126.0,3,2,37.3236889,-3.5961942,Deifontes
49900.0,flat,61.0,2,1,37.167384,-4.1587989,"calle Bruselas, 3"
49900.0,flat,79.0,2,1,36.9177805,-3.4884254,"calle Granada, 10"
49900.0,flat,79.0,2,1,36.9177126,-3.4884628,"calle Granada, 7"
49900.0,flat,79.0,2,1,36.9197093,-3.4900591,calle Granada
49900.0,flat,100.0,3,1,37.2176535,-3.7859447,"calle La Paz, 2"
49900.0,chalet,138.0,3,2,37.4912067,-2.7720012,"Almendro, 23"
49900.0,flat,90.0,3,1,37.314444,-3.126111,"BARRIADA DE RENFE, 5"
49900.0,countryHouse,55.0,1,1,36.9944464,-3.0835322,Valor
49900.0,countryHouse,50.0,1,1,36.9412486,-3.3281841,"calle Manzano, 5"
49900.0,flat,65.0,3,1,37.3165431,-3.1274539,"avenida Estación, 1"
49990.0,flat,52.0,2,1,37.3224805,-4.0070241,calle Baja
49999.0,countryHouse,50.0,2,1,36.9256411,-3.4277522,puente Palo s/n
50000.0,chalet,92.0,1,0,36.7398625,-3.5857217,calle Fuente-H
50000.0,flat,59.0,3,1,37.1588592,-3.4413273,"camino de la Estacion, 2"
50000.0,chalet,188.0,8,1,36.92887,-3.62341,calle Carretera
50000.0,chalet,136.0,4,2,37.2733526,-3.5769442,Cogollos Vega
50000.0,chalet,130.0,4,2,37.704329,-2.6565605,Castilléjar
50000.0,flat,105.0,3,2,37.1667847,-4.1474325,callejón los Naranjos
50000.0,chalet,96.0,3,1,36.9723718,-4.144321,plaza españa
50000.0,chalet,246.0,6,2,37.5326776,-2.9536467,Guadix
50000.0,flat,65.0,2,1,37.1686216,-4.1574447,calle Bruselas
50000.0,flat,64.0,2,1,37.1660904,-4.1565984,calle Mesón del Arroyo
50000.0,flat,87.0,2,1,37.1654657,-4.1488894,calle Mariana Pineda
50000.0,flat,65.0,2,1,37.1682189,-4.1580788,calle Bruselas
50000.0,flat,77.0,2,1,37.166408,-4.1577037,calle Bruselas
50000.0,chalet,220.0,5,2,37.7146133,-2.6438834,"calle agua, 21"
50000.0,countryHouse,136.0,4,1,37.2972122,-3.1365192,"callejón la Cruz, 15"
50000.0,flat,90.0,3,1,37.3053259,-3.1446689,"avenida Mariana Pineda, 55"
50000.0,countryHouse,200.0,3,1,37.4846212,-2.7822343,calle Lugo
50000.0,countryHouse,170.0,6,1,37.0033179,-3.0712515,"plaza Iglesia, 30"
50000.0,flat,163.0,1,0,37.2135258,-4.0091901,Villanueva Mesia
50000.0,flat,115.0,3,2,37.4912294,-2.7732555,"calle Monjas, 8"
50000.0,chalet,69.0,2,1,37.1552144,-3.6013425,calle Florida
50000.0,chalet,80.0,3,1,37.655943,-2.77032,Cortes de Baza
50000.0,countryHouse,122.0,3,1,37.4340578,-2.7214058,Caniles
50000.0,chalet,113.0,4,1,37.0247895,-3.6268272,calle San Isidro
50000.0,chalet,150.0,4,1,37.2972091,-3.1344459,calle del Señor del Paño
50000.0,chalet,113.0,4,1,37.0220003,-3.6255502,calle San Isidro
50000.0,flat,53.0,3,1,37.4934238,-2.7746975,"carretera Granada, 26"
50000.0,countryHouse,180.0,3,2,37.008622,-3.0149184,"calle el egido, 6"
50000.0,countryHouse,400.0,4,1,36.7921634,-3.2024477,"Cortijo Los Antones, 1"
50000.0,countryHouse,198.0,8,1,37.8085407,-2.538676,"paseo Santo Cristo, 16"
50000.0,countryHouse,270.0,3,1,37.3513022,-3.1656036,"calle Tirire, 3"
50000.0,countryHouse,52.0,2,1,37.7439868,-2.535662,Cañada Castaño s/n SN
50000.0,chalet,200.0,3,2,37.58355,-2.57084,"calle Barranco Tercero, 31"
50000.0,flat,120.0,1,1,37.4849234,-2.7760142,calle Santos Médicos
50000.0,chalet,90.0,3,1,37.4896634,-2.7735569,Baza
50000.0,chalet,130.0,3,1,37.9798104,-2.3375715,"Nueva, 28"
50000.0,chalet,101.0,3,1,37.323145,-4.0057042,"Sacristia del Convento, 9"
50000.0,countryHouse,117.0,3,1,36.9751577,-3.1911469,"calle FUENTE DE LA IGLESIA, 5 N"
50000.0,countryHouse,192.0,4,2,37.6492596,-2.7696821,"calle Poblado Campo Cámara, 37"
50000.0,chalet,260.0,5,1,37.281604,-4.2093874,A4154 carril solanas de mellado s/n
50000.0,flat,120.0,3,1,36.7941204,-3.2667099,"calle Real, 6"
50000.0,countryHouse,117.0,3,1,36.9751577,-3.1911469,"calle FUENTE DE LA IGLESIA, 5 N"
50000.0,flat,110.0,4,1,37.3001331,-3.1331279,"calle luis muriel, 4"
50000.0,countryHouse,40.0,1,1,36.9403631,-3.3286609,"Capilerilla, 1"
50000.0,chalet,150.0,4,1,37.5290978,-2.9082335,"Almendro, 23"
50000.0,chalet,140.0,4,1,37.5800399,-3.2447499,"calle constitucion, 36"
50000.0,chalet,270.0,6,2,37.3248026,-4.1580571,"calle Profesor Felipe Sanchez, 4"
50000.0,countryHouse,234.0,5,1,37.21882,-3.51742,"calle Era, 8"
50000.0,countryHouse,150.0,3,2,37.42758,-3.68354,"plaza de España, 3"
50000.0,countryHouse,200.0,0,0,37.43692,-2.72216,"calle San Sebastian, 1"
50000.0,chalet,71.0,2,1,37.4862927,-2.7772164,"angel, 23"
50000.0,countryHouse,286.0,1,1,37.1967524,-3.7409869,"calle Horno, 14"
50000.0,countryHouse,60.0,1,1,36.9468377,-3.55196,calle lecrin s/n
50000.0,chalet,110.0,5,1,37.7159383,-2.6436306,"Barrio San Marcos, 51 -8"
50000.0,chalet,750.0,10,2,37.4885944,-2.7754247,"plaza Eras, 18"
50000.0,chalet,207.0,5,1,37.8120556,-2.541977,"calle Carreras, 22"
50000.0,chalet,100.0,3,1,37.1673406,-4.1539972,"plaza Alfaguara, 10"
50000.0,countryHouse,200.0,5,1,37.3228672,-4.0133056,"calle de Santa Bárbara, 15"
50400.0,chalet,114.0,3,1,36.9494209,-3.2250422,Juviles
50900.0,flat,88.0,2,1,37.217008,-3.7839982,Fuente Vaqueros
51000.0,chalet,138.0,3,1,37.3908904,-3.5277014,calle Andalucia de Iznalloz
51000.0,chalet,75.0,2,1,36.8417395,-3.5850139,Los Guajares
51000.0,chalet,60.0,2,1,36.7865975,-3.6098667,Molvizar
51000.0,chalet,60.0,3,1,36.785431,-3.609603,Molvizar
51000.0,chalet,189.0,6,2,37.4862228,-2.7769904,"Otero, 6"
51000.0,chalet,87.0,3,2,37.1352372,-3.5715505,calle Horno
51000.0,chalet,288.0,5,1,37.1669529,-4.1509787,las Parras
51000.0,chalet,92.0,5,2,36.96619,-3.1932299,"calle al de la Cantera, 7"
51000.0,countryHouse,140.0,4,1,37.2764843,-3.2838018,"calle San Marcos, 1"
51200.0,chalet,121.0,3,2,37.5590807,-3.0862502,calle Pablo Iglesias
51400.0,chalet,165.0,3,1,36.7926706,-3.2085849,calle Nacimiento
51500.0,flat,82.0,3,1,37.2307643,-3.6243636,calle Estrella
51600.0,flat,61.0,2,1,37.2227419,-3.6913308,calle Golondrina
51700.0,studio,48.0,0,1,37.2179331,-3.6966705,Atarfe
51700.0,flat,53.0,1,1,37.2169116,-3.6950455,Atarfe
52000.0,flat,74.0,3,1,36.7465349,-3.5104458,calle Divino Redentor s/n
52000.0,flat,144.0,4,2,37.3269181,-4.1589824,plaza de España
52000.0,flat,82.0,2,1,37.2293544,-3.6263435,calle Uruguay
52000.0,flat,74.0,3,1,36.747591,-3.5118347,calle Divino Redentor
52000.0,flat,68.0,3,1,37.2328167,-3.627299,calle Pintor Fortuny
52000.0,chalet,137.0,3,2,37.2195143,-3.7848268,GR-3401
52000.0,flat,68.0,3,1,37.2361792,-3.6275774,calle Pintor Fortuny
52000.0,flat,99.0,4,2,37.1632926,-4.1451399,calle Pline
52000.0,chalet,120.0,3,1,37.2551318,-3.7578598,"Barriada de la Paz, 223"
52000.0,chalet,60.0,3,1,37.2940178,-3.1343983,calle Eras de Lara
52000.0,chalet,150.0,3,2,37.0303983,-3.8284701,"calle victoria, 4"
52000.0,chalet,183.0,3,2,37.1821062,-2.9888679,calle Marquesado
52000.0,flat,90.0,2,1,37.2986291,-3.1310327,"calle Imagen, 10"
52000.0,countryHouse,313.0,10,1,37.7318708,-2.389076,venta micena s/n
52000.0,countryHouse,150.0,3,2,37.0297615,-3.8285864,"calle victoria, 4"
52000.0,flat,120.0,4,2,37.4373099,-2.72167,"calle Maria, 10"
52000.0,countryHouse,70.0,2,2,37.1615758,-3.0729811,"calle Andalucia, 2"
52000.0,countryHouse,140.0,3,1,37.2745516,-3.2841758,"plaza Doña Ana, 3"
52300.0,countryHouse,55.0,1,1,36.9021937,-3.5364596,El Pinar
52500.0,flat,110.0,3,2,37.2487543,-3.7480145,"calle Huertos, 35 -31"
52800.0,flat,43.0,1,1,37.2197539,-3.6942478,Atarfe
53000.0,chalet,110.0,3,2,37.2234222,-3.690637,Atarfe
53000.0,chalet,100.0,4,2,37.5273237,-2.9510104,Guadix
53000.0,flat,123.0,3,1,37.2243808,-3.6909661,calle Enrique Ruiz Cabello
53000.0,flat,120.0,3,1,37.2057783,-3.5962389,calle Rigoberta Menchú
53000.0,flat,120.0,3,1,37.2062804,-3.5939645,calle Rigoberta Menchú
53000.0,countryHouse,100.0,4,1,37.2917033,-3.140649,"calle Barranco Armero 3ª Cañada, 30"
53000.0,flat,81.0,2,1,36.817664,-3.2780605,"calle Era de Alfornon, 43"
53000.0,flat,124.0,3,1,37.3904777,-3.5200723,calle Cueva la Arena
53000.0,countryHouse,180.0,3,1,36.9205503,-3.1584858,carretera cadiar murtas s/n
53000.0,chalet,132.0,3,2,37.1981534,-3.8350985,calle Huerta
53000.0,flat,123.0,4,1,37.2259897,-3.6904579,calle Alhambra
53000.0,flat,91.0,1,1,36.9667502,-3.5870461,calle Baja
53000.0,flat,92.0,3,1,36.7960826,-3.6392323,calle Los Montes
53000.0,flat,91.0,1,1,36.9656328,-3.5877881,calle Portichuelo
53000.0,flat,70.0,2,1,36.9711521,-3.1923322,"calle Ermita, 2"
53000.0,countryHouse,100.0,3,2,37.18282,-3.15934,"calle Triste, 2"
53000.0,chalet,50.0,3,2,37.4914566,-2.7712927,Baza
53000.0,countryHouse,120.0,2,1,37.0078083,-3.0135948,"calle la Real, 12"
53000.0,countryHouse,170.0,5,1,37.2393246,-3.5647044,"Iglesia, 14"
53000.0,countryHouse,80.0,3,2,37.2622512,-3.098873,"calle Malaga, 1"
53460.0,flat,121.0,2,2,37.0088885,-3.0082314,Nevada
53500.0,flat,91.0,3,1,37.1651025,-4.1451155,calle Jaén
53500.0,countryHouse,135.0,7,2,37.28061,-3.2056598,"calle Real, 25"
53800.0,chalet,330.0,3,2,37.4823499,-3.61754,"calle Carrera Virgen, 1"
53800.0,flat,223.0,3,1,37.4823499,-3.61754,"calle Carrera de la Virgen, 1"
53900.0,chalet,112.0,3,1,37.1964793,-3.8319195,Lachar
53900.0,flat,92.0,3,1,37.2385077,-3.9660215,"calle Torre, 10"
53900.0,countryHouse,32.0,1,1,36.9292768,-3.5841283,El Valle
54000.0,countryHouse,134.0,4,2,37.1721308,-4.153049,calle Baja San Francisco
54000.0,chalet,287.0,3,2,37.2863646,-3.8812185,"calle Carcel de Illora, 5"
54000.0,chalet,159.0,3,1,37.1917771,-3.7190822,ronda de Belén
54000.0,countryHouse,50.0,1,1,36.8077521,-3.595755,Molvizar
54000.0,chalet,181.0,3,1,37.1324675,-3.8237691,avenida Andalucia
54000.0,flat,80.0,2,2,36.9842772,-3.1550343,"avenida Jose Antonio Bravo, 91"
54000.0,chalet,287.0,3,2,37.2853952,-3.8819862,calle Cárcel de Alomartes
54000.0,chalet,160.0,1,3,37.2262286,-3.9447896,"calle Bustos, 2 -6"
54000.0,chalet,138.0,4,2,37.2211017,-3.7860003,ronda del Cuarto
54000.0,chalet,186.0,3,1,37.1167877,-3.8801554,avenida de Andalucia
54000.0,chalet,287.0,3,2,37.2854651,-3.8822948,Illora
54000.0,countryHouse,202.0,4,1,37.1362869,-4.2130123,Loja
54000.0,chalet,120.0,4,1,37.5743445,-3.5050024,"calle Enmedio, 23"
54100.0,flat,122.0,3,1,37.2149811,-4.0118936,"calle Menendez Pelayo, 31 -3"
54500.0,flat,148.0,3,2,37.4935414,-2.7733344,Baza
54500.0,flat,62.0,1,1,37.1965874,-3.8335784,calle Real
54900.0,chalet,151.0,3,1,36.9914791,-3.5678413,Durcal
54900.0,flat,119.0,3,2,37.162567,-4.1498835,Loja
54900.0,flat,70.0,2,1,37.2034636,-3.5992674,calle Joaquín Corral Almagro
54900.0,chalet,96.0,3,0,37.1314331,-3.5607953,Monachil
54900.0,chalet,105.0,4,2,36.8363999,-3.6722277,Lenteji
54900.0,chalet,153.0,4,1,37.1661664,-4.1588321,Loja
54900.0,chalet,150.0,2,2,37.060324,-3.915534,Cacin
54900.0,chalet,201.0,5,1,37.1694877,-4.1481451,Loja
54950.0,flat,83.0,3,1,37.4853561,-2.7688942,"calle Pintor Murillo, 1"
55000.0,chalet,100.0,4,1,36.7917504,-3.2014028,"calle Granada, 30 -90"
55000.0,chalet,404.0,5,2,37.4519377,-3.292371,Morelabor
55000.0,flat,39.0,1,1,37.1583958,-3.4422606,camino de la Estacion s/n
55000.0,chalet,179.0,3,2,37.4835144,-2.7808063,calle Triana
55000.0,flat,140.0,1,1,37.0266424,-3.6311749,REAL
55000.0,chalet,89.0,3,1,37.1162363,-3.8788026,calle Romero
55000.0,chalet,160.0,3,0,37.0635727,-3.7627869,"avenida Cervantes, 30"
55000.0,flat,70.0,2,1,37.1846338,-3.7211783,Santa Fe
55000.0,chalet,89.0,3,1,37.1189543,-3.8760775,calle Romero
55000.0,chalet,89.0,3,1,37.1159858,-3.8767328,calle Romero
55000.0,flat,64.0,3,1,36.7218686,-3.5204409,calle Nuestra Señora del Mar
55000.0,penthouse,105.0,2,1,37.2209041,-3.783911,Fuente Vaqueros
55000.0,chalet,193.0,5,1,37.1892761,-3.7152264,Santa Fe
55000.0,chalet,107.0,3,2,37.0609592,-3.7637368,calle Nueva
55000.0,chalet,153.0,4,1,37.5558326,-3.0928751,Villanueva de las Torres
55000.0,chalet,70.0,3,1,36.7317898,-3.6923168,Almuñecar Centro
55000.0,chalet,130.0,3,1,37.005607,-3.9876575,Alhama de Granada
55000.0,flat,111.0,3,1,36.7248205,-3.5244949,calle de la Traíña San José s/n
55000.0,flat,124.0,3,1,37.2068272,-3.6186703,calle Pintor Soriano Quiros
55000.0,countryHouse,5523.0,1,2,37.274896,-3.5729145,"plaza Llanete, 1"
55000.0,countryHouse,27.0,1,0,36.8987794,-3.1890219,Diseminado s/n
55000.0,chalet,120.0,3,1,36.9893016,-3.5920104,"iglesia, 5"
55000.0,chalet,230.0,5,1,37.1966724,-3.8329957,calle Rio
55000.0,chalet,144.0,5,1,37.3187948,-3.1898901,calle Monzoque s/n
55000.0,chalet,89.0,3,1,37.1161816,-3.8779764,calle Romero
55000.0,chalet,96.0,3,1,37.2032686,-3.79373,calle Luz s/n
55000.0,chalet,190.0,4,2,37.1763636,-2.9488154,"Peñón de Lastra, 2"
55000.0,flat,65.0,3,1,37.3171715,-3.1280793,"avenida Estación, 7"
55000.0,chalet,89.0,3,1,37.1194849,-3.8777925,calle Romero
55000.0,flat,140.0,4,2,36.9485057,-3.8229168,"avenida del mediterráneo, jayena, granada, 25"
55000.0,flat,77.0,3,1,37.00394,-3.98688,"Callejuela de las Parras, 18"
55000.0,chalet,232.0,3,1,37.1124698,-3.645436,plaza del Sol
55000.0,chalet,350.0,5,2,36.9762699,-3.18847,calle Fuente Iglesia
55000.0,chalet,55.0,3,1,36.9957313,-3.0849208,alto Barrio
55000.0,flat,144.0,4,2,37.3256875,-4.1561849,plaza de España
55000.0,studio,40.0,0,1,37.1604493,-3.4427111,camino de la Estacion
55000.0,countryHouse,4357.0,1,2,37.2308503,-3.6575497,"calle Enmedio, 25"
55000.0,flat,89.0,2,2,37.2070786,-3.6185451,calle Alcalá la Real
55000.0,chalet,200.0,3,1,37.5280165,-2.9111438,Freila
55000.0,flat,100.0,3,1,37.30111,-3.133771,"calle Peñuela, 6"
55000.0,flat,111.0,3,2,36.7244894,-3.5262877,calle de la Traíña San José
55000.0,chalet,70.0,1,1,36.97523,-3.19004,"calle Iglesia, 11"
55000.0,countryHouse,170.0,4,2,37.2268346,-3.9446698,"plaza San Luis, 4 -2"
55000.0,flat,143.0,4,2,37.4011615,-3.5283674,calle de la Explanada Estacion
55000.0,flat,87.0,3,1,37.1672893,-4.1552754,"calle Real, 38"
55000.0,countryHouse,150.0,4,2,37.4915108,-2.7719235,"callejón del Almendro, 23"
55000.0,chalet,140.0,4,2,36.9493265,-3.5480062,Lecrin
55000.0,flat,80.0,3,1,36.94612,-3.1793,"calle San Isidro, 4"
55000.0,countryHouse,148.0,4,1,36.7242548,-3.3551226,Castell de Ferro
55000.0,countryHouse,58.0,1,1,36.7492914,-3.5147846,"calle Escobas, 35"
55000.0,flat,110.0,4,1,37.4931649,-2.7756807,"calle Virgen de Guadalupe, 1"
55000.0,flat,100.0,3,1,37.3025322,-3.139581,"calle Encarnita Martínez Jabalera, 3"
55000.0,flat,110.0,4,1,37.4931649,-2.7756807,"calle Virgen de Guadalupe, 1"
55000.0,countryHouse,200.0,10,0,36.8588639,-3.1885015,Unnamed Road s/n
55000.0,flat,80.0,2,1,37.1719737,-4.1515662,"calle de San Francisco, 12"
55000.0,countryHouse,315.0,3,1,37.96331,-2.43854,"calle de las Anímas, 13"
55000.0,countryHouse,120.0,3,1,37.7038176,-2.7987377,"calle del Romeral, 5"
55000.0,chalet,120.0,4,1,37.00357,-3.26984,calle Charquillo s/n
55000.0,countryHouse,300.0,6,2,36.9752777,-3.1914284,"cuesta de la Iglesia, 12"
55000.0,countryHouse,396.0,5,2,37.9623074,-2.4366903,"calle Coronel Capaz, 23"
55000.0,flat,70.0,2,0,37.1601406,-3.4383387,"calle de la Carrera, 8"
55000.0,chalet,160.0,4,2,37.2624871,-3.0988866,"calle Malaga, 7"
55000.0,chalet,150.0,3,1,37.1973399,-4.04093,"calle Ramón y Cajal, 71"
55000.0,chalet,300.0,4,1,37.3407244,-3.78691,"calle Eras, 25"
55500.0,flat,63.0,3,2,37.2068164,-3.5924201,calle Rosa Chacel
55900.0,chalet,109.0,3,1,37.2356676,-3.9626479,calle Blas Infante
55900.0,chalet,99.0,3,1,37.1678023,-4.1568188,Loja
55900.0,chalet,122.0,2,1,37.0254283,-3.6237221,Padul
55999.0,flat,89.0,3,2,37.1669744,-4.1513152,Loja
56000.0,flat,77.0,2,1,37.1984684,-3.8053983,avenida de Andalucía
56000.0,chalet,86.0,2,0,36.7317766,-3.6921363,Almuñecar Centro
56000.0,chalet,47.0,2,1,36.748391,-3.5170954,calle Gracia s/n
56000.0,chalet,125.0,2,2,37.0031575,-3.0057275,"calle Reina Sofia, 13"
56000.0,flat,82.0,2,1,37.1964542,-3.8053939,"avenida de Andalucía, 27"
56000.0,chalet,120.0,5,2,37.1599622,-3.4390016,Güéjar-Sierra
56000.0,flat,76.0,2,1,37.1951795,-3.8042958,avenida de Andalucía
56000.0,chalet,96.0,5,1,37.1008632,-4.2547196,"Cerro de la Mina, 36"
56000.0,flat,90.0,2,1,37.0012828,-3.2665353,plaza de iglesia s/n
56000.0,chalet,140.0,4,1,36.7852249,-3.6072113,Molvizar
56000.0,flat,76.0,2,1,37.1968892,-3.8074905,Cijuela
56000.0,chalet,125.0,4,2,37.0057259,-3.0052806,calle Juana de Arco
56000.0,flat,109.0,3,2,37.2281481,-3.6272412,calle García Lorca
56000.0,chalet,47.0,2,1,36.7496375,-3.5158227,calle Gracia
56000.0,countryHouse,40.0,1,1,36.7982337,-3.6111066,Molvizar
56000.0,flat,76.0,2,1,37.1970816,-3.8062194,Cijuela
56000.0,countryHouse,320.0,5,2,37.5956004,-2.3945599,"Aldea Vertientes, 55"
56000.0,chalet,91.0,5,1,37.2576783,-3.0949676,Valle del Zalabi
56000.0,chalet,204.0,3,2,37.1807344,-2.9908815,calle Marquesado
56000.0,countryHouse,244.0,5,2,37.2857831,-3.8821191,"calle Real, 6"
56000.0,flat,60.0,3,1,37.9580454,-2.4364161,"calle Escuelas, 6"
56100.0,countryHouse,160.0,6,1,36.9274219,-3.6321096,"calle Estacion, 57"
56100.0,flat,122.0,3,1,37.2148099,-4.0121482,"calle Pérez Galdós, 6"
56200.0,countryHouse,75.0,2,1,36.9880577,-3.5673904,Durcal
56250.0,chalet,280.0,5,3,37.4381499,-2.7254959,Caniles
56500.0,studio,38.0,0,1,36.7470487,-3.2792096,"calle Real de la Mamola, 79"
56900.0,flat,90.0,3,1,37.2158953,-4.0121409,Villanueva Mesia
56900.0,flat,60.0,1,1,36.8362612,-3.6734983,Nueva s/n
56983.0,flat,102.0,3,1,37.4889578,-2.7734324,Baza
56983.0,chalet,102.0,3,2,37.4909388,-2.7662933,calle Asturias
56983.0,flat,102.0,3,2,37.4941162,-2.765582,calle Asturias
57000.0,chalet,143.0,3,1,37.0258542,-3.6251939,"calle Corazón de Jesús, 19"
57000.0,chalet,100.0,3,1,36.9283646,-3.5808942,calle Real
57000.0,chalet,127.0,2,1,37.2980445,-3.1418698,calle Fuente Maese Pedro
57000.0,flat,80.0,3,2,37.0300282,-3.8309011,"calle Granada, 1 , - Cesi"
57000.0,chalet,118.0,3,0,37.3949242,-3.5192349,Iznalloz
57000.0,chalet,117.0,4,2,36.9341221,-3.5930244,El Valle
57000.0,flat,75.0,3,1,36.9776977,-3.1898313,"calle Agua, 20"
57000.0,chalet,200.0,3,2,37.1809411,-2.9921275,calle Marquesado
57000.0,chalet,198.0,3,2,37.1806765,-2.9906527,calle Marquesado
57000.0,countryHouse,400.0,12,1,37.351115,-3.2931049,"calle Andalucia, 23"
57000.0,flat,80.0,3,1,37.48593,-2.77495,"calle Santa Bárbara, 1 NG"
57000.0,chalet,240.0,4,2,37.2868985,-3.8820208,"calle Sánchez González, 16"
57000.0,flat,80.0,3,1,37.2507847,-3.7547185,"calle de la Redonda, 23"
57000.0,flat,89.0,2,2,37.3504099,-3.16596,"Azucarera, 20"
57122.0,chalet,81.0,4,2,37.1036059,-3.6507692,"camino de Jayena, 52 D"
57200.0,countryHouse,117.0,5,2,36.9354515,-3.569642,calle Fresca
57250.0,chalet,181.0,3,1,37.1176662,-3.8804771,"avenida de Andalucia, 2"
57260.0,chalet,80.0,2,2,36.9634489,-3.0544293,Ugijar
57260.0,countryHouse,210.0,3,1,37.1190576,-3.5870991,plaza del Pilar
57300.0,flat,90.0,3,2,37.2095692,-3.6203558,calle Santiago de la Espada
57500.0,flat,103.0,4,1,37.32181,-4.00322,"calle Virgen del Pilar, 4"
57878.0,chalet,145.0,6,3,37.0045721,-3.9859596,"Callejuela Zapateros, 1"
57900.0,flat,100.0,3,1,37.1663859,-4.1470775,calle Rafael Pérez del Álamo
57900.0,chalet,200.0,3,2,37.0048955,-3.0419098,calle Iglesia
57900.0,chalet,348.0,7,2,37.2557566,-4.1681682,"calle Real, 67 -57"
58000.0,flat,94.0,3,1,37.2051126,-3.5993917,calle Joaquín Corral Almagro s/n
58000.0,flat,94.0,3,1,37.2049938,-3.5989155,"calle Joaquín Corral Almagro, 4"
58000.0,flat,94.0,3,1,37.2046953,-3.5998787,calle Joaquín Corral Almagro
58000.0,flat,94.0,3,1,37.206319,-3.5987783,Barrio Polígono Cartuja
58000.0,flat,104.0,2,1,37.1660747,-4.1492229,Loja
58000.0,chalet,78.0,3,2,36.8083837,-3.3497434,IGLESIA
58000.0,countryHouse,66.0,2,1,36.8426904,-3.5864948,Los Guajares
58000.0,flat,94.0,3,1,37.2049899,-3.5978395,calle Joaquín Corral Almagro
58000.0,flat,94.0,3,1,37.2039245,-3.5988516,Barrio Polígono Cartuja
58000.0,flat,136.0,4,2,37.2886724,-3.8775217,"avenida San Rogelio, 34"
58000.0,chalet,138.0,6,1,37.0606709,-3.7639237,Ermita
58000.0,flat,57.0,1,1,36.8345429,-3.6736787,calle Nueva
58000.0,chalet,155.0,3,2,37.1646795,-4.1465454,calle Reyes Católicos
58000.0,chalet,164.0,4,2,37.219939,-3.7814309,avenida de Andalucía
58000.0,countryHouse,426.0,4,1,37.8359849,-2.6684652,"puente Dudar, 6"
58000.0,chalet,320.0,5,1,37.5833299,-2.5745577,Cullar
58000.0,flat,95.0,3,1,36.6987276,-3.4413554,calle Violeta
58000.0,flat,132.0,3,1,37.4332469,-2.7242655,calle San Sebastian
58000.0,countryHouse,150.0,3,1,37.0091731,-3.147851,"calle Real-- Cojáyar 18492, 32"
58000.0,countryHouse,150.0,2,1,37.1605311,-3.0720206,"calle del Rocio, 3"
58000.0,countryHouse,225.0,0,0,37.5828301,-2.5705729,"Aldea de Pulpite, 25"
58000.0,flat,55.0,1,1,37.008613,-3.014765,calle Garduña s/n sn
58000.0,flat,60.0,1,1,37.1945426,-3.8310019,"calle Buena Vista, 7"
58000.0,countryHouse,180.0,3,1,37.50648,-3.35585,"calle Real, 42"
58000.0,countryHouse,190.0,5,1,36.9276924,-3.6322815,"avenida Constitucion, 18"
58000.0,flat,58.0,1,1,37.15712,-3.43429,"calle Serpentina, 44"
58100.0,flat,151.0,3,1,37.4913689,-2.7726861,calle Agua
58500.0,flat,79.0,2,1,37.1908196,-3.8328783,Lachar
58500.0,flat,135.0,2,1,37.1915543,-3.8321174,calle Isaac Newton
58500.0,countryHouse,90.0,2,2,36.8788429,-3.2988391,"Tomillar, 10"
58600.0,flat,62.0,2,1,37.3031397,-3.1364593,plaza de la Concordia
58600.0,flat,60.0,2,1,37.3040936,-3.1339596,plaza de la Concordia
58900.0,flat,80.0,3,1,37.1929874,-3.714012,Santa Fe
59000.0,flat,100.0,3,1,37.0575225,-3.9741788,"calle Carretera, 18"
59000.0,chalet,125.0,4,2,37.0037345,-3.0056477,"calle Isabel la Católica, 13"
59000.0,countryHouse,160.0,3,1,36.9765629,-3.5400138,"calle Aben Hamar, 2"
59000.0,chalet,70.0,2,1,36.8793398,-3.2989245,"calle la Paloma, 14 -5"
59000.0,chalet,310.0,3,1,36.9435773,-3.1793585,calle Rueda
59000.0,chalet,360.0,5,2,36.99751,-3.99189,Alhama de Granada
59000.0,chalet,100.0,2,1,37.0839364,-3.9165997,Cacin
59000.0,chalet,136.0,4,2,37.00334,-3.04336,"calle Eras, 4"
59000.0,chalet,423.0,4,1,36.9411704,-3.1798587,"calle Real Baja, 7"
59000.0,chalet,71.0,3,2,37.3703204,-3.7126576,calle Angel
59000.0,chalet,71.0,3,2,37.3704992,-3.7124229,calle Angel
59000.0,chalet,161.0,3,1,37.2615481,-3.9128779,"calle Nueva de Alomartes, 53"
59000.0,chalet,128.0,3,1,37.2247967,-3.6909649,"calle Menéndez Pelayo, 22"
59000.0,chalet,156.0,5,2,37.18607,-3.95624,"calle Lerida, 16"
59000.0,chalet,147.0,5,1,36.817936,-3.2787175,"calle Acequia de Alfornon, 15"
59000.0,flat,53.0,1,1,36.7991854,-3.6374563,Los Montes
59000.0,chalet,160.0,4,1,36.9785591,-3.5385815,Nigüelas
59000.0,flat,105.0,4,2,37.4932545,-2.7737086,Urbanización Romero Alpuente
59000.0,chalet,63.0,1,2,36.7868823,-3.6085654,Molvizar
59000.0,chalet,128.0,3,1,37.2250883,-3.6923493,Atarfe
59000.0,countryHouse,192.0,4,2,37.7363354,-2.857747,Cortes de Baza
59000.0,chalet,150.0,4,2,37.220785,-3.7814039,avenida de Andalucía
59000.0,flat,55.0,2,1,37.2343053,-3.6568274,calle Molino Alto
59000.0,flat,107.0,3,1,37.1593906,-3.5359983,Av. Sierra Nevada
59000.0,flat,67.0,2,1,37.2317774,-3.6554325,calle Molino Alto
59000.0,chalet,89.0,3,1,37.2068332,-3.6010137,calle Maestre Diego
59000.0,flat,87.0,3,2,36.7576846,-3.312384,Agregado Haza Trigo
59000.0,countryHouse,100.0,3,1,37.802818,-2.5503923,Huéscar
59000.0,flat,101.0,3,1,37.2174785,-3.7853756,calle General Bautista
59000.0,countryHouse,210.0,4,1,37.0004798,-3.0067558,"Tranco, 3"
59000.0,countryHouse,90.0,5,1,36.97934,-3.11923,"calle la Fuente, 8"
59000.0,countryHouse,200.0,4,0,37.5882027,-2.6701626,Paraje La mancha s/n
59000.0,chalet,225.0,4,1,37.1973119,-4.0417712,Huétor-Tajar
59000.0,chalet,124.0,3,2,37.5446223,-2.842086,"Barrio Cuesta del Moral, 32"
59000.0,chalet,171.0,6,1,37.1978772,-4.0402828,Huétor-Tajar
59000.0,flat,90.0,3,1,37.2127199,-4.0145662,calle Eras
59000.0,flat,92.0,4,1,36.7419571,-3.5189582,avenida Habana
59000.0,countryHouse,120.0,3,2,37.4349612,-2.7252558,Caniles
59000.0,flat,91.0,4,1,36.7422391,-3.5183444,avenida Habana
59000.0,countryHouse,120.0,5,3,37.4759911,-3.0405218,"calle la Mina, 73"
59000.0,flat,80.0,4,1,37.4877953,-2.7772072,"calle victoria, 7"
59000.0,chalet,250.0,8,1,37.1971084,-3.8317862,"calle Nueva, 1"
59000.0,chalet,71.0,2,1,37.2949861,-3.1334266,"calle Roda Conta, 16"
59000.0,countryHouse,107.0,2,1,37.1585703,-3.070295,"calle Secano, 49"
59500.0,flat,91.0,3,2,37.1658005,-4.1473647,calle Pline
59500.0,countryHouse,65.0,2,1,37.2999326,-3.1430548,Guadix
59500.0,chalet,98.0,2,1,36.9797016,-3.118921,"calle la Fuente, 1"
59650.0,flat,111.0,4,2,37.3514856,-3.1671946,calle Alameda
59700.0,chalet,306.0,5,3,36.9821933,-3.1545371,"calle Arraíces, 24"
59700.0,countryHouse,40.0,1,0,36.9706623,-3.158366,Diseminado s/n
59800.0,chalet,189.0,5,1,37.0259607,-3.6238285,Padul
59900.0,chalet,140.0,2,2,37.2543588,-3.7496858,Pinos-Puente
59900.0,flat,50.0,2,1,36.7014037,-3.4413953,calle Begonia
59900.0,countryHouse,182.0,4,1,37.111277,-3.6476658,calle Parroco Garcia Villanueva
59900.0,chalet,153.0,4,2,37.027868,-3.6234992,Padul
59900.0,chalet,274.0,4,2,37.3716034,-3.7139369,"calle Emilio Castro Nievas, 4"
59900.0,chalet,200.0,4,2,37.0576769,-3.9156292,calle Real
59900.0,flat,66.0,2,1,36.9728004,-3.1516351,calle Santa Maria
59900.0,chalet,107.0,4,1,37.2484861,-3.7490341,Pinos-Puente
59900.0,flat,81.0,3,1,37.2049411,-3.5999321,calle Joaquín Corral Almagro
59900.0,chalet,108.0,3,1,37.115549,-3.8785576,calle Baja
59900.0,flat,101.0,4,1,37.163774,-4.1481635,Loja
59900.0,chalet,156.0,5,1,37.2403358,-3.5641118,Alfacar
59900.0,chalet,183.0,4,2,37.1618378,-4.1479926,Loja
59900.0,flat,83.0,3,1,37.2260598,-3.6833595,Atarfe
59900.0,flat,121.0,3,2,37.2514033,-3.7523463,Pinos-Puente
59900.0,chalet,178.0,4,1,37.1791482,-4.2031462,Loja
59900.0,flat,100.0,3,1,37.1649268,-4.1483609,Loja
59900.0,chalet,96.0,4,1,36.7911828,-3.2055719,calle Nacimiento
59900.0,chalet,96.0,4,1,36.7932346,-3.2081265,calle Nacimiento
59900.0,chalet,96.0,4,1,36.7918021,-3.2079392,calle Nacimiento
59900.0,chalet,96.0,4,1,36.7924885,-3.2082753,calle Nacimiento
59900.0,chalet,318.0,6,1,37.2604594,-3.9146577,"calle ancha virgen, 29"
59900.0,chalet,123.0,3,2,37.2862578,-3.8751977,"ruiz guiraum, 2"
59900.0,countryHouse,347.0,5,1,36.9073893,-3.0963282,calle Cementerio
59900.0,chalet,108.0,3,1,37.1156644,-3.8799249,calle Baja
59900.0,flat,122.0,5,2,37.3013512,-3.1405355,calle Encarnita Martínez Jabalera
59900.0,countryHouse,182.0,4,1,37.1106004,-3.6471852,Zona Ayuntamiento
59900.0,chalet,110.0,3,1,37.2695677,-4.2287372,Algarinejo
59900.0,countryHouse,182.0,4,1,37.1096401,-3.6450798,Zona Ayuntamiento
59900.0,chalet,348.0,6,2,37.2556063,-4.168264,"calle Real, 59"
59900.0,flat,87.0,3,2,37.1993557,-3.8091669,Cijuela
59900.0,chalet,174.0,3,1,37.4877668,-2.7810373,"avenida del Cascamorras, 16"
59900.0,countryHouse,200.0,5,1,37.05796,-3.91599,"calle real, 12"
59950.0,chalet,90.0,2,1,37.0614958,-3.9747823,"calle de los Gremios, 17"
59990.0,chalet,195.0,3,1,36.9292024,-3.626663,"calle Carretera, 21"
59990.0,chalet,144.0,3,2,37.1224067,-3.5747029,"avenida Genital, 16"
59999.0,penthouse,158.0,3,1,37.4901765,-2.7719822,"plaza Trinidad, 7"
60000.0,chalet,110.0,4,2,37.8156975,-2.5256246,Barrio Nuevo de San Clemente
60000.0,chalet,114.0,4,2,37.3200337,-3.2415001,Cortes y Graena
60000.0,chalet,234.0,5,2,37.5839609,-2.5759188,Cullar
60000.0,penthouse,120.0,3,1,37.490936,-2.7705251,puerta de Lorca
60000.0,chalet,168.0,2,1,37.2299673,-3.7232773,avenida Moisés
60000.0,chalet,173.0,4,2,37.3739313,-3.7121939,calle VIOLETA s/n
60000.0,flat,123.0,3,2,37.3534396,-3.1641142,plaza de la Iglesia
60000.0,chalet,204.0,4,0,37.26112,-3.9121396,"carretera de tocon, 2"
60000.0,chalet,99.0,3,2,37.2864454,-3.8751252,"calle ruiz guiraum, 6"
60000.0,countryHouse,200.0,6,1,37.71885,-2.47617,"cuesta de San Pedro, 68"
60000.0,chalet,222.0,3,1,36.7908728,-3.1986691,calle Campo Santo
60000.0,chalet,336.0,4,1,36.9725122,-3.1519283,"calle Almez El-Go, 6"
60000.0,chalet,164.0,4,2,37.2542177,-3.7498975,calle Visillo Santa Eugenia
60000.0,countryHouse,70.0,1,1,37.0614572,-3.9757259,carretera Santa Cruz del Comercio s/n
60000.0,flat,100.0,4,1,37.484304,-2.7672889,calle Ortega y Gasset
60000.0,chalet,70.0,2,1,36.8399487,-3.5862381,Los Guajares
60000.0,chalet,73.0,2,1,36.7430463,-3.5878846,Centro
60000.0,chalet,65.0,3,1,37.8178911,-2.7317182,"La Iglesia, 11"
60000.0,flat,100.0,3,2,37.35265,-3.16582,"calle Nueva, 7"
60000.0,chalet,160.0,5,3,37.4917245,-2.7709744,"calle Oliva, 5"
60000.0,chalet,124.0,10,1,37.5258757,-2.9081946,Freila
60000.0,chalet,250.0,6,3,37.7419329,-2.5511017,"calle Carrera San Isidro, 28"
60000.0,chalet,119.0,3,2,37.3960997,-3.5228639,Iznalloz
60000.0,countryHouse,120.0,3,1,37.00233,-3.26693,"calle Carcel, 8"
60000.0,flat,103.0,4,2,36.7846355,-3.6072737,calle Nogal
60000.0,countryHouse,170.0,3,1,37.2615481,-3.9128779,"calle Nueva de Alomartes, 53"
60000.0,countryHouse,50.0,2,1,36.9804181,-3.1185119,Alpujarra de la Sierra
60000.0,chalet,147.0,3,1,37.2019793,-3.7725653,calle Nueva
60000.0,flat,103.0,2,1,37.0049234,-3.9932708,"calle Salto del Caballo, 1"
60000.0,chalet,134.0,3,1,37.3720735,-3.7140436,camino de Tozar
60000.0,flat,140.0,4,2,37.4904624,-2.7756859,calle Cava Alta
60000.0,flat,103.0,2,1,37.0053089,-3.9910875,calle Salto del Caballo
60000.0,flat,103.0,2,1,37.0074662,-3.9942634,calle Salto del Caballo
60000.0,flat,70.0,4,1,36.7415821,-3.3039898,Polopos
60000.0,chalet,250.0,4,1,36.8174443,-3.2779389,"calle Acequia de Alfornon, 2"
60000.0,countryHouse,650.0,5,2,37.1749788,-2.9478995,"calle Barranco, 16"
60000.0,countryHouse,150.0,4,2,36.9920911,-3.9979561,"calle Bajas Monjas, 50"
60000.0,countryHouse,200.0,3,2,37.79381,-2.77972,"calle Villa Alta, 12"
60000.0,countryHouse,250.0,6,1,37.37116,-3.71323,"calle Alonso Rivas, 19"
60000.0,flat,94.0,3,1,37.2080572,-3.6059907,"plaza Rey Badis, 2 N"
60000.0,countryHouse,508.0,17,2,37.4369085,-2.726115,Caniles
60000.0,chalet,112.0,4,1,37.1389865,-3.6664775,calle San Miguel
60000.0,countryHouse,60.0,2,1,37.5011856,-3.6781899,"calle Montillana, 1"
60000.0,flat,50.0,1,1,37.0071455,-3.0113947,"carretera puerto la ragua, 6"
60000.0,countryHouse,81.0,2,2,36.94207,-3.31165,"calle Santa Adela, 3"
60000.0,flat,70.0,2,1,36.98315,-3.1545899,"avenida Jose Antonio Bravo--Mecina Bombaron, 77"
60000.0,countryHouse,81.0,2,2,36.94207,-3.31165,"calle Santa Adela, 3"
60000.0,flat,50.0,1,1,37.0071455,-3.0113947,"carretera puerto la ragua, 6"
60000.0,countryHouse,140.0,3,2,37.50271,-3.67487,"calle Almeria, 5"
60000.0,countryHouse,60.0,2,1,37.5011856,-3.6781899,"calle Montillana, 1"
60000.0,countryHouse,80.0,2,1,36.8407949,-3.5841166,"calle Lepanto, 20"
60000.0,countryHouse,100.0,3,2,37.9827588,-2.341013,"calle Fuente, 20 -36"
60000.0,countryHouse,135.0,6,2,37.3206388,-4.0079205,"calle Animas, 46"
60000.0,chalet,200.0,5,2,37.3035874,-3.133493,calle cogollo de guadix s/n
60000.0,chalet,220.0,10,2,37.5828434,-2.5713959,"calle Barranco Tercero, 1"
60000.0,countryHouse,600.0,9,1,37.5039943,-3.2286846,"calle Calvario, 9"
60000.0,countryHouse,200.0,3,2,37.32615,-4.15713,"calle Calvario, 25"
60000.0,countryHouse,300.0,5,1,36.9803028,-3.1555125,"calle Placeta, 1"
60000.0,chalet,189.0,6,1,37.0088807,-3.0158315,"calle Campanas, 2"
60000.0,chalet,155.0,3,1,36.8769755,-3.2989823,"calle churrera, 9"
60000.0,chalet,300.0,5,1,36.9801584,-3.1555634,"calle Placeta, 3"
60000.0,flat,62.0,2,1,37.1942572,-3.8347086,"calle San Jose, 1"
60000.0,countryHouse,73.0,3,1,37.0964837,-3.5890679,Unnamed Road s/n
60000.0,countryHouse,140.0,4,1,36.9377887,-3.2945214,"El empalme, 1"
60000.0,countryHouse,103.0,4,1,37.2744946,-3.6181618,"calle Escaleron, 14"
60000.0,flat,97.0,2,1,37.2053556,-3.5989096,"Joaquín corral Almagro, 3"
60000.0,flat,62.0,1,1,37.2000871,-3.8044935,"camino Romilla, 18"
60000.0,chalet,95.0,3,1,37.44053,-2.72303,"calle Fuerte, 17"
60000.0,chalet,90.0,2,2,37.0337462,-3.02758,"calle Almendros, 19"
60000.0,countryHouse,160.0,5,1,37.1337213,-3.8224627,"calle de Blas Infante, 1"
60000.0,chalet,218.0,4,1,36.9364835,-3.2947202,"calle jose barranco, 16"
60000.0,flat,100.0,3,1,37.4931405,-2.7694114,"calle de Corredera, 1"
60000.0,chalet,80.0,2,1,37.2584036,-3.0971592,"calle San Buenaventura, 1"
60000.0,flat,70.0,2,1,37.323145,-4.0057042,"calle Enrique Amat, 26"
60500.0,flat,93.0,2,1,37.2175299,-3.78253,"travesía Era Empedrada, 3"
60500.0,flat,93.0,2,1,37.2182286,-3.7829195,"avenida Genil, 7"
60500.0,flat,93.0,2,1,37.2191941,-3.7833683,"paseo del Prado, 7"
60500.0,flat,93.0,2,1,37.2192795,-3.7845219,avenida del Genil
60500.0,flat,76.0,2,1,36.8313244,-3.5152086,Vélez de Benaudalla
60500.0,flat,120.0,3,1,37.6068841,-2.9295665,"calle Posadas, 20"
60900.0,chalet,150.0,4,1,36.8005943,-3.6414442,"calle Federico Garcia Lorca, 83"
61000.0,chalet,90.0,5,2,37.164525,-4.1534053,Loja
61000.0,chalet,117.0,2,1,37.0287219,-3.6243714,calle Mirasoles
61000.0,chalet,117.0,3,1,37.0267324,-3.6249894,"calle Mirasoles, 13 --1"
61000.0,chalet,110.0,3,2,37.1795587,-4.2021706,"calle Lucena, 10"
61000.0,countryHouse,117.0,3,1,37.02677,-3.6247362,"calle Mirasoles, 13"
61000.0,chalet,120.0,3,1,36.800634,-3.6371738,Itrabo
61000.0,chalet,90.0,4,1,36.7895639,-3.6090993,Molvizar
61000.0,countryHouse,5500.0,1,1,36.7840067,-3.4901688,Los Tablones - La Garnatilla
61000.0,chalet,110.0,4,2,37.3151301,-3.1844579,"calle los Pozos, 17"
61250.0,chalet,218.0,6,2,37.5319717,-2.9541117,Guadix
61250.0,countryHouse,350.0,6,2,37.5314323,-2.9531382,"calle la Posada, 20"
61400.0,chalet,245.0,3,2,37.6079369,-2.9285483,calle de García Lorca
61800.0,chalet,196.0,3,2,37.1660202,-4.1514125,"calle San Nicolás, 2"
61900.0,flat,120.0,3,2,37.1669239,-4.1510013,Loja
61900.0,chalet,108.0,3,1,37.026338,-3.6254995,"calle CORAZON DE JESUS, 18"
62000.0,chalet,170.0,4,1,36.9862234,-3.5649677,calle General Serrano
62000.0,chalet,363.0,3,1,36.9757737,-3.1920478,calle Iglesia
62000.0,chalet,137.0,4,1,37.2219423,-3.6929935,calle Menéndez Pelayo
62000.0,flat,128.0,3,2,37.2059893,-3.6182971,calle Pintor Soriano Quiros
62000.0,countryHouse,180.0,3,1,37.3218568,-4.0002219,carretera de Íllora s/n
62000.0,chalet,140.0,6,1,37.2246751,-3.6913806,calle Menéndez Pelayo
62000.0,flat,120.0,3,1,37.2843784,-3.8822652,"calle Miraflores, 2"
62000.0,chalet,180.0,3,1,37.3218568,-4.0002219,"carretera de Íllora, 2"
62000.0,flat,98.0,1,1,37.2071258,-3.599827,calle Conde de Torrepalma
62000.0,flat,102.0,3,2,37.3525781,-3.1649887,calle Nueva
62000.0,chalet,161.0,3,1,37.2181479,-3.7791872,calle Fuente Alta
62000.0,flat,104.0,4,1,37.4858548,-2.7750194,"calle Santa Bárbara, 2"
62000.0,chalet,160.0,3,2,37.2613239,-3.0975649,"avenida Trópolis, 1"
62000.0,flat,125.0,4,2,37.164251,-4.1488911,"calle Quintero, 12"
62000.0,chalet,90.0,5,2,37.6055884,-2.7080423,"calle Virgen de la Cabeza, 185"
62000.0,chalet,129.0,4,1,36.9288546,-3.5828584,El Valle
62000.0,countryHouse,58.0,2,1,37.5713749,-3.5026092,"calle alamos, 23"
62000.0,flat,115.0,4,2,37.3525792,-3.1652926,"calle Escuelas, 3"
62100.0,flat,73.0,1,1,36.9886149,-3.5654982,Calle General Serrano
62100.0,flat,72.0,1,1,36.9863019,-3.5665442,calle General Serrano
62100.0,flat,72.0,1,1,36.9881024,-3.5659872,"calle General Serrano, 17"
62100.0,flat,73.0,1,1,36.9894177,-3.5652256,calle General Serrano
62500.0,countryHouse,491.0,6,2,37.435693,-2.7265199,Caniles
62700.0,chalet,101.0,3,1,37.7231594,-2.644017,Castilléjar
63000.0,flat,117.0,3,1,36.99035,-3.5696,"calle San Jose, 21"
63000.0,flat,75.0,2,1,36.7230946,-3.5202221,calle Nuestra Señora del Mar s/n
63000.0,chalet,106.0,2,2,37.1588886,-3.4410529,"camino Prados, Güejar Sierra, 1"
63000.0,countryHouse,40.0,1,1,36.8334472,-3.5206015,carretera Bailén-Motril
63000.0,chalet,98.0,2,2,36.7506254,-3.5186514,calle Escuadra
63000.0,chalet,151.0,4,1,36.7995171,-3.6396406,calle Federico Garcia Lorca
63000.0,chalet,151.0,4,1,36.7995171,-3.6396406,calle Federico Garcia Lorca
63000.0,flat,58.0,2,1,36.7464711,-3.2779864,calle Real de la Mamola
63000.0,flat,57.0,3,2,36.792865,-3.2102074,carretera del Visillo
63000.0,flat,76.0,3,1,37.1599392,-3.4385607,"plaza Mayor, 1"
63000.0,countryHouse,3000.0,2,1,37.1846772,-4.0427651,Huétor-Tajar
63000.0,chalet,75.0,2,1,37.142327,-3.6518533,calle Sancho Panza
63000.0,countryHouse,45.0,1,1,37.274855,-3.5729053,"camino Polígono 12 Parcela 232 CAQADA CORR. COGOLLOS DE, 12"
63000.0,chalet,183.0,2,2,37.1861358,-3.7251645,calle Argentina
63000.0,chalet,141.0,2,2,37.2569441,-3.7632928,carretera Córdoba
63000.0,chalet,201.0,3,1,37.2496051,-3.7448133,calle San Pascual de Pinos Puente
63000.0,flat,98.0,2,1,37.2007374,-3.774142,Chauchina
63000.0,countryHouse,91.0,3,2,37.2622328,-3.0989764,"calle Jaen, 2"
63000.0,countryHouse,180.0,4,1,37.7127928,-2.6434246,calle Mariana Pineda s/n
63000.0,countryHouse,130.0,2,1,37.0256017,-3.6269006,"calle Alta, 31"
63000.0,flat,85.0,2,1,37.4932704,-2.7769064,"calle Virgen de las Angustias, 4"
63000.0,chalet,239.0,5,2,37.1656325,-4.1514882,"calle Comisarios, 7"
63000.0,chalet,120.0,3,1,37.1092353,-3.646265,"Concepción, 3"
63000.0,chalet,98.0,2,2,36.7525741,-3.5164539,calle Escuadra
63000.0,flat,106.0,3,2,37.2179039,-3.6023532,calle Vicente Alexandre
63000.0,chalet,300.0,9,2,37.6052307,-2.9314637,"calle Cuartones, 39"
63500.0,chalet,127.0,2,1,37.0004798,-3.0067558,"mariana pineda, 1"
63500.0,penthouse,83.0,3,2,37.2879002,-3.8801463,"calle Convento, 2"
63500.0,chalet,86.0,4,2,37.1663253,-4.1522664,cuesta Chamorras
63500.0,flat,79.0,3,2,37.2229154,-3.6897473,"avenida Andalucia, 1"
63630.0,countryHouse,52.0,4,2,37.7038507,-2.6570775,"calle Olivos, 15"
63900.0,chalet,131.0,5,1,36.8026832,-3.641165,"cuesta Era, 20"
63900.0,flat,85.0,3,1,37.1993219,-3.5996531,Barrio Casería de Montijo
63900.0,flat,73.0,3,1,37.2998882,-3.1350998,calle Santisteban s/n
64000.0,flat,48.0,1,1,37.1583958,-3.4422606,camino de la Estacion s/n
64000.0,flat,47.0,1,1,37.1583958,-3.4422606,camino de la Estacion s/n
64000.0,chalet,122.0,4,2,37.9639586,-2.440502,Puebla de Don Fadrique
64000.0,chalet,172.0,3,1,37.283583,-3.8839765,"calle Francisco Reyes Pugnaire, 31"
64000.0,flat,97.0,2,2,37.2306334,-3.6587565,calle Real
64000.0,studio,48.0,0,1,37.1568468,-3.4436365,camino de la Estacion
64000.0,studio,48.0,0,1,37.1596267,-3.4407064,camino de la Estacion
64000.0,countryHouse,100.0,4,1,36.7979269,-3.637713,"calle Almuñecar, 3"
64000.0,studio,102.0,0,2,37.2389363,-3.5635375,avenida Alfaguara
64000.0,flat,48.0,1,1,37.1570816,-3.4425132,camino de la Estacion
64000.0,chalet,300.0,5,1,37.0606425,-3.7623865,"calle Ermita, 1"
64500.0,flat,176.0,5,1,37.7143335,-2.6429992,Castilléjar
64500.0,chalet,239.0,6,2,37.1658182,-4.1529854,calle Comisarios
64500.0,flat,110.0,3,1,37.1972261,-4.049378,Huétor-Tajar
64500.0,flat,74.0,2,1,37.494103,-2.7773784,"calle Santa Marta, 11"
64900.0,chalet,222.0,4,1,36.990368,-3.5654775,Durcal
64900.0,flat,124.0,4,2,37.1648642,-4.1433644,calle San Rafael
64900.0,chalet,133.0,3,2,37.3971297,-3.5138282,Iznalloz
64900.0,chalet,115.0,4,2,37.1379732,-4.2762352,Loja
64900.0,chalet,168.0,5,1,36.9257861,-3.6321572,Albuñuelas
64900.0,countryHouse,330.0,14,4,37.3184418,-4.1085923,"Diseminado Extrarradio, 149"
64900.0,countryHouse,244.0,5,3,37.15072,-4.07068,"calle Doctor Ruiz Fernández, 7"
64900.0,chalet,330.0,14,4,37.3168915,-4.1080002,Diseminado Extrarradio
64995.0,flat,30.0,1,1,37.1601356,-3.5387186,CENES DE LA VENGA
65000.0,flat,92.0,3,1,37.2504507,-3.7533377,calle Real de Pinos Puente
65000.0,chalet,140.0,5,2,37.0224224,-3.6228127,calle Abenhamar
65000.0,chalet,138.0,4,1,36.9266576,-3.6331379,"calle Estación, 138"
65000.0,countryHouse,79.0,3,2,37.2578817,-3.8047618,"calle Carmen, 2 -10"
65000.0,flat,92.0,3,1,37.2504407,-3.753382,calle Real de Pinos Puente
65000.0,chalet,150.0,7,2,37.7206267,-2.6405635,alto con saliente
65000.0,flat,100.0,3,1,37.1654587,-4.1442047,Loja
65000.0,flat,70.0,2,1,36.9738712,-3.1517584,Alpujarra de la Sierra
65000.0,flat,68.0,2,1,37.2807347,-3.5703742,Cogollos Vega
65000.0,flat,98.0,3,1,37.2508108,-3.7479098,Pinos-Puente
65000.0,flat,83.0,2,1,37.1669923,-4.1505701,Loja
65000.0,chalet,130.0,5,1,37.0047808,-3.9860511,Alhama de Granada
65000.0,chalet,64.0,1,0,36.7465135,-3.5227239,calle de las Cañas
65000.0,chalet,140.0,4,1,37.0062095,-3.9857982,Alhama de Granada
65000.0,countryHouse,79.0,3,2,37.2578817,-3.8047618,"calle Carmen, 2 --10"
65000.0,chalet,116.0,5,2,36.7503419,-3.5158891,calle Venezuela s/n
65000.0,flat,80.0,1,1,37.1612659,-3.5399205,calle Cerezo
65000.0,flat,111.0,3,1,37.1613409,-3.5410631,calle Cerezo
65000.0,chalet,115.0,3,1,37.2557338,-3.7510421,calle Sol de Pinos Puente
65000.0,chalet,100.0,3,1,37.1854237,-3.7257091,calle Costa Rica
65000.0,chalet,180.0,3,3,36.98288,-3.11919,"calle Castillo, 6"
65000.0,chalet,116.0,5,2,36.7506799,-3.5175645,calle Venezuela
65000.0,flat,103.0,3,1,37.1663938,-4.1452841,"calle Jaén, 2 -8"
65000.0,chalet,189.0,2,1,37.2595227,-3.9134449,"calle Horno, 28"
65000.0,countryHouse,78.0,3,1,37.5368026,-2.8492639,"carretera de Freila, 102"
65000.0,chalet,218.0,6,2,37.5299315,-2.9520775,calle la Posada
65000.0,flat,100.0,3,2,36.9886952,-3.5685054,calle Olas
65000.0,chalet,71.0,3,1,37.1591951,-3.4389373,Güéjar-Sierra
65000.0,flat,85.0,2,1,37.1201883,-3.5876728,calle Infantas
65000.0,chalet,247.0,7,3,36.8880849,-3.1076777,calle Carretera
65000.0,countryHouse,300.0,7,3,36.9777955,-3.18993,"calle Agua, 13"
65000.0,chalet,70.0,3,2,36.7889386,-3.6106098,calle Real
65000.0,chalet,90.0,4,2,37.1665225,-4.1513713,Loja
65000.0,chalet,100.0,2,2,36.8867256,-3.1105576,calle Baza
65000.0,chalet,200.0,4,2,37.2274848,-3.1626548,San Agustín
65000.0,chalet,137.0,3,1,37.2216674,-3.7868876,"calle San Francisco, 22"
65000.0,countryHouse,81.0,2,1,36.9291125,-3.5828227,"camino Polígono 1 Parcela 329 PRADO LECHE. LECRIN (GRANA, 1"
65000.0,flat,104.0,2,1,36.8945627,-3.5257664,"calle Real, 8"
65000.0,countryHouse,75.0,1,1,36.954458,-4.030746,"calle Alcaiceria, 1"
65000.0,chalet,166.0,4,2,37.2498662,-3.7474928,calle Batán
65000.0,chalet,132.0,4,2,36.8374502,-3.6725314,Lenteji
65000.0,chalet,100.0,6,1,37.1196235,-3.5880573,calle del Cuco
65000.0,flat,58.0,2,1,37.1977849,-3.8053648,calle Galicia
65000.0,chalet,90.0,2,1,37.4897009,-2.7838624,Urbanización Federico García Lorca
65000.0,flat,50.0,1,1,37.8107577,-2.5401138,"Carril, 3"
65000.0,chalet,170.0,3,2,36.9957447,-3.0810037,Valor
65000.0,countryHouse,120.0,7,1,37.2961959,-3.1380819,"Prolongación Carrera de Las Cruces, 50"
65000.0,countryHouse,157.0,4,1,37.18072,-2.99273,"travesía San Andrés, 18"
65000.0,countryHouse,110.0,4,1,37.4273,-3.68292,"calle Pilar, 5"
65000.0,countryHouse,90.0,3,1,37.35125,-3.29298,"calle Industrial, 2"
65000.0,chalet,120.0,4,2,36.8800072,-3.1054194,"calle de la Lomilla, 6"
65000.0,flat,58.0,2,1,37.18453,-3.16023,"calle Calvario, 14"
65000.0,chalet,122.0,4,2,37.003798,-3.0055181,"calle Isabel la Católica, 8"
65000.0,countryHouse,110.0,3,1,36.9289491,-3.6303126,"calle Sevilla, 3"
65000.0,countryHouse,337.0,4,2,37.15972,-3.07261,"calle real, 17"
65000.0,chalet,130.0,4,2,37.2235363,-3.5168142,Huétor Santillán
65000.0,flat,76.0,2,1,37.0299138,-3.8296576,"calle Larga, 23"
65000.0,chalet,80.0,4,2,36.763639,-3.3771577,"calle Sol,, 5"
65000.0,countryHouse,140.0,5,1,37.181751,-3.1614896,Jerez del Marquesado
65000.0,chalet,460.0,5,2,37.3720028,-3.7136837,"HIERRO, 3"
65000.0,flat,96.0,3,1,36.9180993,-3.4832399,"calle Melilla, 61"
65000.0,countryHouse,100.0,2,1,37.8378748,-2.6681639,puente Duda s/n Aldea
65000.0,chalet,140.0,4,1,37.0258675,-3.6262173,"calle Alta, 48"
65000.0,chalet,82.0,2,1,37.9563472,-2.4353678,"calle Principe Felipe, 14"
65000.0,flat,105.0,3,2,37.300726,-3.1307149,"Álvaro de Bazán, 29"
65000.0,countryHouse,220.0,5,1,37.4852179,-2.7747774,calle Rabalia Alta s/n SN
65000.0,chalet,110.0,5,2,37.18444,-3.15772,"calle Carmen, 10"
65000.0,countryHouse,120.0,2,1,37.60175,-2.91831,"calle Triana, 89"
65000.0,flat,100.0,6,1,37.4931504,-2.7761027,"calle Virgen de Guadalupe, 6"
65000.0,countryHouse,70.0,3,1,36.7944061,-3.2673228,"calle Carpinteria, 12"
65000.0,countryHouse,200.0,9,1,37.5033417,-3.2294819,"calle Reyes Catolicos, 29"
65000.0,chalet,125.0,3,1,36.8407949,-3.5841166,"calle ponton, 6"
65000.0,countryHouse,178.0,6,1,37.2769485,-3.5722942,"paseo Peńon de la Mata, 39"
65000.0,flat,50.0,1,1,36.74728,-3.17049,"calle las Terreras, 29"
65000.0,countryHouse,210.0,4,2,36.94257,-3.18075,Cadiar s/n
65000.0,flat,84.0,2,1,37.1659702,-4.1526661,"plaza Encarnación, 1"
65000.0,countryHouse,120.0,7,1,37.29588,-3.1368785,"prolongación Carrera de la cruces, 102"
65000.0,chalet,100.0,3,1,37.2174397,-3.7833265,"calle Martinete, 1"
65000.0,chalet,120.0,2,1,37.43868,-2.72474,"calle Pilar, 10"
65000.0,countryHouse,300.0,5,2,37.5025502,-3.6741458,"calle granada, 3"
65000.0,flat,60.0,1,1,37.0074085,-3.0109949,"carretera Puerto la Ragua, 6"
65000.0,flat,150.0,3,2,37.3520632,-3.1661864,"alameda, 10"
65000.0,countryHouse,265.0,11,2,37.1800907,-3.0619044,"avenida del Marquesado, 20"
65000.0,countryHouse,100.0,3,1,36.9023809,-3.3004981,plaza iglesia s/n
65000.0,flat,140.0,4,1,37.8119424,-2.540181,"calle Mayor, 22"
65000.0,flat,82.0,5,1,37.1961359,-3.6010262,"camino de Alfacar, 16 Pasajedeteba"
65000.0,chalet,156.0,2,1,37.19921,-3.80905,"calle Granada, 17"
65100.0,countryHouse,226.0,12,3,37.58322,-2.57615,"calle Doctor Jose Jofre, 3"
65500.0,countryHouse,158.0,3,1,37.5938521,-2.3919614,Cullar
65600.0,chalet,210.0,3,1,36.7426474,-3.3908684,Gualchos
65700.0,studio,65.0,0,1,37.1349206,-3.5577078,"calle Tenerife, 3"
65900.0,flat,90.0,3,1,37.2228244,-3.6862671,Atarfe
65900.0,chalet,86.0,2,1,37.1958865,-3.77268,Chauchina
65900.0,flat,90.0,3,2,36.9953448,-3.0773782,Valor
65900.0,flat,93.0,2,2,37.1966442,-4.0476106,calle Ancha
66000.0,countryHouse,81.0,1,1,37.2625252,-3.593587,Güevéjar
66000.0,countryHouse,323.0,18,2,36.9252526,-3.1090441,Plaza
66000.0,countryHouse,150.0,4,1,36.7981377,-3.6373652,garcia lorca
66000.0,countryHouse,60.0,3,1,36.7925503,-3.592279,Molvizar
66000.0,chalet,157.0,3,1,37.0273337,-3.6223114,Padul
66000.0,flat,82.0,3,1,37.2046215,-3.5959408,"calle Rosalía de Castro, 1"
66000.0,flat,65.0,2,1,37.1372706,-3.6644055,calle María Auxiliadora
66000.0,flat,89.0,2,2,37.1330561,-3.5624993,calle Bellavista
66000.0,flat,95.0,3,1,37.3255588,-4.1572183,calle Cervantes
66000.0,chalet,229.0,4,1,37.5820325,-2.5772594,calle Esteban Lara
66000.0,flat,88.0,3,1,37.202563,-3.5969832,Barrio Parque Nueva Granada
66000.0,flat,88.0,3,1,37.2039066,-3.5977217,Barrio Parque Nueva Granada
66000.0,flat,119.0,3,2,37.198175,-4.0435805,"calle Federico García Lorca, 52"
66090.0,chalet,222.0,3,1,36.9295298,-3.5807136,"calle Concepcion, 6 -28"
66090.0,countryHouse,222.0,3,1,36.9295979,-3.5809784,"calle Concepcion, 4"
66200.0,chalet,147.0,4,2,37.1908518,-3.7182976,calle Calderón s/n
66500.0,flat,80.0,3,1,36.9639238,-3.0541266,"calle Jazmines, 16"
66500.0,chalet,139.0,4,3,37.1967877,-4.0463811,calle Federico García Lorca
66950.0,chalet,180.0,3,2,37.9594927,-2.4377908,"calle Soledad, 5"
66999.0,flat,46.0,2,1,37.1890654,-3.6234968,La Chana
67000.0,flat,43.0,1,1,37.1305893,-3.5365816,"calle Huenes, 22"
67000.0,flat,72.0,2,1,37.0316049,-3.8288121,Ancha
67000.0,flat,43.0,1,1,37.129364,-3.5365726,calle Huenes
67000.0,flat,43.0,1,1,37.1304917,-3.535265,calle Huenes
67000.0,flat,43.0,1,1,37.1310955,-3.5384737,calle Huenes
67000.0,flat,43.0,1,1,37.1304708,-3.5383414,calle Huenes
67000.0,flat,43.0,1,1,37.1306414,-3.5380836,calle Huenes
67000.0,flat,43.0,1,1,37.1317168,-3.5370914,calle Huenes
67000.0,flat,43.0,1,1,37.1305893,-3.5365816,"calle Huenes, 22"
67000.0,chalet,156.0,3,1,36.7443133,-3.3882606,calle Barranquillo
67000.0,flat,43.0,1,1,37.1295653,-3.5380994,calle Huenes
67000.0,flat,43.0,1,1,37.1300315,-3.5376954,calle Huenes
67000.0,flat,43.0,1,1,37.1305893,-3.5365816,"calle Huenes, 22"
67000.0,flat,43.0,1,1,37.1316988,-3.5359422,calle Huenes
67000.0,flat,43.0,1,1,37.1285552,-3.5368647,calle Huenes
67000.0,flat,43.0,1,1,37.1313462,-3.5358021,calle Huenes
67000.0,chalet,93.0,4,2,37.2871257,-3.8750556,"ruiz guiraum, 32"
67000.0,flat,73.0,3,1,36.7431105,-3.5215515,"calle Aguas del Hospital, 5"
67000.0,flat,96.0,3,2,36.9842772,-3.1550343,"avenida Jose Antonio Bravo, 91"
67000.0,chalet,144.0,3,2,37.1993081,-4.0463413,calle Ángel Ganivet
67000.0,chalet,85.0,3,1,37.2289869,-3.659519,calle Fray Leopoldo
67000.0,chalet,158.0,5,1,36.9593514,-3.1361457,"calle Umbria Yátor, Cadiar 18448 Granada"
67000.0,flat,87.0,2,1,36.96641,-3.05209,"Terreno UE-6, 16"
67000.0,chalet,308.0,3,2,37.3932667,-3.5297158,calle Pizarro
67000.0,chalet,37.0,4,1,36.7998579,-3.6383267,"calle Granada, 16"
67260.0,chalet,125.0,4,2,37.0036067,-3.0056862,"calle Isabel la Católica, 5"
67260.0,chalet,159.0,3,1,37.102771,-3.6010102,calle Veleta
67500.0,chalet,154.0,4,1,37.1722129,-3.6646744,Purchil
67500.0,flat,98.0,4,1,37.1638111,-4.1427004,"calle San Rafael, 3"
67500.0,flat,62.0,1,1,36.7921394,-3.2041187,calle Buenavista
67500.0,flat,87.0,2,1,37.4948645,-2.763858,carretera de Murcia
67500.0,flat,130.0,3,2,37.1669583,-4.151155,Loja
67500.0,flat,30.0,1,1,37.0975534,-3.3973212,"Fuente del Tesoro, 3"
67700.0,chalet,105.0,4,2,36.7033976,-3.4458809,calle Marco Polo
67900.0,chalet,91.0,3,2,37.4816779,-3.0418042,calle 28 de Febrero
68000.0,flat,104.0,3,1,36.7417029,-3.5877177,calle Cartero Manuel Montilla s/n
68000.0,flat,60.0,2,1,37.2050385,-3.6033489,calle Puerto Lumbreras
68000.0,flat,60.0,2,1,37.2059802,-3.6047926,"calle Puerto Lumbreras, 4"
68000.0,flat,60.0,2,1,37.2059802,-3.6047926,"calle Puerto Lumbreras, 4"
68000.0,flat,60.0,2,1,37.2055513,-3.6031767,calle Puerto Lumbreras
68000.0,chalet,106.0,3,2,36.746452,-3.5235726,calle Clavel s/n
68000.0,flat,79.0,2,1,36.7468024,-3.2772249,N-340
68000.0,flat,60.0,2,1,37.2058075,-3.6035841,calle Puerto Lumbreras
68000.0,chalet,265.0,9,2,37.0665873,-3.820982,calle Cassinello
68000.0,flat,60.0,2,1,37.2047908,-3.604646,calle Puerto Lumbreras
68000.0,flat,104.0,3,1,36.7415172,-3.5889366,calle Cartero Manuel Montilla
68000.0,chalet,265.0,9,2,37.0668503,-3.8220407,calle Cassinello
68000.0,chalet,92.0,4,1,36.7844503,-3.6096519,Molvizar
68000.0,flat,98.0,3,1,37.2844852,-3.8814506,"TEATRO BENAVENTE, 2"
68000.0,chalet,106.0,3,1,36.7448726,-3.5252541,calle Clavel
68000.0,chalet,108.0,2,1,37.1671858,-3.9659282,Moraleda de Zafayona
68000.0,chalet,65.0,1,1,36.7424134,-3.5868905,Centro
68000.0,chalet,150.0,4,2,37.4352429,-2.7249012,"calle Guardas, 36"
68000.0,penthouse,40.0,1,1,36.9506845,-3.3553287,"calle Carretera, 56"
68000.0,flat,82.0,3,1,36.74819,-3.15489,"calle Alfonso Zamora, 9"
68000.0,chalet,100.0,2,2,37.2137471,-4.0135417,Villanueva Mesia
68000.0,flat,99.0,3,2,37.5575482,-3.3966475,Guadahortuna
68000.0,countryHouse,72.0,1,1,36.8788429,-3.2988391,"Paraje El cerro ortiz, 1"
68000.0,chalet,180.0,0,0,36.7677357,-3.6939862,"poligono Trece, 13"
68000.0,countryHouse,50.0,2,2,36.9385115,-3.5555623,camino barranco chite s/n
68250.0,chalet,120.0,3,1,36.7980864,-3.6365603,calle Almuñecar
68250.0,countryHouse,145.0,4,1,36.9471182,-3.8230191,Jayena
68460.0,flat,100.0,2,1,36.7915331,-3.2039573,"calle Constitución, 4"
68900.0,flat,65.0,2,1,37.1965012,-3.8298614,calle Jaen
69000.0,countryHouse,88.0,1,1,36.9844875,-3.5451719,XFM3+QWW Nigüelas s/n
69000.0,countryHouse,143.0,3,3,37.009757,-3.0320296,real
69000.0,chalet,75.0,2,1,37.1639907,-4.1503143,"calle San Isidro, 38"
69000.0,chalet,114.0,2,1,36.9301502,-3.5978899,"Altillo, 14"
69000.0,flat,58.0,2,1,36.9872333,-3.5629761,calle General Serrano
69000.0,countryHouse,149.0,1,1,37.2016715,-3.7724705,"plaza de la Constitucion, 8"
69000.0,flat,100.0,3,2,37.2106735,-3.61229,calle Merced Alta
69000.0,flat,128.0,3,2,36.7270574,-3.3674035,Castell de Ferro
69000.0,chalet,70.0,4,1,37.16534,-3.96397,Moraleda de Zafayona
