Price,Property Type,Size (m2),Number of Rooms,Number of Bathrooms,Latitude,Longitude,Location
6000.0,countryHouse,32.0,3,1,36.4635569,-5.7234043,calle Sainz Andino
6700.0,flat,28.0,1,1,36.1233238,-5.449942,calle los Barreros
6700.0,flat,28.0,1,1,36.1242853,-5.448316,calle los Barreros
6800.0,flat,26.0,1,1,36.6896944,-6.1444773,calle Nueva
8000.0,flat,84.0,3,1,36.1639001,-5.3560352,calle Balmes
8000.0,studio,44.0,0,0,36.6896471,-6.1517591,Barrio Santiago - Coronación
8800.0,flat,47.0,1,1,36.6875695,-6.1475595,calle Nueva
8900.0,chalet,59.0,1,1,36.9273,-5.5433012,calle Sevilla
9000.0,countryHouse,82.0,2,1,36.9261035,-5.5442695,"calle de la Fuente del Pecho, 30"
12500.0,chalet,152.0,0,2,36.9257968,-5.5439078,"calle de la Fuente del Pecho, 1"
13000.0,flat,86.0,3,1,36.1257188,-5.453867,Saladillo - La Piñera
13500.0,chalet,179.0,3,2,36.9267742,-5.5431492,"avenida Guadalete, 91"
14000.0,flat,74.0,3,1,36.6891995,-6.1454719,calle Nueva
15000.0,countryHouse,30.0,1,1,36.4610097,-5.7219644,calle Fernando de Casas
15300.0,flat,41.0,1,1,36.9204128,-5.5462014,calle de la Jara
15300.0,flat,41.0,1,1,36.9214407,-5.5443763,calle de la Jara
15400.0,duplex,44.0,2,1,36.6924331,-6.1518016,calle Micaela Parada
15400.0,flat,56.0,2,1,36.690123,-6.1528465,calle Micaela Parada
15500.0,chalet,76.0,2,1,36.91588,-5.2331,"calle el Gastor, 1"
15800.0,flat,55.0,2,1,36.1201381,-5.4541636,pasaje Duero 51
16000.0,flat,59.0,2,1,36.1221057,-5.4522334,calle Miño
16000.0,chalet,45.0,2,1,36.1335687,-5.458475,calle Ávila
16100.0,flat,54.0,1,1,36.6707216,-6.1363913,calle Pedro Sepúlveda
16200.0,flat,44.0,2,1,36.6925455,-6.1508719,calle Micaela Parada
16200.0,flat,44.0,2,1,36.6915262,-6.1495422,calle Micaela Parada
16800.0,flat,55.0,2,1,36.125766,-5.4541024,calle Eresma
17000.0,flat,49.0,3,1,36.6051415,-6.2239817,calle Virgen de los Remedios
17000.0,chalet,39.0,1,1,36.1302032,-5.4606875,calle Logroño
17000.0,chalet,39.0,1,1,36.1300622,-5.461733,calle Logroño
17000.0,flat,49.0,3,1,36.6053707,-6.2232612,calle Virgen de los Remedios
17100.0,flat,110.0,4,2,36.6984413,-6.1357449,calle Federico García Lorca
17100.0,flat,110.0,4,2,36.6987277,-6.1362379,calle Federico García Lorca
17100.0,flat,110.0,4,2,36.6986733,-6.1365034,calle Federico García Lorca
17250.0,flat,45.0,2,1,36.6918319,-6.1495813,Barrio Santiago - Coronación
17300.0,flat,56.0,2,1,36.6897816,-6.1518863,calle Juan Pecador
17300.0,flat,56.0,2,1,36.6931506,-6.1526093,calle Juan Pecador
17900.0,chalet,52.0,2,1,36.91999,-5.54422,Puerto Serrano
18000.0,chalet,30.0,2,2,36.6636022,-6.1569332,"calle Alemania, 3"
18100.0,flat,40.0,1,1,36.1298038,-5.4604236,calle Burgos
19000.0,flat,50.0,1,1,36.6858317,-6.1475014,calle Nueva
19000.0,flat,74.0,2,1,36.6716415,-6.1326611,calle Padre Damain
19000.0,flat,50.0,1,1,36.6894375,-6.1462241,Barrio Santiago - Coronación
19200.0,chalet,91.0,3,2,36.1344364,-5.4553135,calle Albacete
19900.0,flat,77.0,4,1,36.6986226,-6.1435211,calle Cepa
19900.0,flat,77.0,4,1,36.6981677,-6.1450974,calle Cepa
19900.0,chalet,63.0,3,1,36.1336063,-5.4592343,Puerta Europa-Virgen de la Palma-Estación
20000.0,chalet,59.0,2,1,36.1322756,-5.4575776,calle Valladolid
20000.0,chalet,43.0,2,1,36.1723628,-5.3457656,calle la Giralda
20000.0,chalet,90.0,2,1,36.9154257,-5.2343433,"calle Abajo, 9"
21000.0,chalet,36.0,1,1,36.1331758,-5.4599439,Puerta Europa-Virgen de la Palma-Estación
21000.0,chalet,48.0,1,1,36.130112,-5.4582349,calle Valladolid
22900.0,chalet,60.0,2,1,36.7460507,-5.8036087,calle Callejas
22995.0,chalet,59.0,1,1,36.1270249,-5.455806,calle los Arcos
22995.0,chalet,59.0,2,1,36.1274092,-5.4584847,Saladillo - La Piñera
23000.0,flat,111.0,3,1,36.8586988,-5.6441794,calle los Reyes
23000.0,chalet,53.0,3,1,36.130098,-5.4583684,calle Lérida
23000.0,chalet,60.0,2,1,36.1308699,-5.4582043,Puerta Europa-Virgen de la Palma-Estación
23000.0,flat,43.0,3,1,36.6061428,-6.2247492,calle Nuestra Señora de la Caridad
23000.0,flat,29.0,2,1,36.7497338,-5.8202799,calle Cañada de la Feria
23300.0,flat,47.0,3,1,36.6061466,-6.2227488,calle Nuestra Señora de Regla
23900.0,flat,58.0,3,1,36.6064206,-6.2235592,"calle Virgen de los Remedios, 1"
24000.0,flat,70.0,1,1,36.1323182,-5.4573574,Puerta Europa-Virgen de la Palma-Estación
24000.0,flat,52.0,2,1,36.6065274,-6.2256195,"calle Veracruz, 4 , - Cesi"
24000.0,flat,53.0,2,1,36.673845,-6.1377633,calle Conde de Mirasol
24000.0,flat,53.0,2,1,36.6757067,-6.1367417,calle Conde de Mirasol
24000.0,chalet,46.0,2,1,36.1305104,-5.4596382,calle Lérida
24500.0,chalet,55.0,2,1,36.6768942,-6.1388144,Barrio Torresoto - Agrimensor
24500.0,chalet,77.0,2,1,36.1310582,-5.4597236,"calle Lérida, 13"
24999.0,countryHouse,44.0,0,0,36.85488,-5.32352,"calle alta, 1"
25000.0,flat,40.0,2,1,36.6046701,-6.2216424,calle Nuestra Señora de Regla
25000.0,chalet,64.0,3,1,36.1330081,-5.4606194,calle Teruel
25000.0,chalet,79.0,2,1,36.1328117,-5.4589704,calle Burgos
25000.0,flat,40.0,1,1,36.6696591,-5.4475403,calle Jilguero
25000.0,flat,60.0,3,1,36.1220479,-5.4531974,calle Duero
25000.0,flat,60.0,3,1,36.1226062,-5.4536018,calle Duero
25000.0,chalet,169.0,3,2,36.1250696,-5.4543547,Saladillo - La Piñera
25600.0,flat,50.0,1,1,36.7768906,-6.3438198,calle José Rodríguez del Moral
25600.0,flat,50.0,1,1,36.7759514,-6.3415663,calle José Rodríguez del Moral
26000.0,flat,79.0,3,1,36.1214121,-5.4578266,calle Guerrita
26000.0,flat,75.0,3,1,36.1203932,-5.4570325,Saladillo - La Piñera
26000.0,flat,39.0,2,1,36.6944646,-6.1485474,avenida del Amontillado
26000.0,flat,39.0,2,1,36.6934206,-6.1466339,avenida del Amontillado
26000.0,flat,53.0,3,1,36.6946517,-6.1504891,Barrio Santiago - Coronación
26000.0,flat,85.0,4,1,36.6734733,-6.1302838,Barrio San Telmo - Federico Mayo - El Porta
26000.0,flat,65.0,3,1,36.8611168,-5.6458164,avenida Guadalete
26200.0,chalet,48.0,2,1,36.1305029,-5.4567373,calle Santa María Micaela
26300.0,flat,69.0,3,1,36.6715958,-6.1301902,calle Amistad
26300.0,flat,69.0,3,1,36.6709265,-6.1305425,calle Amistad
26500.0,chalet,27.0,1,1,36.1699402,-5.3519322,calle Santa Isabel
26800.0,flat,76.0,2,1,36.701701,-6.1419664,calle Cepa
26800.0,flat,76.0,3,1,36.6986487,-6.1406282,Barrio Jerez Oeste
27000.0,flat,87.0,2,1,36.1266158,-5.4551604,calle Andalucía
27000.0,flat,69.0,3,1,36.6765913,-6.1341079,calle San Telmo
27000.0,flat,69.0,3,1,36.6775603,-6.1325503,calle San Telmo
27000.0,flat,95.0,2,1,36.1238943,-5.4542225,calle Andalucía
27500.0,flat,50.0,2,1,36.6943017,-6.1466919,calle Alván
27500.0,flat,50.0,2,1,36.6923737,-6.149541,calle Alván
27500.0,flat,51.0,2,1,36.6933806,-6.1476776,Barrio Santiago - Coronación
27600.0,flat,78.0,3,1,36.2096558,-5.4124382,Ensenada Miraflores
27600.0,flat,78.0,3,1,36.207467,-5.4151313,Ensenada Miraflores
27800.0,flat,79.0,4,1,36.6780837,-6.1349341,calle San Telmo
27800.0,flat,79.0,4,1,36.67779,-6.1339348,calle San Telmo
27800.0,flat,80.0,4,1,36.6735681,-6.129667,Barrio San Telmo - Federico Mayo - El Porta
28000.0,flat,50.0,1,1,36.1297092,-5.4456199,plaza Nuestra Señora de la Palma
28000.0,flat,58.0,2,1,36.8614171,-5.6456713,calle Boquete Tío Parrao
28000.0,flat,52.0,2,1,36.1325028,-5.4582048,calle Teruel
28000.0,countryHouse,200.0,0,0,36.6777065,-5.4414915,"calle General Sanjurjo, 47"
28500.0,flat,55.0,2,1,36.6783401,-6.1410093,avenida Torresoto s/n
29000.0,flat,100.0,3,1,36.1691693,-5.3612584,calle Virgen Purísima Concepción s/n
29000.0,chalet,65.0,3,1,36.1311355,-5.4607885,calle Valladolid
29000.0,chalet,90.0,2,1,36.1227054,-5.4493438,calle los Barreros
29000.0,chalet,90.0,2,1,36.1235953,-5.4502387,calle los Barreros
29000.0,chalet,68.0,2,1,36.1331115,-5.4600482,Puerta Europa-Virgen de la Palma-Estación
29000.0,flat,44.0,2,1,36.1300398,-5.459626,calle Valladolid
29000.0,flat,60.0,1,1,36.6743376,-6.1317294,calle Vista Alegre
29000.0,flat,60.0,2,1,36.6756426,-5.4429856,"calle Toledo, 18"
29000.0,chalet,60.0,1,1,36.1301881,-5.4603459,"calle Ramón Bonifaz, 11"
29200.0,flat,56.0,2,2,36.236341,-5.3156108,avenida del Mediterráneo
29200.0,flat,56.0,2,2,36.2363319,-5.316429,La Alcaidesa
29200.0,chalet,109.0,3,2,36.1311544,-5.4590018,calle Gerona
29500.0,chalet,110.0,2,1,36.8140691,-5.7431163,"calle San Sebastián, 18"
30000.0,flat,74.0,3,1,36.7940926,-6.3397077,calle Patrón Carrerilla
30000.0,chalet,71.0,2,1,36.1333105,-5.4599775,calle San Luis
30000.0,flat,57.0,1,1,36.6086476,-6.2243431,calle Nuestra Señora de la Caridad
30000.0,flat,63.0,2,1,36.1240455,-5.4547601,calle Guadalquivir
30000.0,chalet,68.0,2,1,36.6776112,-5.4392988,Casco antiguo - Convento - Caldereto
30000.0,flat,90.0,3,1,36.1165997,-5.4477541,calle Fray Junípero Serra
30000.0,flat,90.0,3,1,36.119415,-5.4457773,calle Fray Junípero Serra
30000.0,flat,90.0,3,1,36.120227,-5.4482123,calle Fray Junípero Serra
30000.0,flat,43.0,3,1,36.6707168,-6.135418,Barrio Puertas del sur - Guadabajaque
30000.0,countryHouse,35.0,1,0,36.7143958,-6.0876312,Barrio Avda. Caballero Bonald - San José Obrero - Guadalcacín
30000.0,chalet,80.0,3,1,36.862408,-5.6392972,"calle Juan Ramón Jiménez, 20"
30500.0,flat,26.0,1,1,36.1683409,-5.3513885,calle Santa Ángela
30600.0,chalet,61.0,2,1,36.9153642,-5.2331673,avenida Setenil s/n
31000.0,flat,58.0,3,1,36.2127926,-5.3823657,calle Esperanza
31000.0,flat,58.0,3,1,36.2161823,-5.3855619,calle Esperanza
31000.0,flat,72.0,3,1,36.6723397,-6.1250161,plaza del Yunque
31100.0,chalet,89.0,3,2,36.1217625,-5.4549776,calle Guadalhorce
31100.0,chalet,89.0,3,2,36.1211333,-5.453425,calle Guadalhorce
31400.0,chalet,105.0,2,1,36.1311737,-5.4601322,Puerta Europa-Virgen de la Palma-Estación
31400.0,chalet,105.0,2,1,36.1332902,-5.4593585,calle Burgos
31800.0,flat,77.0,3,1,36.676386,-6.1359652,calle Zahara
31900.0,chalet,71.0,2,1,36.9156016,-5.2357638,vereda Ancha s/n
32000.0,flat,60.0,2,1,36.6970302,-6.1467946,calle del Palo Cortado
32000.0,flat,60.0,2,1,36.69468,-6.1464717,calle del Palo Cortado
32000.0,flat,60.0,2,1,36.6965927,-6.1470923,calle del Palo Cortado
32200.0,chalet,60.0,1,1,36.7464913,-6.401177,carretera Pista de Montijo
32300.0,studio,68.0,0,0,36.6754594,-6.1299979,plaza Platillos
32300.0,flat,154.0,2,1,36.7538454,-5.8117229,camino de Bornos
32300.0,flat,154.0,2,1,36.7519557,-5.8131526,camino de Bornos
32300.0,flat,52.0,2,1,36.6789702,-6.140731,calle Arquitecto José Ferrari
32300.0,flat,52.0,2,1,36.6800371,-6.1413519,calle Arquitecto José Ferrari
32300.0,flat,67.0,3,1,36.6795712,-6.1426221,Barrio Centro
32400.0,flat,107.0,3,1,36.1673672,-5.3596673,calle Virgen de la Luz
32400.0,flat,107.0,3,1,36.1683282,-5.3588584,calle Virgen de la Luz
33000.0,flat,82.0,3,2,36.1716809,-5.3627989,calle Virgen del Rosario
33600.0,flat,141.0,1,1,36.46216,-5.7229,"calle Fernando de Casas, 29"
33800.0,flat,52.0,2,1,36.1727587,-5.3471942,calle Benlliure
33800.0,flat,52.0,2,1,36.1716251,-5.3448022,calle Benlliure
34000.0,flat,85.0,3,1,36.2066129,-5.423259,calle Miraflores
34000.0,flat,85.0,3,1,36.2066129,-5.423259,calle Miraflores
34400.0,flat,77.0,3,1,36.206509,-5.4117541,callejón Miraflores
34400.0,flat,77.0,3,1,36.2084514,-5.408137,callejón Miraflores
34500.0,chalet,40.0,1,1,36.6788209,-5.4408979,Casco antiguo - Convento - Caldereto
34800.0,flat,79.0,3,1,36.6740322,-6.1316615,calle Padre Damain
34800.0,flat,79.0,3,1,36.6732915,-6.1291735,calle Padre Damain
35000.0,chalet,81.0,1,0,36.4613282,-5.7214653,calle Nuestra Señora de los Santos
35000.0,chalet,50.0,2,1,36.4616444,-5.727644,calle Alcalde Sandoval
35000.0,flat,50.0,1,1,36.1276283,-5.4470136,calle Miguel Martín s/n
35000.0,countryHouse,60.0,3,1,36.6559379,-5.656138,"calle Antonio Silva, 11"
35000.0,chalet,121.0,2,1,36.8613224,-5.1799601,"calle Ventosilla Alta, 5"
35000.0,chalet,69.0,3,1,36.6700698,-5.4446205,Casco antiguo - Convento - Caldereto
35000.0,flat,82.0,3,2,36.1708808,-5.3609155,"calle Virgen del Rosario, 34"
35000.0,flat,60.0,3,1,36.6960218,-6.1502902,Barrio Santiago - Coronación
35000.0,chalet,50.0,1,1,36.7863139,-5.5605087,"calle Goya, 18"
35000.0,penthouse,65.0,1,1,36.93518,-5.26534,"calle Mercado, 33"
35000.0,chalet,60.0,1,1,36.678743,-5.4419139,"calle Villaluenga, 11"
35400.0,flat,61.0,2,1,36.1669154,-5.3407908,calle Olvera
35400.0,flat,61.0,2,1,36.1658969,-5.3404445,calle Olvera
35500.0,flat,83.0,3,1,36.149036,-5.4592864,calle Doctor Carreras
36000.0,chalet,54.0,1,1,36.4655788,-6.2084589,Hornos Púnicos
36000.0,flat,60.0,3,1,36.1227295,-5.4544114,calle Miño
36100.0,flat,72.0,3,1,36.673738,-6.1300541,plaza la Fragua
36100.0,flat,72.0,3,1,36.6714371,-6.1275603,plaza la Fragua
36100.0,flat,73.0,3,1,36.6738856,-6.1289813,Barrio San Telmo - Federico Mayo - El Porta
36500.0,chalet,56.0,1,1,36.7479114,-5.8061669,Arcos de la Frontera
36800.0,flat,44.0,2,1,36.4213468,-6.1392868,"calle Conil de la Frontera, 5 -1"
36800.0,chalet,115.0,5,1,36.9277912,-5.5441163,calle de la Fuente del Pecho
36800.0,chalet,115.0,5,1,36.9263569,-5.5427959,calle de la Fuente del Pecho
37000.0,chalet,2236.0,1,1,36.7657824,-6.3607054,"carretera de Chipiona, 58"
37000.0,flat,91.0,3,1,36.1230655,-5.4563327,calle Andalucía
37000.0,chalet,69.0,3,1,36.8375796,-5.3917312,"Calvario, 12"
37000.0,flat,74.0,2,1,36.7250584,-5.9311929,pozo de la Bomba
37100.0,flat,77.0,3,1,36.8556433,-5.6351383,calle Gardenia s/n
37200.0,chalet,80.0,2,1,36.1131891,-5.4573434,"carretera cobre, 37"
37600.0,countryHouse,90.0,3,1,36.8631402,-5.6436371,Villamartin
37600.0,chalet,121.0,3,1,36.8633606,-5.6429832,calle de la Fuentezuela
38000.0,chalet,67.0,2,1,36.6728527,-6.1331275,calle Juan García Cuenca s/n
38000.0,flat,106.0,3,1,36.1705058,-5.3614528,Mondejar-Junquillos
38760.0,chalet,170.0,2,2,36.6789421,-5.4423932,calle la Torre
39000.0,flat,60.0,2,1,36.1674774,-5.3448798,calle Mariano de Cavia
39000.0,chalet,120.0,2,1,36.6779542,-5.4418296,Casco antiguo - Convento - Caldereto
39000.0,countryHouse,90.0,2,1,36.8820165,-5.4074494,Algodonales
39000.0,chalet,120.0,3,1,36.8719955,-6.1777265,"calle San Sebastián, 32"
39500.0,flat,75.0,3,1,36.6765414,-6.1301281,calle Vista Alegre
39500.0,flat,75.0,3,1,36.6774927,-6.1289133,calle Vista Alegre
39500.0,flat,75.0,3,1,36.6746317,-6.1283127,Barrio Madre de Dios
39900.0,flat,43.0,2,1,36.1229066,-5.4523109,pasaje Espíritu Santo
39900.0,flat,76.0,1,1,36.7000748,-6.1409852,calle Doctor Arruga
40000.0,flat,72.0,3,1,36.424398,-5.4391972,Jimena de la Frontera
40000.0,chalet,82.0,4,3,36.1187784,-5.460375,calle Andalucía
40000.0,flat,85.0,3,1,36.208228,-5.4145678,Ensenada Miraflores
40000.0,flat,79.0,3,1,36.1665269,-5.3650414,calle Concha Espina
40000.0,flat,81.0,4,1,36.1313131,-5.4582906,calle San Luis
40000.0,chalet,81.0,3,1,36.34226,-5.8114168,"calle Independencia, 20"
40000.0,flat,79.0,3,1,36.1687079,-5.362776,Mondejar-Junquillos
40000.0,countryHouse,35.0,1,2,36.1288138,-5.4560681,Puerta Europa-Virgen de la Palma-Estación
40000.0,chalet,98.0,1,1,36.6789259,-6.133833,calle Galván
40000.0,chalet,120.0,1,1,36.6811505,-6.1511757,"calle Picadueña Baja, 49"
40000.0,flat,70.0,3,1,36.6051947,-5.7979079,"Pablo VI, 2"
40000.0,chalet,85.0,3,1,36.8730452,-5.8052483,"calle de Ntr2 Padre Jesus Nazareno, 19"
40000.0,countryHouse,75.0,2,1,36.1667047,-5.3503309,"calle Cádiz, 21"
40250.0,flat,38.0,1,1,36.6892779,-6.1310001,calle Conocedores
40400.0,flat,61.0,3,1,36.67226,-6.1369955,avenida Blas Infante
40500.0,chalet,98.0,2,1,36.1335625,-5.4590872,Puerta Europa-Virgen de la Palma-Estación
40729.0,chalet,129.0,1,1,36.1210781,-5.4487914,calle Reyes Católicos
40800.0,chalet,128.0,4,1,36.88179,-5.40835,"calle Díaz Crespo, 31"
41000.0,flat,76.0,3,1,36.6686562,-6.126757,"plaza Teresa de Jesús, 6"
41000.0,studio,83.0,0,0,36.6939585,-6.1470289,calle Pedro Ximénez
41000.0,flat,82.0,3,1,36.4310721,-5.4505336,calle Pasada de Alcalá
41000.0,flat,79.0,3,2,36.1196206,-5.4566426,calle Lagartijo
41000.0,flat,79.0,3,2,36.1223507,-5.4569022,calle Lagartijo
41000.0,flat,84.0,3,1,36.115622,-5.4521125,calle Federico García Lorca s/n
41000.0,flat,79.0,3,1,36.4330412,-5.4485396,Jimena de la Frontera
41000.0,flat,67.0,3,1,36.6692302,-6.1281912,Barrio San Telmo - Federico Mayo - El Porta
41000.0,chalet,85.0,2,1,36.1337765,-5.4599981,Puerta Europa-Virgen de la Palma-Estación
41000.0,flat,41.0,1,1,36.7883128,-5.5573951,Prado del Rey
41000.0,flat,59.0,2,1,36.4654083,-6.1944046,calle Jardinillo
41000.0,flat,95.0,3,2,36.1193668,-5.4481155,Saladillo - La Piñera
42000.0,flat,70.0,2,1,36.6959556,-6.14557,"calle los Campanilleros, 7"
42000.0,chalet,71.0,4,2,36.676753,-6.1378271,calle Jacinto Benavente s/n
42000.0,flat,58.0,3,1,36.1664957,-5.3617733,calle andalucia 47 0
42000.0,flat,82.0,3,2,36.8804229,-5.4004661,Algodonales
42000.0,flat,85.0,3,1,36.1149749,-5.45146,calle Federico García Lorca
42000.0,penthouse,74.0,1,1,36.78628,-5.5575,"calle Guerrero Sánchez, 21"
42900.0,flat,102.0,2,0,36.6778104,-6.1312312,Barrio Madre de Dios
42990.0,chalet,53.0,1,2,36.4615029,-5.7234524,Alcalá de los Gazules
43000.0,studio,54.0,0,0,36.6719218,-6.1358054,plaza Santo Tomás de Aquino
43000.0,chalet,86.0,2,2,36.1323754,-5.4598777,calle Santander
43000.0,flat,54.0,3,1,36.6709008,-6.134809,Barrio Puertas del sur - Guadabajaque
43000.0,chalet,60.0,2,1,36.124316,-5.4516991,"calle Andalucía, 3"
43000.0,chalet,89.0,2,1,36.1276584,-5.4557823,calle Pablo Díaz
43000.0,flat,56.0,3,1,36.4608523,-5.7240932,Alcalá de los Gazules
43000.0,chalet,58.0,1,1,36.4621864,-5.7227117,"calle Barrio Nuevo, 15"
43000.0,flat,55.0,2,1,36.4679843,-6.2058245,El Cristo - Cayetano Roldán
43000.0,chalet,57.0,1,1,36.460762,-5.7215925,Alcalá de los Gazules
43000.0,countryHouse,80.0,0,1,36.9399628,-5.2772422,carretera de Antequera s/n
43000.0,countryHouse,200.0,7,1,36.6965154,-5.3869985,"calle Real, 18"
43500.0,flat,98.0,3,1,36.1148037,-5.4519632,calle Federico García Lorca
44000.0,flat,81.0,3,1,36.6704453,-6.1297482,plaza Doctor José Ortega Mateos s/n
44000.0,chalet,102.0,4,2,36.655584,-5.6549189,Algar
44000.0,flat,81.0,3,1,36.6728453,-6.1307377,Barrio San Telmo - Federico Mayo - El Porta
44000.0,flat,155.0,1,1,36.9166611,-5.2333491,Torre-Alhaquime
44000.0,flat,77.0,3,1,36.6030331,-6.2236034,calle Uva Pedro Ximénez
44000.0,flat,77.0,3,1,36.604201,-6.2244141,calle Uva Pedro Ximénez
44000.0,countryHouse,120.0,4,1,36.9352388,-5.2599555,"Pilar, 27"
44100.0,flat,94.0,3,2,36.1828125,-5.3837999,plaza María Pineda
44100.0,flat,94.0,3,2,36.1835557,-5.3840732,plaza María Pineda
44400.0,flat,46.0,2,1,36.4184962,-6.1541901,calle Gustavo Adolfo Bécquer
44840.0,flat,90.0,3,1,36.1834802,-5.3832279,Puente Mayorga-Campamento
44900.0,studio,14.0,0,1,36.6880095,-6.1404713,Barrio Centro
45000.0,chalet,33.0,2,1,36.4616846,-5.7244993,Alcalá de los Gazules
45000.0,flat,93.0,3,1,36.69273,-6.1446253,"calle Vino Fino, 2"
45000.0,flat,81.0,4,1,36.7426327,-5.7961526,Arcos de la Frontera
45000.0,studio,70.0,0,0,36.6965409,-6.1489912,calle Pedro Ximénez
45000.0,flat,92.0,4,1,36.7412922,-5.7957587,"avenida Alfonso X, 14"
45000.0,flat,67.0,2,1,36.8561943,-5.6517361,Villamartin
45000.0,flat,78.0,3,2,36.1678415,-5.3369146,calle Rota
45000.0,flat,81.0,4,0,36.7393579,-5.7955269,Arcos de la Frontera
45000.0,flat,84.0,3,1,36.1170139,-5.4501114,calle Federico García Lorca
45000.0,chalet,117.0,2,2,36.129226,-5.4622523,calle General Narváez
45000.0,penthouse,67.0,2,1,36.1239854,-5.4528628,"Hijar, 3"
45000.0,chalet,117.0,2,2,36.1321318,-5.4612989,calle General Narváez
45000.0,chalet,50.0,2,1,36.656285,-5.6569995,"calle Rafael Giron Taguas, 3"
45000.0,flat,70.0,2,1,36.6577648,-5.655303,"calle Antonio Vega, 2  b"
45000.0,countryHouse,85.0,3,1,36.7895206,-5.5552515,"calle Television Españala, 15"
45000.0,flat,100.0,3,2,36.1710181,-5.3598206,"calle Virgen de Europa, 6"
45000.0,flat,60.0,2,1,36.859284,-5.6493085,"calle de Serrecín, 10"
45700.0,flat,80.0,3,1,36.2087969,-5.3940719,calle Dulcinea del Toboso
45700.0,flat,80.0,3,1,36.2077491,-5.3965228,calle Dulcinea del Toboso
46000.0,countryHouse,50.0,2,1,36.9335225,-5.2643368,"calle Amapola, 1"
46000.0,flat,74.0,2,1,36.8580954,-5.6365937,calle la Noria
46000.0,flat,76.0,3,1,36.2110394,-5.3971481,calle Roque Montoya
46000.0,flat,76.0,3,1,36.2113947,-5.3973735,calle Roque Montoya
46700.0,flat,80.0,1,1,36.5895389,-6.2364536,calle de los Timoneles
46800.0,flat,85.0,2,1,36.1134566,-5.4485464,calle Juanito Villar
46800.0,flat,79.0,3,1,36.4565705,-6.2106576,calle Cruz Roja Española
46800.0,flat,79.0,3,1,36.4570405,-6.2109544,calle Cruz Roja Española
46900.0,chalet,165.0,3,1,36.8577259,-5.6430296,Villamartin
46900.0,chalet,165.0,3,1,36.8576054,-5.6419068,"calle los Reyes, 76"
47000.0,flat,63.0,2,1,36.1695424,-5.3391793,calle Rute
47000.0,flat,21.0,2,1,36.4614369,-5.7241341,Alcalá de los Gazules
47000.0,chalet,56.0,1,1,36.2120398,-5.4319017,"calle Río, 11"
47000.0,studio,37.0,0,1,36.7659752,-5.4653611,"calle la Parra, 44"
47500.0,chalet,104.0,3,1,36.130571,-5.461324,calle Logroño
47500.0,flat,70.0,1,1,36.9352388,-5.2599555,Olvera s/n Cdiz
47500.0,flat,41.0,2,1,36.1669402,-5.3535322,calle Santa Isabel
48000.0,chalet,39.0,2,1,36.2536031,-5.964581,Vejer de la Frontera
48000.0,chalet,60.0,3,1,36.9340137,-5.2650344,Olvera
48000.0,chalet,111.0,4,1,36.1159337,-5.4471315,calle Ponce de León
48000.0,flat,104.0,3,2,36.1182317,-5.4483232,Saladillo - La Piñera
48000.0,chalet,30.0,1,1,36.7485149,-5.802926,Arcos de la Frontera
48100.0,flat,100.0,3,2,36.9157748,-5.235461,calle Trascastillo s/n
48100.0,chalet,94.0,2,1,36.3401993,-5.3188698,calle San Jose
48100.0,chalet,94.0,2,1,36.3430591,-5.3228072,calle San Jose
48400.0,flat,96.0,3,1,36.1475877,-5.4624621,calle Benito Daza s/n
48500.0,flat,78.0,3,1,36.1694926,-5.3470662,calle Pirineos
48500.0,flat,78.0,3,1,36.1715758,-5.3460233,calle Pirineos
48500.0,studio,115.0,0,2,36.127313,-5.4449486,Centro
49000.0,chalet,62.0,3,1,36.8547113,-5.3231157,"calle San José, 9"
49000.0,chalet,111.0,3,2,36.8630063,-5.1813187,calle Vega
49000.0,flat,216.0,1,3,36.6775555,-5.4436508,"calle Beato Diego de Cádiz, 16"
49000.0,flat,75.0,4,1,36.7403084,-5.796379,avenida Alfonso X
49000.0,countryHouse,120.0,2,1,36.93013,-5.41255,"calle Menendez Pidal, 6"
49500.0,chalet,93.0,3,2,36.1134577,-5.461127,"carretera al Cobre, 188"
49500.0,chalet,93.0,3,2,36.1118816,-5.4608176,La Granja - La Colina - Los Pastores
49500.0,chalet,50.0,2,1,36.9335225,-5.2643368,"calle Amapola, 1"
49990.0,flat,46.0,1,1,36.7049768,-5.4217683,Benaocaz
50000.0,chalet,80.0,1,1,36.1673082,-5.3491077,calle Puerto de la Luz
50000.0,countryHouse,40.0,1,0,36.2535929,-5.9640908,"calle Rosario, 5"
50000.0,chalet,119.0,3,2,36.919735,-5.5440686,calle la Perdiz
50000.0,chalet,119.0,3,1,36.9193061,-5.5432497,calle la Perdiz
50000.0,chalet,110.0,3,1,36.9172078,-5.2328058,calle El Gastor
50000.0,studio,25.0,0,1,36.7475922,-5.8016312,calle Callejas
50000.0,studio,45.0,0,1,36.7458505,-5.804674,calle Callejas
50000.0,flat,55.0,2,1,36.1402118,-5.4491993,calle Jacinto Benavente s/n
50000.0,flat,100.0,2,1,36.4178549,-6.1296173,calle Naranja
50000.0,flat,79.0,2,2,36.9231694,-5.5463729,avenida Cádiz
50000.0,flat,102.0,2,2,36.9191122,-5.5457215,Puerto Serrano
50000.0,flat,40.0,2,1,36.4127931,-6.1508468,calle Hércules
50000.0,flat,79.0,2,2,36.9192187,-5.5452016,Puerto Serrano
50000.0,chalet,75.0,3,1,36.86325,-5.1820398,"calle alta, 9"
50000.0,flat,80.0,3,1,36.4604817,-5.7221127,"calle Fernando III el Santo, 2 Bloque"
50000.0,chalet,110.0,3,2,36.8630621,-5.1793373,Setenil de las Bodegas
50000.0,chalet,150.0,1,2,36.7605813,-5.3714092,Grazalema
50000.0,countryHouse,48.0,2,1,36.4625568,-5.7257859,"calle Ildefonso Romero, 32"
50000.0,countryHouse,122.0,2,1,36.7021582,-5.4221506,"calle Santa Clara, 13"
50000.0,flat,91.0,3,3,36.856494,-5.6380337,calle la Noria
50000.0,flat,130.0,3,2,36.9352428,-5.2660155,"calle Llana, 22"
50350.0,flat,74.0,3,1,36.409502,-6.1508639,"calle Dublín, 6 , - Cesi"
51000.0,flat,75.0,3,1,36.1200274,-5.4548054,Saladillo - La Piñera
51000.0,chalet,89.0,1,1,36.4532594,-6.2006706,calle San Onofre
51000.0,chalet,154.0,2,1,36.9370428,-5.2619553,Olvera
51500.0,chalet,50.0,2,1,36.6707425,-5.4456673,"calle Perdiz, 3"
51900.0,chalet,75.0,3,1,36.1213534,-5.4550819,Saladillo - La Piñera
52000.0,studio,39.0,0,1,36.2526591,-5.9624761,Vejer de la Frontera
52000.0,flat,79.0,3,1,36.4579888,-6.1981646,calle Malaspina
52000.0,flat,61.0,2,1,36.702802,-5.4212593,calle Salto del Cabrero
52000.0,chalet,69.0,1,1,36.6790974,-5.4426377,Casco antiguo - Convento - Caldereto
52000.0,studio,38.0,0,1,36.4643012,-5.720244,"calle Nuestra Señora de los Santos, 44"
52000.0,flat,75.0,3,1,36.4770927,-6.1880292,"Vias Verdes Puerto Real San Fernando, 5"
52000.0,flat,60.0,2,1,36.8143266,-5.7414674,Bornos
52000.0,flat,46.0,1,1,36.78638,-5.55705,"calle Moreno de Mora, 19"
52300.0,flat,98.0,4,2,36.1824384,-5.3851801,Barriada Nazaret s/n
52500.0,flat,80.0,2,1,36.4609575,-6.1995002,calle Mariana de Arteaga
53000.0,studio,75.0,0,0,36.1171249,-5.4502728,pasaje Federico García Lorca
53000.0,chalet,123.0,3,1,36.11793,-5.4459858,calle Ponce de León
53000.0,flat,90.0,3,1,36.1702642,-5.3595458,Mondejar-Junquillos
53000.0,flat,70.0,2,1,36.4643458,-6.1961128,"calle San Francisco de Asís, 19 -9"
53000.0,studio,124.0,0,0,36.8618788,-5.1810071,"calle Cantareria Alta, 9"
53000.0,chalet,77.0,2,2,36.1289523,-5.4600807,Puerta Europa-Virgen de la Palma-Estación
53300.0,chalet,90.0,3,2,36.6749205,-6.1383354,calle Canarias
53300.0,chalet,90.0,3,2,36.6754902,-6.1405864,calle Canarias
53500.0,chalet,106.0,4,1,36.1313116,-5.4593629,"calle Pontevedra, 12"
53900.0,flat,76.0,3,2,36.4567612,-6.2006736,calle Olivarillo
53900.0,flat,76.0,3,2,36.4560489,-6.1994874,calle Olivarillo
54000.0,chalet,74.0,1,0,36.6047792,-6.2239934,calle Uva Pedro Ximénez
54000.0,flat,74.0,2,1,36.6021321,-6.2228762,Barrio Centro
54000.0,flat,65.0,3,1,36.1715403,-5.3406557,avenida Menéndez Pelayo
54000.0,flat,35.0,1,1,36.7456484,-5.8034341,Arcos de la Frontera
54000.0,chalet,89.0,3,1,36.88336,-5.40486,"calle Ermita, 27"
54500.0,flat,84.0,3,2,36.8098053,-5.743788,Bornos
54500.0,flat,84.0,3,2,36.81158,-5.74413,"calle Huelva, 2"
55000.0,flat,43.0,1,1,36.1251576,-5.443288,Centro
55000.0,flat,43.0,1,1,36.1253403,-5.4430228,Centro
55000.0,chalet,203.0,4,3,36.8131563,-5.7450913,"Sobrealta, 82"
55000.0,chalet,100.0,3,1,36.1742659,-5.3408589,pasaje Lepanto
55000.0,flat,65.0,2,1,36.7854054,-5.5597475,"calle Clara Campoamor, 1"
55000.0,chalet,50.0,1,1,36.9330377,-5.27015,calle Sevilla
55000.0,chalet,140.0,1,1,36.3415899,-5.8123437,calle Nueva
55000.0,flat,77.0,3,1,36.6949367,-6.1402649,plaza San Ginés de la Jara
55000.0,chalet,59.0,1,0,36.1857047,-5.4928108,Los Barrios
55000.0,chalet,82.0,3,1,36.1285639,-5.4489929,"calle Escopeteros, 14"
55000.0,chalet,70.0,1,1,36.4207967,-6.141553,La Banda - Campo de Fútbol
55000.0,flat,43.0,1,1,36.1234797,-5.4446957,Centro
55000.0,penthouse,66.0,2,1,36.6569645,-5.6561791,"calle Cuesta, 6"
55000.0,flat,70.0,2,1,36.164427,-5.3585647,Mondejar-Junquillos
55000.0,flat,79.0,3,2,36.6047111,-6.223954,calle Uva Pedro Ximénez
55000.0,chalet,60.0,2,1,36.6784108,-5.4420345,Casco antiguo - Convento - Caldereto
55000.0,studio,47.0,0,1,36.7492859,-5.8091111,"Julio Mariscal, 3"
55000.0,chalet,30.0,1,1,36.6793925,-5.4436349,Casco antiguo - Convento - Caldereto
55000.0,flat,65.0,2,2,36.7855239,-5.5605143,"calle Clara Campoamor, 1"
55000.0,flat,80.0,3,1,36.9338417,-5.254547,Barriada Coronación s/n
55000.0,chalet,80.0,2,1,36.9207563,-5.544694,"calle Jilguero, 5"
55000.0,chalet,78.0,2,1,36.6561756,-5.6555428,"calle sol, 48"
55000.0,flat,79.0,3,2,36.6014827,-6.2242581,calle Uva Pedro Ximénez
55000.0,flat,63.0,3,1,36.4593927,-5.7301537,"calle San Vicente, 3"
55400.0,flat,70.0,3,1,36.1368141,-5.4529791,plaza María de Molina s/n
55500.0,flat,40.0,1,1,36.8186657,-5.743018,calle Manuel Barra s/n
55800.0,flat,58.0,2,1,36.1937557,-5.9253395,Barriada Carrero Blanco s/n
55900.0,flat,80.0,3,1,36.1684499,-5.3477856,avenida María Guerrero
55900.0,flat,80.0,3,1,36.1686505,-5.3470611,avenida María Guerrero
56000.0,flat,54.0,2,1,36.1932983,-5.9257227,calle Bahía de Barbate s/n
56000.0,flat,97.0,1,0,36.1699826,-5.3605053,Mondejar-Junquillos
56000.0,chalet,130.0,1,0,36.1205967,-5.4454839,paseo Victoria Eugenia s/n
56000.0,chalet,49.0,1,1,36.7859756,-5.5603168,"calle Victoria Kent, 7  CASA 21"
56000.0,flat,80.0,3,1,36.1177657,-5.4483148,Saladillo - La Piñera
56300.0,chalet,73.0,3,1,36.9156016,-5.2357638,vereda Ancha s/n
56400.0,flat,74.0,3,1,36.6750545,-6.1298955,calle Padre Damain
56400.0,flat,74.0,3,1,36.6753227,-6.1305372,calle Padre Damain
56600.0,flat,91.0,3,1,36.7942803,-6.3364907,calle Alhambra de Granada
56600.0,flat,91.0,3,1,36.7951948,-6.3369093,calle Alhambra de Granada
57000.0,studio,100.0,0,2,36.752617,-5.814649,"calle Alta, 55"
57000.0,chalet,48.0,1,2,36.7544576,-5.8142973,Arcos de la Frontera
57000.0,flat,80.0,3,1,36.14475,-5.47194,La Granja - La Colina - Los Pastores
57000.0,flat,65.0,3,1,36.4631031,-6.1987118,El Carmen
57400.0,flat,58.0,3,1,36.6946898,-6.1499041,calle Toneleros
57400.0,flat,58.0,3,1,36.6954375,-6.1492833,calle Toneleros
57400.0,flat,58.0,3,1,36.694556,-6.147965,Barrio Santiago - Coronación
57500.0,flat,107.0,3,1,36.935239,-5.263936,"calle Mercado, 57"
57700.0,flat,35.0,1,1,36.6766049,-6.1381248,"calle Muñoz Seca, 9 sn"
58000.0,studio,13.0,0,1,36.2540515,-5.9611404,Vejer de la Frontera
58000.0,flat,85.0,3,1,36.1694904,-5.3595629,"calle Virgen de la Palma, 8"
58000.0,flat,93.0,3,1,36.8132498,-5.7419482,avenida de la Diputación
58000.0,flat,94.0,3,2,36.7909179,-6.3449982,calle Quinta de la Paz
58000.0,chalet,108.0,3,1,36.4212938,-6.1368603,calle Junta de Tablas
58000.0,chalet,115.0,3,2,36.8606185,-5.6432362,"calle Extramuros, 39"
58000.0,countryHouse,127.0,4,1,36.7862215,-5.5553771,"avenida de la Diputación, 11"
58400.0,chalet,203.0,4,2,36.813455,-5.7436716,Bornos
59000.0,flat,55.0,2,1,36.1378256,-5.4500217,calle Jacinto Benavente
59000.0,flat,83.0,3,1,36.1155838,-5.450926,Saladillo - La Piñera
59000.0,flat,48.0,1,1,36.1181698,-5.4519145,calle San Pablo
59000.0,chalet,80.0,3,2,36.1678525,-5.337776,calle Alcalá
59000.0,flat,83.0,3,1,36.1183342,-5.4513358,Saladillo - La Piñera
59000.0,flat,81.0,3,1,36.8584853,-5.6377498,"calle la Noria, 9"
59000.0,flat,83.0,3,1,36.1153429,-5.4505104,Saladillo - La Piñera
59000.0,flat,83.0,3,1,36.1160628,-5.4515026,Saladillo - La Piñera
59000.0,flat,22.0,1,1,36.4235078,-6.1510891,Núcleo Urbano
59000.0,flat,81.0,3,1,36.8597963,-5.6364893,Villamartin
59000.0,flat,83.0,3,1,36.1156013,-5.4506093,Saladillo - La Piñera
59000.0,flat,83.0,2,1,36.8205507,-5.744377,calle Peral
59000.0,flat,81.0,3,1,36.8565952,-5.637636,Villamartin
59000.0,chalet,141.0,4,3,36.7000668,-5.423151,Benaocaz
59000.0,flat,68.0,2,1,36.8230667,-5.7458508,Bornos
59200.0,flat,68.0,3,1,36.6079174,-6.2209953,calle del Bocoy s/n
59200.0,flat,107.0,3,2,36.3452287,-5.8154432,calle Grulla Negra
59200.0,flat,107.0,3,2,36.3461707,-5.8147611,calle Grulla Negra
59300.0,flat,79.0,3,1,36.6751956,-6.1285158,calle Padre Damain
59300.0,flat,79.0,3,1,36.6751174,-6.1278476,calle Padre Damain
59500.0,flat,114.0,4,2,36.698355,-6.1466486,Barrio Santiago - Coronación
59500.0,flat,116.0,3,2,36.6970845,-6.1449885,avenida la Manzanilla
59500.0,flat,116.0,3,2,36.6970976,-6.1457675,calle del Bajete
59500.0,countryHouse,409.0,0,0,36.872392,-5.8044027,"calle de la Libertad, 3"
59900.0,flat,40.0,1,1,36.4593927,-5.7301537,"avenida Puerto de Levante, 9"
59990.0,chalet,76.0,2,2,36.1332995,-5.4593501,Puerta Europa-Virgen de la Palma-Estación
60000.0,flat,65.0,2,1,36.1902782,-5.9213588,calle Luis Braille
60000.0,chalet,81.0,2,1,36.7456571,-5.8021648,"calle Alanises, 15"
60000.0,flat,51.0,3,1,36.6956037,-6.1484748,Barrio Santiago - Coronación
60000.0,flat,160.0,3,3,36.7494026,-5.8192419,calle los Alcaldes s/n
60000.0,flat,47.0,1,1,36.69894,-5.42115,Benaocaz
60000.0,chalet,193.0,1,1,36.5285542,-6.191716,calle Amargura
60000.0,chalet,132.0,3,1,36.8831312,-5.403387,calle de la Perdiz
60000.0,flat,90.0,3,2,36.8579284,-5.6509754,"calle Blas Infante, 1"
60000.0,chalet,100.0,3,1,36.81457,-5.7455133,"calle Casa Para Reformar, 44"
60000.0,flat,75.0,2,2,36.7849999,-5.55997,"camino de Pilar, 2"
60000.0,chalet,140.0,3,1,36.7496427,-5.8065239,"calle Cantaor Miguel Cambayá, 17"
60000.0,chalet,140.0,3,1,36.4649209,-5.4140288,"calle Jimena, 15"
60000.0,chalet,70.0,2,1,36.6773645,-5.4412362,Casco antiguo - Convento - Caldereto
60000.0,chalet,555.0,5,1,36.8117785,-5.7441927,"calle Cuevas, 36"
60000.0,chalet,52.0,2,1,36.6755001,-5.4442692,Casco antiguo - Convento - Caldereto
60000.0,chalet,50.0,2,1,36.6743899,-5.4423337,Casco antiguo - Convento - Caldereto
60000.0,chalet,120.0,3,1,36.7844437,-5.5531719,Prado del Rey
60000.0,countryHouse,170.0,4,1,36.8130287,-5.7462568,"calle Arenas, 70"
60000.0,chalet,145.0,3,1,36.8629239,-5.1845893,"calle Reyes Catolicos, 2"
60000.0,studio,50.0,0,1,36.7482188,-5.8050653,"calle Higinio Capote, 19"
60000.0,countryHouse,139.0,4,2,36.86244,-5.17709,"avenida del Carmen, 14"
60000.0,countryHouse,44.0,1,1,36.677231,-5.4413048,"San Martin, 8"
60000.0,chalet,150.0,3,1,36.65529,-5.65624,"calle Real, 8"
60000.0,flat,55.0,2,1,36.45999,-5.73033,"avenida Puerto de Levante, 3"
60000.0,flat,70.0,3,1,36.7547567,-5.818658,"calle Azorin, 4"
60100.0,flat,85.0,2,1,36.9214598,-5.5463015,"avenida Cádiz, 71"
61000.0,flat,85.0,3,2,36.4180564,-6.1471713,calle Obispo Rancés
61000.0,chalet,111.0,3,1,36.4222205,-6.1333339,calle la Begonia
61000.0,flat,67.0,2,1,36.6040069,-5.799415,San José del Valle
61000.0,flat,36.0,1,1,36.4699558,-6.1939742,Centro Ciudad
61000.0,flat,57.0,1,1,36.469896,-6.198408,calle Gravina
61800.0,chalet,180.0,2,1,36.1187115,-5.4450209,calle Ponce de León
61800.0,chalet,180.0,2,1,36.1167576,-5.4445517,calle Ponce de León
61800.0,chalet,180.0,2,1,36.119375,-5.4425124,calle Ponce de León
62000.0,chalet,111.0,3,1,36.6746712,-6.1375306,Barrio San Telmo - Federico Mayo - El Porta
62000.0,flat,70.0,3,2,36.7560042,-5.8116522,ELEFANTE AZUL s/n
62000.0,flat,51.0,2,1,36.1934799,-5.9149789,calle Pesquero Joven Alonso
62000.0,chalet,96.0,3,1,36.6735594,-6.1359401,Barrio San Telmo - Federico Mayo - El Porta
62000.0,flat,114.0,3,2,36.9216769,-5.5476293,avenida Cádiz
62000.0,flat,55.0,2,1,36.1917362,-5.91948,Barbate
62000.0,flat,75.0,2,1,36.9351645,-5.2658931,"calle Llana, 28"
62000.0,chalet,127.0,3,1,36.7046896,-6.1080962,calle Santa Emilia
62000.0,chalet,127.0,3,1,36.703558,-6.1059976,calle Santa Emilia
62000.0,flat,39.0,1,1,36.4180549,-6.1550687,calle Gustavo Adolfo Bécquer
62000.0,flat,39.0,1,1,36.4172518,-6.1543025,calle Gustavo Adolfo Bécquer
62000.0,flat,74.0,3,1,36.6783719,-5.4425345,Casco antiguo - Convento - Caldereto
62000.0,penthouse,111.0,3,2,36.861508,-5.6419678,"calle Matadero, 1"
62100.0,flat,72.0,3,1,36.6940858,-6.1497014,calle Alván
62100.0,flat,72.0,3,1,36.694352,-6.1503887,calle Alván
62500.0,flat,90.0,3,1,36.7854137,-5.560572,"calle Clara Campoamor, 10"
63000.0,flat,69.0,2,1,36.793912,-6.3368654,calle Patrón Luisillo Hermoso
63000.0,flat,85.0,3,1,36.4154195,-6.1478258,calle Bailén
63000.0,flat,115.0,3,1,36.1175587,-5.4460421,calle Fray Junípero Serra
63000.0,flat,72.0,3,1,36.4165964,-6.1473111,"calle Bailén, 13"
63000.0,flat,106.0,3,1,36.1309435,-5.4578677,Puerta Europa-Virgen de la Palma-Estación
63000.0,flat,138.0,1,1,36.6768753,-6.1372755,calle Larra
63000.0,flat,138.0,1,1,36.6752557,-6.1394245,calle Larra
63000.0,chalet,103.0,4,1,36.923651,-5.5429231,Puerto Serrano
63000.0,countryHouse,51.0,4,2,36.4633016,-5.7215845,Alcalá de los Gazules
63000.0,flat,70.0,2,1,36.6989884,-5.419943,"puente la Trampilla, 4"
64000.0,flat,90.0,2,1,36.4599427,-5.9307572,Medina-Sidonia
64000.0,chalet,87.0,3,2,36.9313602,-5.266951,Olvera
64000.0,flat,88.0,3,1,36.769042,-6.3464196,calle Pintor Ángel Cortellini
64000.0,flat,107.0,2,1,36.46449,-5.7204676,Alcalá de los Gazules
64000.0,chalet,84.0,2,2,36.1192282,-5.4458373,calle Hernán Cortés
64000.0,chalet,84.0,2,2,36.1198803,-5.4483879,calle Hernán Cortés
64200.0,flat,76.0,3,1,36.4096479,-6.1483917,calle Hibisco
64200.0,flat,76.0,3,1,36.4098913,-6.1454413,calle Hibisco
64500.0,studio,41.0,0,1,36.6957621,-6.1067068,"plaza de Ronda, 11"
64900.0,flat,82.0,4,1,36.7013806,-6.1426805,calle Doctor Arruga
64900.0,flat,82.0,4,1,36.7012183,-6.1424585,calle Doctor Arruga
64900.0,flat,82.0,4,1,36.7007208,-6.1393176,Barrio Jerez Oeste
64990.0,countryHouse,120.0,3,2,36.9157363,-5.2348594,"portillejo, 1"
65000.0,chalet,82.0,3,2,36.4620029,-5.7241446,Alcalá de los Gazules
65000.0,flat,62.0,2,1,36.6964519,-6.1462014,Barrio Santiago - Coronación
65000.0,chalet,112.0,3,1,36.3566111,-5.978009,Vejer de la Frontera
65000.0,chalet,165.0,4,2,36.8617833,-5.177165,Setenil de las Bodegas
65000.0,flat,62.0,2,1,36.6789107,-5.442961,Casco antiguo - Convento - Caldereto
65000.0,studio,89.0,0,0,36.7736956,-6.3410274,calle Andrés Carmelo Aznar
65000.0,chalet,100.0,2,1,36.4188215,-6.1593648,La Soledad
65000.0,chalet,68.0,2,1,36.1753206,-5.3354128,La Atunara-Periáñez
65000.0,flat,77.0,3,1,36.6115451,-6.2318895,"calle Maracaibo, 8 -10"
65000.0,chalet,124.0,4,2,36.7476738,-5.8034725,Arcos de la Frontera
65000.0,flat,81.0,3,1,36.2096149,-5.3830059,"calle Consuelo, 15 -9"
65000.0,chalet,139.0,3,2,36.9150813,-5.2356712,Torre-Alhaquime
65000.0,chalet,130.0,3,1,36.6735616,-6.1347875,Barrio San Telmo - Federico Mayo - El Porta
65000.0,chalet,125.0,3,1,36.6060308,-5.8010254,"calle San Antonio, 127"
65000.0,chalet,272.0,1,1,36.1296888,-5.4571408,calle Santa María Micaela
65000.0,chalet,272.0,1,1,36.1307596,-5.4566156,calle Santa María Micaela
65000.0,flat,58.0,2,1,36.6949968,-6.1502814,Barrio Santiago - Coronación
65000.0,flat,62.0,2,1,36.6796129,-5.4421344,Casco antiguo - Convento - Caldereto
65000.0,flat,75.0,3,1,36.1385386,-5.4618232,San Bernabé
65000.0,chalet,65.0,2,2,36.7455155,-5.8020088,Arcos de la Frontera
65000.0,flat,55.0,2,1,36.1667402,-5.3523322,calle Santa Isabel
65000.0,chalet,200.0,3,1,36.7481793,-5.8187795,"corregidores, 32"
65000.0,flat,90.0,3,1,36.1211931,-5.4567385,"calle Chicorro, 6"
65000.0,countryHouse,124.0,4,2,36.7486163,-5.8043007,"calle Arenillas, 2"
65000.0,countryHouse,100.0,3,1,36.872392,-5.8044027,"Primero d mayo, 44"
65000.0,countryHouse,132.0,4,2,36.8701798,-6.1752403,"calle Veracruz, 11"
65000.0,chalet,153.0,5,1,36.857203,-5.6489849,"avenida de la Feria, 96"
65000.0,flat,72.0,2,1,36.8201754,-5.745026,Bornos
65000.0,chalet,110000.0,4,1,36.9327191,-5.2653217,"calle Maestro Amado, 120"
65000.0,flat,70.0,3,1,36.6060308,-5.8010254,"Barriada pablo VI, 2"
65800.0,flat,56.0,3,1,36.5934917,-6.2348911,calle Crucero Baleares
66000.0,flat,88.0,4,3,36.7706106,-6.3495531,plaza de Godoy
66000.0,flat,82.0,3,2,36.1853831,-5.3816674,Barriada Cepsa
66000.0,chalet,88.0,3,1,36.4636714,-5.7196218,Alcalá de los Gazules
66000.0,flat,100.0,3,1,36.6996868,-5.4218306,"calle San Blas, 1"
66000.0,chalet,112.0,4,2,36.9349045,-5.2675275,"calle Azuaga, 8"
66500.0,flat,70.0,2,1,36.4443224,-6.2105608,calle Plutón
66800.0,flat,78.0,3,2,36.5276758,-6.1856478,"calle Ángel, 18 -20"
66800.0,flat,53.0,3,1,36.6997574,-6.1355984,plaza Júpiter
66800.0,chalet,72.0,2,1,36.1637746,-5.4491635,calle Cabo de Rocas
67000.0,flat,77.0,3,1,36.6930714,-6.1422029,Barrio Jerez Oeste
67000.0,chalet,49.0,1,1,36.750664,-5.8119312,Arcos de la Frontera
67000.0,flat,87.0,3,1,36.4110588,-6.1453716,calle Pablo Martín Sarasate
67000.0,flat,89.0,3,2,36.4176464,-6.1323553,calle Mandarina s/n
67000.0,flat,67.0,2,1,36.124542,-5.4466033,"calle Alexander Henderson, 19"
67000.0,flat,69.0,3,1,36.1207922,-5.4572581,calle Andalucía
67000.0,chalet,147.0,2,1,36.1240178,-5.4585311,calle Casas Viejas
67000.0,chalet,85.0,2,1,36.2108611,-5.3824896,San Roque Pueblo
67000.0,flat,72.0,3,2,36.6939192,-6.1480101,calle Viticultor
67000.0,flat,70.0,2,1,36.1258351,-5.4473196,calle Alexander Henderson
67000.0,flat,91.0,3,1,36.6988632,-5.4231066,Benaocaz
67000.0,chalet,40.0,2,1,36.7499873,-5.8129577,Arcos de la Frontera
67000.0,flat,90.0,3,1,36.1346877,-5.4525141,La Reconquista - El Ensanche
67000.0,countryHouse,55.0,1,1,36.7515748,-5.8123627,"calle Peña picada, 7"
67600.0,flat,60.0,2,1,36.1740529,-5.3417207,calle del Almendro s/n
67700.0,flat,51.0,1,1,36.6851061,-6.1227128,calle Jorge Bocuze
67900.0,flat,83.0,3,1,36.1482996,-5.461413,calle Doctor Arruga
67900.0,chalet,75.0,3,1,36.6997454,-5.4218741,"calle San Blas, 4"
67930.0,studio,103.0,0,2,36.1842369,-5.4887716,calle Pez
68000.0,flat,76.0,3,1,36.1246117,-5.4511376,calle Guadalmina
68000.0,flat,68.0,2,1,36.4579101,-6.199667,calle Mariana de Arteaga
68000.0,flat,68.0,2,1,36.6935842,-6.151203,calle la Granadina
68000.0,chalet,92.0,3,2,36.7857463,-5.5626407,Prado del Rey
68000.0,duplex,93.0,3,2,36.7848024,-5.5610412,Prado del Rey
68000.0,chalet,66.0,3,1,36.8551821,-5.6434607,Villamartin
68000.0,flat,90.0,3,1,36.78562,-5.56109,"calle Lepanto, 35"
68000.0,chalet,80.0,2,2,36.117652,-5.4480809,Saladillo - La Piñera
68000.0,chalet,160.0,4,1,36.1246964,-5.4466671,"calle Alexander Henderson, 40"
68000.0,flat,104.0,3,2,36.8562923,-5.6363869,"calle benito sánchez, 6"
68000.0,chalet,74.0,3,2,36.9339791,-5.2672071,calle Paquero
68500.0,flat,86.0,3,2,36.4640473,-5.7186536,Alcalá de los Gazules
68700.0,flat,80.0,4,1,36.7018711,-6.1390282,calle Doctor Marañón
68700.0,flat,75.0,3,1,36.6747761,-6.1289493,calle Vista Alegre
68700.0,flat,78.0,3,1,36.6983754,-6.1468825,calle Uva
69000.0,flat,71.0,2,1,36.1724175,-5.3448745,calle Padre Pandelo
69000.0,flat,60.0,2,1,36.1706115,-5.3446284,calle Padre Pandelo
69000.0,flat,78.0,3,2,36.1728373,-5.3473878,calle Veleta
69000.0,flat,140.0,3,2,36.1203819,-5.4484808,calle Hermanos Pinzón
69000.0,chalet,118.0,3,2,36.1302844,-5.4600084,calle Lérida
69000.0,flat,73.0,2,1,36.3460104,-5.8137288,"calle Conil, 4"
69000.0,countryHouse,200.0,3,2,36.9352388,-5.2599555,"victoria, 17"
69000.0,flat,140.0,4,2,36.8603457,-5.6422274,"calle botica, 3"
69000.0,flat,68.0,2,1,36.4614618,-6.1992606,calle Mariana de Arteaga
69000.0,chalet,70.0,1,1,36.60577,-5.79717,"calle Alfonso X el Sabio, 11"
69000.0,countryHouse,70.0,1,1,36.6068098,-5.7970213,San José del Valle
69000.0,flat,79.0,3,1,36.1711138,-5.3458006,San José-San Bernardo
69000.0,flat,80.0,3,1,36.8612168,-5.6485233,"paseo Ambulatorio, 10"
69500.0,chalet,118.0,3,1,36.8699616,-5.1765572,Setenil de las Bodegas
69900.0,flat,115.0,3,2,36.7545671,-5.8199269,calle Beatriz Pacheco
69900.0,flat,78.0,3,1,36.7560042,-5.8116522,Panama s/n
69900.0,chalet,69.0,2,1,36.7784778,-6.3451272,Monteolivete-Camino Sevilla
69995.0,chalet,45.0,1,1,36.7463353,-5.8007673,calle Torres
70000.0,flat,76.0,3,1,36.6981811,-6.1365429,Barrio Jerez Oeste
70000.0,flat,76.0,3,1,36.700402,-6.139064,Barrio Jerez Oeste
70000.0,chalet,84.0,2,2,36.4610267,-5.726134,Alcalá de los Gazules
70000.0,flat,76.0,3,1,36.6997862,-6.1406039,Barrio Jerez Oeste
70000.0,flat,76.0,3,1,36.6977709,-6.1399533,Barrio Jerez Oeste
70000.0,countryHouse,514.0,15,8,36.4553703,-5.9266519,Medina-Sidonia
70000.0,flat,70.0,2,1,36.789128,-5.5549268,Prado del Rey
70000.0,flat,77.0,2,2,36.6121158,-6.2337862,"calle Abeja Reina, 12 -15"
70000.0,flat,76.0,3,1,36.7002776,-6.1400948,avenida Tomás García Figueras
70000.0,flat,99.0,3,1,36.4659935,-5.4129363,"La Viña, 32"
70000.0,chalet,80.0,2,1,36.7478369,-5.8038364,"calle Mateo González, 31"
70000.0,flat,65.0,2,1,36.4605871,-5.7266407,calle las Peñas
70000.0,countryHouse,35.0,2,1,36.3357474,-6.1140666,carril de Los Fuguillas
70000.0,flat,85.0,2,1,36.6973521,-5.3865514,calle Doctor Vázquez Gutiérrez
70000.0,flat,76.0,3,1,36.6979804,-6.1388221,Barrio Jerez Oeste
70000.0,flat,76.0,3,1,36.6990774,-6.1394333,"avenida Tomás García Figueras, 26"
70000.0,chalet,150.0,3,2,36.90687,-5.17003,"calle Virgen del Valle, 26"
70000.0,chalet,97.0,3,2,36.1243416,-5.4481693,"calle Carteya, 27"
70000.0,chalet,210.0,3,0,36.4676516,-5.9390812,avenida México
70000.0,chalet,136.0,2,2,36.4607985,-5.7191812,Alcalá de los Gazules
70000.0,chalet,60.0,2,2,36.7470312,-5.8049915,Arcos de la Frontera
70000.0,chalet,80.0,3,2,36.856618,-5.3237259,calle Molino
70000.0,chalet,514.0,15,8,36.4543884,-5.9280948,Medina-Sidonia
70000.0,studio,40.0,0,1,36.6839947,-6.1452962,Barrio Centro
70000.0,flat,50.0,2,1,36.6786034,-5.4485949,Alameda del Cura - Barriada Andalucia
70000.0,flat,87.0,3,1,36.4684499,-5.7207401,"calle Profesor Tierno Galvan, 7"
70000.0,chalet,70.0,2,1,36.6777593,-6.1426983,Barrio Torresoto - Agrimensor
70000.0,flat,63.0,2,1,36.193608,-5.9258921,calle Bahía de Barbate s/n -
70000.0,chalet,242.0,5,2,36.1238291,-5.4554128,Saladillo - La Piñera
70000.0,chalet,100.0,3,1,36.6097098,-5.8128987,"avenida de la Independencia, 120 B"
70000.0,penthouse,85.0,2,1,36.7882576,-5.5577902,"Alta, 19"
70000.0,flat,65.0,2,1,36.6042331,-5.7995211,"callejón de rayito, 6"
70000.0,countryHouse,250.0,3,1,36.433392,-5.4529396,"calle Sevilla, 37"
70000.0,flat,70.0,3,1,36.1227764,-5.4560088,Saladillo - La Piñera
70000.0,duplex,90.0,3,2,36.9348858,-5.2633418,"calle Victoria, 17"
70000.0,chalet,160.0,5,3,36.8153575,-5.7450207,"calle Ramón y Cajal, 1"
70127.0,flat,66.0,3,2,36.1199001,-5.455162,calle Sánchez Mejías
70340.0,chalet,226.0,3,2,36.1216268,-5.4556885,calle Andalucía
70500.0,flat,80.0,4,1,36.6973931,-6.1027809,Barrio Chapín - Campus Universitario - Navinco
70500.0,flat,80.0,4,1,36.6972097,-6.1006947,plaza de Algodonales
70500.0,flat,63.0,3,1,36.6718572,-6.1290702,plaza Maestro Teófilo Azabal
70999.0,flat,70.0,2,1,36.7869314,-5.5578078,"calle Guerrero Sánchez, 8 A"
71000.0,flat,84.0,3,1,36.1638222,-5.3601997,calle Montserrat
71000.0,chalet,60.0,1,1,36.671395,-5.4452963,"barriada el caldereto, 83"
71500.0,studio,68.0,0,1,36.7578162,-5.5038479,"avenida de malaga, 11"
72000.0,chalet,143.0,3,2,36.1130309,-5.465888,carretera al Cobre
72000.0,flat,51.0,2,1,36.6797359,-5.4442272,Centro
72000.0,chalet,95.0,4,1,36.2099568,-5.3961889,San Roque Pueblo
72000.0,flat,50.0,1,1,36.1200537,-5.4526134,"calle San Pablo, 15"
72000.0,flat,80.0,3,2,36.7524259,-5.8225815,Arcos de la Frontera
72000.0,flat,85.0,2,1,36.90353,-5.17117,"calle Ronda, 56"
72000.0,flat,45.0,1,1,36.6836975,-6.1434331,"plaza basurto, 10"
72000.0,flat,40.0,1,1,36.1334974,-5.4557848,La Reconquista - El Ensanche
72000.0,flat,90.0,3,1,36.1158614,-5.4489598,"calle Juan Ramón Jiménez, 8"
72000.0,flat,103.0,3,1,36.7545708,-5.8132843,Arcos de la Frontera
72000.0,flat,90.0,3,1,36.1848347,-5.3839966,"Barriada Cepsa, 10"
72000.0,countryHouse,50.0,1,1,36.9357554,-5.2722362,Olvera
72260.0,flat,69.0,3,1,36.1684097,-5.3442918,San José-San Bernardo
72500.0,chalet,185.0,0,0,36.3429768,-5.319574,"calle Casuarinas, 14"
72999.0,flat,85.0,3,1,36.1290147,-5.4572691,"avenida Agua Marina, 7"
73000.0,flat,77.0,3,1,36.3038239,-5.2896222,San Enrique-Guadiaro-Pueblo Nuevo
73000.0,flat,81.0,3,1,36.1160987,-5.4519107,calle Federico García Lorca
73000.0,flat,89.0,1,3,36.6066017,-6.215161,calle Buganvilla
73000.0,chalet,87.0,6,1,36.4614279,-5.7195058,Alcalá de los Gazules
73000.0,flat,49.0,1,1,36.1303437,-5.4485442,Centro
73000.0,flat,66.0,2,3,36.4602742,-5.7270023,A-2304
73000.0,chalet,200.0,3,2,36.9336727,-5.2621399,Olvera
73000.0,flat,75.0,3,1,36.1275016,-5.4585624,Saladillo - La Piñera
73000.0,chalet,150.0,5,1,36.7899615,-5.558466,Prado del Rey
73500.0,chalet,97.0,3,2,36.7886521,-5.5533811,"calle Televisión Española, 26"
74000.0,chalet,137.0,4,1,36.8530645,-5.636208,Villamartin
74000.0,chalet,126.0,5,2,36.7865996,-5.5575678,calle San Sebastián
74000.0,flat,83.0,2,1,36.1160223,-5.4694291,La Granja - La Colina - Los Pastores
74000.0,flat,85.0,3,2,36.6072888,-6.2128758,Barrio El Juncal - Vallealto
74000.0,flat,83.0,2,1,36.1140949,-5.4684924,La Granja - La Colina - Los Pastores
74000.0,countryHouse,160.0,4,1,36.8140771,-5.7465683,Bornos
74000.0,countryHouse,90.0,2,1,36.2125797,-5.4288211,calle Villa Alta s/n Sn
74000.0,chalet,79.0,4,1,36.1227145,-5.45594,Saladillo - La Piñera
74000.0,flat,83.0,3,1,36.1334921,-5.457703,Puerta Europa-Virgen de la Palma-Estación
74400.0,flat,49.0,2,1,36.7283422,-6.4300042,avenida de la Hispanidad
74900.0,chalet,160.0,3,2,36.9338056,-5.2680738,calle Maestro Amado
74990.0,flat,53.0,2,1,36.7527072,-5.8134775,calle Cucarro
74995.0,chalet,91.0,4,1,36.6025476,-6.2279175,calle Cruces
74999.0,chalet,88.0,3,2,36.934247,-5.2695722,calle Azuaga
75000.0,flat,31.0,1,1,36.1303584,-5.4515423,calle Salamanca
75000.0,flat,78.0,3,2,36.1227057,-5.4476831,"paseo Victoria Eugenia, 4"
75000.0,flat,26.0,1,0,36.252386,-5.9611122,Vejer de la Frontera
75000.0,chalet,113.0,3,2,36.4668265,-5.936878,Medina-Sidonia
75000.0,flat,78.0,3,1,36.1180969,-5.4435724,paseo Victoria Eugenia
75000.0,flat,71.0,1,1,36.6788573,-6.1309798,calle Álamos
75000.0,flat,69.0,3,1,36.6079174,-6.2209953,calle del Bocoy s/n
75000.0,flat,172.0,3,1,36.8561672,-5.3259088,"calle Portezuelo, 40"
75000.0,flat,40.0,1,1,36.1295939,-5.4547354,Puerta Europa-Virgen de la Palma-Estación
75000.0,flat,32.0,1,1,36.1304187,-5.4523728,Puerta Europa-Virgen de la Palma-Estación
75000.0,flat,124.0,3,2,36.9350225,-5.2669969,calle Llana
75000.0,flat,61.0,2,1,36.7580304,-5.5042149,"avenida Juan XXIII, 13"
75000.0,countryHouse,140.0,2,1,36.1562998,-5.4682326,carretera Vieja a los Barrios s/n
75000.0,flat,100.0,3,1,36.1683195,-5.3627356,"calle Virgen Purísima Concepción, 10"
75000.0,chalet,108.0,4,1,36.7456571,-5.8021648,"calle Alanises, 15"
75000.0,chalet,65.0,2,1,36.344289,-5.3229342,calle Transversal Tercera
75000.0,duplex,64.0,3,2,36.7454956,-5.7953853,Arcos de la Frontera
75000.0,chalet,80.0,3,1,36.7476443,-5.8040312,calle Bóvedas s/n
75000.0,flat,91.0,6,2,36.1155933,-5.4473597,Saladillo - La Piñera
75000.0,flat,32.0,1,1,36.1323256,-5.4520943,Centro
75000.0,flat,78.0,4,3,36.1242149,-5.4488654,paseo Victoria Eugenia
75000.0,flat,120.0,3,2,36.9214598,-5.5463015,"avenida Cádiz, 71"
75000.0,flat,87.0,3,2,36.7510577,-5.822734,"calle Tango, 5"
75000.0,flat,70.0,2,1,36.7862468,-5.5603064,calle Picasso s/n
75000.0,chalet,78.0,2,1,36.9339749,-5.2632059,"calle Portugal, 1"
75000.0,chalet,112.0,4,2,36.6739708,-5.4444796,Casco antiguo - Convento - Caldereto
75000.0,chalet,158.0,3,2,36.920898,-5.5397587,Puerto Serrano
75000.0,chalet,90.0,2,1,36.3453359,-5.8118199,calle Alta
75000.0,chalet,145.0,3,2,36.6559781,-5.6575457,Algar
75000.0,flat,92.0,3,1,36.8808405,-5.4038923,Algodonales
75000.0,flat,63.0,3,1,36.7895661,-6.3417654,camino de la Alberca
75000.0,chalet,97.0,3,2,36.3441104,-5.8092021,calle Málaga
75000.0,flat,101.0,3,2,36.5218406,-6.227244,calle República del Salvador
75000.0,flat,101.0,3,2,36.5246506,-6.2259366,calle República del Salvador
75000.0,flat,60.0,2,1,36.9346471,-5.2591852,"Grupo Constitución, 3"
75000.0,chalet,180.0,3,2,36.7491355,-5.80431,"puerta Carmona, 5"
75000.0,countryHouse,42.0,2,1,36.7431,-5.77831,"Diseminado Ds, 11"
75000.0,flat,92.0,3,1,36.8805775,-5.4062719,Algodonales
75000.0,chalet,80.0,1,1,36.1321414,-5.4535869,Puerta Europa-Virgen de la Palma-Estación
75000.0,flat,83.0,2,1,36.1654943,-5.3593277,Mondejar-Junquillos
75000.0,chalet,153.0,3,1,36.9250773,-5.5447586,"calle Magdalena, 87"
75000.0,penthouse,55.0,2,1,36.4236209,-5.4352041,"calle Algeciras, 22"
75000.0,chalet,112.0,1,1,36.8831437,-5.4043901,Algodonales
75000.0,flat,57.0,2,1,36.7625515,-5.5021597,El Bosque
75000.0,chalet,105.0,2,1,36.9208374,-5.5413154,"calle Ebro, 14"
75000.0,flat,105.0,3,2,36.7518607,-5.8102742,Arcos de la Frontera
75000.0,chalet,65.0,3,1,36.6701462,-5.4491132,El Jardín - Antonio Vega
75000.0,flat,92.0,3,1,36.7535131,-5.8107216,Arcos de la Frontera
75000.0,flat,83.0,2,1,36.16748,-5.3610661,Mondejar-Junquillos
75000.0,chalet,80.0,3,1,36.8134817,-5.7426636,calle Cuevas
75000.0,flat,75.0,3,1,36.7734644,-6.3501065,Ayuntamiento-Barrio Alto
75000.0,penthouse,150.0,3,1,36.8197619,-5.7437376,"calle damasco, 2"
75000.0,flat,70.0,3,1,36.6691505,-6.1306145,Barrio San Telmo - Federico Mayo - El Porta
75000.0,chalet,195.0,5,2,36.858727,-5.6434133,"virgen de los reyes, 22"
75000.0,chalet,116.0,2,0,36.3612322,-6.1489937,Las Lagunas - Campano
75000.0,flat,70.0,2,1,36.7854287,-5.5605717,"calle Clara Campoamor, 1"
75000.0,flat,65.0,1,1,36.1841881,-5.4900923,"avenida Alcalde Don Juan Rodríguez, 2"
75400.0,chalet,76.0,3,2,36.5212112,-6.2277375,calle Tambucho
75900.0,chalet,89.0,3,1,36.8604819,-5.1810518,calle Cantareria Alta
75900.0,flat,70.0,2,1,36.6714038,-6.1283252,Barrio San Telmo - Federico Mayo - El Porta
76000.0,flat,161.0,3,1,36.8581063,-5.644112,calle Federico García Lorca
76000.0,chalet,131.0,4,2,36.1221382,-5.4598673,calle Andalucía
76000.0,flat,60.0,3,1,36.1367124,-5.449773,plaza Omeyas s/n
76000.0,flat,161.0,4,2,36.8577284,-5.6440989,Villamartin
76050.0,flat,75.0,3,1,36.1688893,-5.3473589,San José-San Bernardo
76200.0,chalet,107.0,4,2,36.6733336,-6.1441366,calle Santa Elena
76200.0,chalet,107.0,4,2,36.6732106,-6.1435047,calle Santa Elena
76200.0,chalet,106.0,4,2,36.6740017,-6.1414597,Barrio Puertas del sur - Guadabajaque
76500.0,flat,90.0,3,1,36.7884548,-5.5568458,calle Doctor Martín Aguilar
76500.0,chalet,129.0,3,1,36.8615828,-5.1793884,calle San Benito
76500.0,chalet,180.0,5,2,36.9055622,-5.1725345,"Pozo, 6"
76600.0,flat,44.0,1,1,36.1208821,-5.4510095,Saladillo - La Piñera
76785.0,flat,77.0,3,2,36.6780393,-6.1345586,"calle Galván, 2 -12"
77000.0,flat,65.0,2,1,36.6717138,-6.126694,Barrio San Telmo - Federico Mayo - El Porta
77000.0,flat,63.0,1,1,36.6879827,-6.098861,calle Pinsapo
77000.0,flat,70.0,2,1,36.6716841,-6.1282457,plaza la Fragua
77000.0,flat,44.0,1,1,36.688387,-6.0998106,calle Lago de Enol
77000.0,flat,41.0,2,1,36.5093249,-6.2792828,calle Matrona Modesta Calvo
77000.0,flat,89.0,3,2,36.4620231,-5.7292875,calle San Antonio
77000.0,flat,89.0,3,2,36.4608564,-5.7286594,calle San Antonio
77000.0,flat,41.0,2,1,36.5086034,-6.2767413,calle Matrona Modesta Calvo
77000.0,chalet,113.0,1,0,36.7580985,-5.3677853,Grazalema
77000.0,chalet,126.0,4,2,36.7859646,-5.5583733,Prado del Rey
77200.0,chalet,107.0,3,1,36.3478124,-5.8087355,calle Almendro s/n
77500.0,flat,80.0,4,1,36.1914719,-5.9245917,Barriada San Jose
77500.0,flat,80.0,4,3,36.1928421,-5.9252398,calle Vejer
77900.0,chalet,125.0,4,2,36.8628624,-5.1764923,"calle Cerrillo, 58"
78000.0,studio,42.0,0,0,36.5299825,-6.3004331,La Caleta - La Viña
78000.0,studio,27.0,0,1,36.2759007,-6.091069,Conil
78000.0,flat,42.0,1,1,36.5287648,-6.3007028,La Caleta - La Viña
78000.0,flat,92.0,3,1,36.7527745,-5.8097191,calle Algodonales s/n
78000.0,flat,42.0,1,1,36.5281193,-6.298405,La Caleta - La Viña
78000.0,flat,63.0,2,1,36.6877023,-6.1141662,plaza Fernando Fernández Pantoja
78000.0,flat,101.0,1,1,36.5233547,-5.8636717,calle Esparrago
78000.0,flat,55.0,1,1,36.1930323,-5.9133206,Barbate
78000.0,studio,43.0,0,1,36.528767,-6.3008449,La Caleta - La Viña
78000.0,chalet,178.0,1,0,36.6080985,-5.8027203,San José del Valle
78000.0,chalet,120.0,4,0,36.7588205,-5.37091,calle Pie de Palo
78000.0,chalet,213.0,4,1,36.6802432,-5.4432715,Casco antiguo - Convento - Caldereto
78000.0,flat,48.0,1,1,36.5279277,-6.296852,calle Obispo Urquinaona
78000.0,flat,95.0,3,2,36.1663077,-5.3625027,Mondejar-Junquillos
78000.0,flat,42.0,1,1,36.5310605,-6.2986785,La Caleta - La Viña
78000.0,chalet,74.0,3,2,36.6792343,-5.4412067,Casco antiguo - Convento - Caldereto
78000.0,chalet,90.0,3,1,36.9248393,-5.2373374,CA-9106 s/n
78000.0,flat,95.0,3,2,36.1656772,-5.3623336,Mondejar-Junquillos
78000.0,flat,75.0,3,2,36.4164465,-6.1315409,La Banda - Campo de Fútbol
78000.0,flat,75.0,3,1,36.67779,-5.4449,"calle José Corrales Jordán, 8"
78300.0,chalet,320.0,4,1,36.91646,-5.23226,"avenida de Andalucia, 48"
78400.0,chalet,157.0,3,1,36.9169588,-5.2337025,avenida de Andalucia s/n
78500.0,flat,56.0,2,1,36.414359,-6.1409234,calle Atlántida
78900.0,flat,151.0,3,2,36.1196632,-5.4480285,calle José de Espronceda
79000.0,chalet,112.0,3,2,36.9228634,-5.5417757,calle Hernán Cortés
79000.0,flat,70.0,2,2,36.812489,-5.7449665,calle Cuevas
79000.0,chalet,110.0,3,1,36.6568407,-5.4553359,Zona P.Parcial 2 Coto Mulera
79000.0,flat,183.0,1,1,36.120254,-5.4493088,"calle Ben Mosdai, 42"
79000.0,penthouse,75.0,1,1,36.747711,-5.8040526,"calle Bóvedas, 7"
79000.0,chalet,78.0,3,1,36.9157785,-5.2316345,Urbanizacion la Viñilla
79000.0,flat,128.0,3,2,36.85613,-5.63777,"calle Azahar, 1"
79000.0,chalet,196.0,3,2,36.427168,-6.1356354,La Banda - Campo de Fútbol
79000.0,chalet,94.0,1,1,36.7860825,-6.3395422,Bonanza-Avda de Huelva-Bº Andalucia
79000.0,duplex,90.0,3,2,36.8575129,-5.6347396,"calle granja san juan, 43"
79000.0,flat,160.0,4,2,36.8587938,-5.638956,"calle Rosario, 9"
79000.0,chalet,100.0,2,2,36.8218937,-5.7431571,"avenida de la Constitución, 41"
79000.0,flat,96.0,3,1,36.9340979,-5.266245,Bajada de Acinipo s/n
79500.0,chalet,86.0,3,1,36.7885891,-5.5538323,"calle Televisión Española, 16"
79500.0,flat,88.0,3,2,36.6034087,-5.8004648,"calle Alcalde Joaquin Pazos Canto, 4"
79600.0,flat,119.0,7,1,36.4588508,-5.7232226,Alcalá de los Gazules
79600.0,flat,119.0,4,2,36.4624968,-5.723017,Alcalá de los Gazules
79700.0,chalet,83.0,3,2,36.6191907,-5.9711365,calle Guadalete s/n
79800.0,chalet,145.0,4,2,36.6568102,-5.6551377,Algar
79800.0,chalet,130.0,4,2,36.65541,-5.65689,"calle San José, 1"
79900.0,flat,83.0,3,2,36.7515178,-5.8235987,calle Bulería
79900.0,flat,92.0,2,1,36.4604004,-5.7271243,calle Paterna de Rivera s/n
79900.0,flat,35.0,1,1,36.7373373,-6.4373929,calle Larga
79900.0,flat,40.0,1,1,36.4183271,-6.140125,"callejón Legio, 8"
79900.0,flat,113.0,3,1,36.9343659,-5.2530668,"calle Alcalá del Valle, 2"
79900.0,flat,55.0,2,1,36.7898799,-6.3348655,Bonanza-Avda de Huelva-Bº Andalucia
79900.0,flat,55.0,1,1,36.6851504,-6.1324909,"plaza Quemada, 8"
79900.0,flat,86.0,4,2,36.7731889,-6.3479579,Ayuntamiento-Barrio Alto
79920.0,chalet,129.0,1,1,36.6254647,-6.2186628,calle Rompeserones
79950.0,chalet,120.0,3,2,36.9355731,-5.2680844,calle San Ildefonso
80000.0,chalet,169.0,5,2,36.1181259,-5.4465391,calle Nao Victoria
80000.0,chalet,125.0,4,2,36.1124157,-5.4564069,calle los Metalúrgicos
80000.0,chalet,61.0,3,1,36.6708351,-6.13233,Barrio San Telmo - Federico Mayo - El Porta
80000.0,chalet,182.0,3,1,36.4559803,-5.9282057,Medina-Sidonia
80000.0,flat,60.0,1,1,36.5281193,-6.1883864,Centro
80000.0,flat,40.0,1,1,36.2524197,-5.9626698,Vejer de la Frontera
80000.0,chalet,61.0,3,1,36.6738152,-6.1346869,calle Diego Fuentes
80000.0,flat,64.0,3,1,36.5921651,-6.2382746,calle Federico Chueca s/n
80000.0,chalet,87.0,3,1,36.4157579,-6.1321835,calle Felipe III
80000.0,chalet,171.0,3,2,36.6429427,-5.9902765,calle Poniente
80000.0,chalet,127.0,3,0,36.6112024,-6.2294402,Barrio Carretera de Sanlúcar-Sudamérica
80000.0,studio,120.0,0,2,36.1861603,-5.4913525,calle Pósito
80000.0,chalet,61.0,3,1,36.6728668,-6.1317731,Barrio San Telmo - Federico Mayo - El Porta
80000.0,studio,30.0,0,1,36.6095745,-6.223595,calle Sagitario s/n
80000.0,flat,112.0,3,1,36.4549764,-5.9290656,calle Álvaro Garrido
80000.0,flat,64.0,2,1,36.6072552,-5.8035706,calle Alcalde Arturo Mariscal
80000.0,flat,76.0,3,1,36.5935039,-6.237428,Barrio Crevillet
80000.0,flat,71.0,2,1,36.7555246,-5.5074413,avenida Juan XXIII
80000.0,chalet,116.0,3,1,36.4654149,-5.4111725,calle cañada real s/n
80000.0,chalet,247.0,4,1,36.8551419,-5.6383273,calle Virgen de las Montañas
80000.0,flat,52.0,1,1,36.4600973,-5.933961,calle Torreón
80000.0,flat,92.0,3,2,36.8561162,-5.6407979,Villamartin
80000.0,chalet,35.0,1,1,36.1744871,-5.3376786,"calle Canarias, 15 -5"
80000.0,chalet,125.0,4,2,36.1143482,-5.4577567,calle los Metalúrgicos
80000.0,countryHouse,40.0,1,1,36.4505973,-6.1216162,Pinar de los Franceses - Marquesado
80000.0,chalet,90.0,3,1,36.7846131,-5.5596168,"calle Hortales, 12"
80000.0,countryHouse,60.0,2,2,36.6970623,-5.3842253,"calle Sevadilla, 16"
80000.0,flat,75.0,3,1,36.6760293,-5.4440233,Centro
80000.0,chalet,82.0,3,1,36.7893256,-5.5537515,"calle Antonio Machado, 11"
80000.0,chalet,107.0,2,2,36.4697232,-6.2100484,"avenida Caño Herrera, 16 Bungalow"
80000.0,chalet,90.0,3,1,36.8574482,-5.6424196,Villamartin
80000.0,chalet,90.0,4,2,36.6579529,-5.6556247,"calle Real, 79"
80000.0,chalet,120.0,0,0,36.8715153,-6.1776424,"calle San Sebastián, 23"
80000.0,flat,181.0,4,2,36.1278857,-5.4448554,"calle Teniente Riera, 5"
80000.0,flat,80.0,3,1,36.1196656,-5.4548389,Saladillo - La Piñera
80000.0,flat,80.0,3,1,36.1200388,-5.456197,"calle Granero, 4"
80000.0,flat,95.0,3,1,36.116297,-5.446375,Saladillo - La Piñera
80000.0,countryHouse,130.0,1,1,36.8715153,-6.1776424,"calle San Sebastián, 23"
80000.0,countryHouse,140.0,1,1,36.6960952,-5.3863732,"calle Doctor Vázquez Gutiérrez, 18"
80000.0,countryHouse,131.0,3,1,36.934201,-5.2599654,"calle Albéniz, 7"
80000.0,flat,90.0,3,1,36.7410415,-5.7967201,"calle Extramuros Alfonso X el Sabio, 12"
80000.0,chalet,140.0,3,2,36.4208803,-6.1329004,"callejón de los Frailes, 8"
80000.0,flat,100.0,2,1,36.3449464,-5.8161189,"calle Malvasía, 29"
80400.0,chalet,85.0,2,1,36.1871332,-5.4892684,Los Barrios
80500.0,flat,85.0,2,1,36.4601712,-5.7291008,"calle Río rocinejo, 6"
80630.0,studio,48.0,0,1,36.7223115,-6.4373486,La Laguna
81000.0,chalet,129.0,3,1,36.113259,-5.463498,carretera al Cobre
81000.0,flat,76.0,2,1,36.6695927,-6.1266406,plaza Teresa de Jesús
81000.0,chalet,186.0,3,2,36.1707999,-5.3426948,calle Guadiaro s/n
81000.0,flat,143.0,4,3,36.2121055,-5.4337497,calle Molino
81000.0,studio,80.0,0,0,36.1319593,-5.4551585,Puerta Europa-Virgen de la Palma-Estación
81000.0,flat,77.0,3,1,36.6681486,-6.1250881,plaza Teresa de Jesús
81000.0,flat,77.0,3,2,36.6133579,-6.2302088,calle de Monterrey
81000.0,chalet,96.0,3,1,36.6772509,-5.4431903,"calle Consistorio, 5"
81000.0,flat,56.0,1,1,36.5309234,-6.2954607,calle Obispo Urquinaona
81000.0,flat,70.0,3,1,36.6128921,-6.2309174,Barrio Carretera de Sanlúcar-Sudamérica
81000.0,flat,56.0,1,1,36.5282183,-6.2962427,calle Obispo Urquinaona
81400.0,chalet,158.0,3,3,36.463521,-5.7162202,calle Ejido
82000.0,studio,350.0,0,1,36.4142003,-6.1444038,"cuesta del Matadero, 64"
82000.0,chalet,117.0,4,2,36.8216864,-5.7435797,calle del Cine
82000.0,chalet,117.0,4,2,36.8194401,-5.7419447,calle del Cine
82000.0,chalet,100.0,1,1,36.4584163,-5.9295666,calle Porvenir
82000.0,chalet,100.0,1,1,36.4583877,-5.9313988,Medina-Sidonia
82000.0,flat,80.0,3,2,36.458634,-5.925938,Medina-Sidonia
82000.0,chalet,138.0,3,1,36.696815,-5.3872652,"calle Nuestra Señora del Rosario, 40"
82000.0,flat,60.0,2,1,36.1839364,-5.4157594,"calle Real, 14"
82260.0,flat,110.0,3,2,36.1199257,-5.4498586,Saladillo - La Piñera
82500.0,flat,55.0,1,1,36.6792872,-5.4434815,Centro
82900.0,flat,77.0,3,1,36.7753918,-6.3472789,calle Gavilán
83000.0,chalet,100.0,2,1,36.1320597,-5.4576963,calle Albacete
83000.0,chalet,150.0,3,2,36.4200223,-6.1386688,La Banda - Campo de Fútbol
83000.0,countryHouse,250.0,3,2,36.9251537,-5.5426087,Puerto Serrano
83000.0,chalet,133.0,6,1,36.6763485,-6.1447516,Barrio Torresoto - Agrimensor
83000.0,studio,42.0,0,1,36.6770842,-6.1372012,Barrio Torresoto - Agrimensor
83000.0,chalet,106.0,3,2,36.3431627,-5.3175105,"calle Larga, 82"
83400.0,chalet,134.0,1,1,36.1503908,-5.459173,calle Lirio
83500.0,chalet,130.0,4,2,36.8576212,-5.3231063,calle Corrales
83500.0,flat,80.0,3,1,36.1222394,-5.4566448,Saladillo - La Piñera
83700.0,flat,84.0,3,1,36.1335026,-5.4565469,Urbanización Torre Almirante
83900.0,flat,78.0,3,1,36.6926163,-6.1462135,Barrio Santiago - Coronación
84000.0,flat,97.0,1,1,36.468445,-6.2074418,León Herrero - Bahía sur
84000.0,studio,145.0,0,0,36.4197328,-6.1400307,calle el Paje
84000.0,chalet,75.0,2,2,36.6943481,-5.3859016,"Rafael Garcia Garcia, 13"
84000.0,flat,75.0,3,2,36.4689702,-5.9441378,"calle Melilla, 7"
84000.0,flat,83.0,3,1,36.657654,-5.6572774,"Doctor Perez Fabra, 9"
84000.0,chalet,65.0,2,1,36.1327593,-5.4544432,"calle Soria, 2"
84000.0,flat,82.0,3,1,36.1699947,-5.343927,"glorieta Rosales, 1"
84000.0,flat,100.0,3,2,36.1267374,-5.447621,"calle regidor bustamante, 2"
84290.0,flat,75.0,2,1,36.6008182,-6.2321541,calle Santa Fe
84500.0,studio,25.0,0,1,36.7802389,-6.3578838,Centro-Calzada-Cabo Noval
84900.0,chalet,91.0,2,1,36.1837685,-5.4947496,Los Barrios
85000.0,flat,75.0,3,1,36.1226607,-5.453805,Saladillo - La Piñera
85000.0,chalet,132.0,4,2,36.8632641,-5.1779205,Setenil de las Bodegas
85000.0,chalet,80.0,4,1,36.1168185,-5.4457612,Saladillo - La Piñera
85000.0,chalet,140.0,5,2,36.8734977,-5.8050241,Espera
85000.0,flat,62.0,2,1,36.4204807,-6.1425553,calle San Diego
85000.0,flat,74.0,1,1,36.1841051,-5.4954034,Los Barrios
85000.0,flat,65.0,2,1,36.6757947,-6.1305764,"calle Vista Alegre, 13"
85000.0,flat,88.0,3,1,36.4268012,-6.1471469,Barriada C.R.Huerta las Bolas
85000.0,flat,99.0,3,2,36.4558774,-6.2045807,calle Terán
85000.0,chalet,100.0,3,1,36.747729,-5.8054115,"calle Olivares Veas, 5"
85000.0,flat,129.0,3,1,36.7591469,-5.3677117,"calle Empedrada, 54"
85000.0,flat,110.0,4,2,36.4623688,-5.7262913,San Antonio
85000.0,chalet,80.0,2,2,36.7878362,-5.5524474,calle Almajar
85000.0,flat,75.0,3,1,36.121929,-5.4517593,Saladillo - La Piñera
85000.0,flat,70.0,3,1,36.529494,-6.190605,Centro
85000.0,flat,42.0,1,1,36.6762097,-5.4450511,Casco antiguo - Convento - Caldereto
85000.0,flat,54.0,2,1,36.4210315,-6.1425874,calle San Diego
85000.0,chalet,161.0,4,1,36.3440706,-5.8110937,calle Nueva
85000.0,flat,63.0,2,1,36.4768418,-6.1879256,La Pastora - La Estación
85000.0,chalet,350.0,7,1,36.9327311,-5.2538203,Olvera
85000.0,flat,78.0,3,1,36.772552,-6.3489454,Ayuntamiento-Barrio Alto
85000.0,chalet,55.0,1,1,36.6976884,-5.3853714,Villaluenga del Rosario
85000.0,chalet,119.0,2,1,36.8572304,-5.6417069,Villamartin
85000.0,flat,82.0,3,1,36.4617804,-5.7296011,Alcalá de los Gazules
85000.0,countryHouse,55.0,1,1,36.696506,-5.387148,"calle Real, 26"
85000.0,flat,90.0,3,2,36.9331135,-5.2534077,"calle Alcalá del Valle, 28 Numerosegundoc"
85000.0,chalet,112.0,0,0,36.6030704,-6.2280365,"calle Espelete, 19"
85000.0,flat,57.0,2,1,36.7560253,-5.505361,El Bosque
85000.0,countryHouse,60.0,3,2,36.754208,-6.0738245,carretera del aeropuerto s/n
85000.0,countryHouse,180.0,3,2,36.9052298,-5.1708676,"calle Cristo Misericordia B, 33"
85000.0,chalet,389.0,2,1,36.6780561,-5.4419252,Casco antiguo - Convento - Caldereto
85000.0,chalet,60.0,2,1,36.4546131,-6.2015461,El Carmen
85000.0,flat,94.0,3,2,36.9352388,-5.2599555,"Albeniz, 1"
85000.0,chalet,73.0,2,1,36.861973,-5.177868,Setenil de las Bodegas
85000.0,flat,85.0,3,1,36.1712441,-5.3484657,San Pedro-Gabriel Miró-María Guerrero
85000.0,flat,70.0,3,1,36.6769509,-5.4458492,Centro
85000.0,chalet,391.0,4,4,36.9188864,-5.5389074,"calle Madroño, 28"
85000.0,flat,188.0,2,1,36.8716783,-6.1777255,"calle San Sebastián, 25"
85000.0,countryHouse,300.0,10,2,36.9162597,-5.2349081,"vereda Ancha, 1"
85000.0,chalet,85.0,2,2,36.70218,-5.4214297,"calle Quejiguillo, 3"
85000.0,flat,98.0,3,1,36.7868203,-5.5536241,"calle Pajarete, 12"
85000.0,countryHouse,50.0,1,1,36.6241004,-6.0726596,Rancho La Zarandilla. Las Pachecas. s/n
85000.0,countryHouse,180.0,5,1,36.8585969,-5.6446552,"calle Barcelona, 21"
85000.0,countryHouse,50.0,1,1,36.623616,-6.0723251,Rancho La Zarandilla. Las Pachecas s/n
85000.0,countryHouse,100.0,3,2,36.86322,-5.18158,"calle San Benito, 24"
85000.0,chalet,100.0,1,1,36.78585,-5.55743,"calle Ramón Y Cajal, 14"
85000.0,countryHouse,200.0,5,3,36.4617171,-5.7231645,"calle Real, 23"
85000.0,flat,88.0,3,1,36.1827878,-5.351946,"carretera del Zabal, 5"
85000.0,chalet,270.0,3,1,36.4367395,-5.4548391,"calle Sevilla, 128"
85000.0,countryHouse,270.0,3,1,36.4365866,-5.4547149,"calle Sevilla, 122"
85000.0,flat,60.0,2,1,36.7580304,-5.5042149,"avenida Juan XXIII, 13"
85000.0,countryHouse,80.0,2,2,36.935141,-5.268464,"calle manco, 24"
85000.0,chalet,50.0,2,1,36.4206618,-6.1400559,"calle Murcia, 3"
85000.0,flat,80.0,3,1,36.8605997,-5.1762617,"calle Callejón, 45"
85400.0,flat,74.0,1,1,36.1552092,-5.4526287,camino de la Ermita
85499.0,studio,95.0,0,1,36.6781717,-6.1362447,"calle zarza, 20"
85500.0,flat,37.0,1,1,36.6034842,-6.2312236,"glorieta Juan de Austria, 6"
85500.0,flat,29.0,1,1,36.6034842,-6.2312236,"glorieta Juan de Austria, 6"
85500.0,flat,38.0,1,1,36.6034842,-6.2312236,"glorieta Juan de Austria, 6"
85500.0,flat,33.0,1,1,36.6034842,-6.2312236,"glorieta Juan de Austria, 6"
85500.0,flat,34.0,1,1,36.6034842,-6.2312236,"glorieta Juan de Austria, 6"
85500.0,flat,37.0,1,1,36.6034842,-6.2312236,"glorieta Juan de Austria, 6"
85800.0,flat,134.0,3,2,36.7907032,-5.5544829,calle Bellavista
85900.0,flat,52.0,2,1,36.7702855,-6.3460807,Ctra Jerez-Ctra del Puerto
85900.0,flat,75.0,3,1,36.6110951,-6.2307268,calle México s/n
85900.0,flat,52.0,2,1,36.7695842,-6.3477064,Ctra Jerez-Ctra del Puerto
85900.0,flat,52.0,2,1,36.7688969,-6.3481446,Ctra Jerez-Ctra del Puerto
85900.0,flat,52.0,2,1,36.767057,-6.3461137,Ctra Jerez-Ctra del Puerto
85900.0,flat,52.0,2,1,36.7751065,-6.340509,Monteolivete-Camino Sevilla
86000.0,chalet,98.0,3,1,36.6799297,-6.1492831,calle Inmaculada
86000.0,chalet,128.0,4,2,36.6730208,-6.1345901,Barrio San Telmo - Federico Mayo - El Porta
86000.0,chalet,120.0,3,2,36.8557529,-5.3228449,calle Ceniceros
86000.0,chalet,128.0,4,2,36.6757947,-6.1341899,Barrio San Telmo - Federico Mayo - El Porta
86000.0,flat,55.0,1,1,36.7725508,-6.3528791,calle Castañeda
86000.0,chalet,161.0,3,2,36.8555642,-5.6436379,Villamartin
86000.0,flat,78.0,2,1,36.4714363,-6.2068717,"paseo virgen del rocío, 4"
86050.0,flat,50.0,2,1,36.1692219,-5.3456795,San José-San Bernardo
87000.0,flat,88.0,2,1,36.4651085,-5.933483,Medina-Sidonia
87000.0,flat,111.0,4,3,36.6113937,-6.2089491,calle Río Tajo
87000.0,flat,79.0,2,1,36.6592361,-5.4505134,avenida cardela s/n urbcorazondeubrique
87000.0,flat,120.0,4,1,36.4663686,-5.4117194,"calle sol, 41"
87000.0,flat,95.0,2,1,36.4617479,-5.7245344,"calle Galán Caballero, 6"
87000.0,studio,45.0,0,0,36.7328884,-6.4341502,Centro
87400.0,flat,74.0,2,1,36.6012539,-6.2316669,calle Santa Fe
87500.0,flat,80.0,3,1,36.172417,-5.3503881,calle Prim
87500.0,chalet,80.0,2,1,36.1331607,-5.4557641,"calle Córdoba, 45"
87500.0,chalet,124.0,4,1,36.8666496,-5.6465506,calle la Palma
87500.0,chalet,75.0,3,1,36.1306801,-5.4511507,Centro
87500.0,chalet,153.0,3,1,36.1276717,-5.4496043,Centro
87999.0,flat,156.0,3,2,36.78669,-5.55959,"calle Ventilla, 30"
88000.0,flat,35.0,1,1,36.2543352,-5.962877,Vejer de la Frontera
88000.0,countryHouse,40.0,1,1,36.2520794,-5.9631162,Vejer de la Frontera
88000.0,flat,104.0,2,2,36.1727812,-5.3518852,calle Alcázar
88000.0,flat,69.0,3,1,36.6918966,-6.1485916,Barrio Santiago - Coronación
88000.0,chalet,126.0,3,2,36.6102671,-5.9432701,calle Blanco
88000.0,chalet,147.0,3,2,36.8414916,-5.6350169,Vía
88000.0,chalet,126.0,3,2,36.6089174,-5.9404586,calle Blanco
88000.0,flat,95.0,3,2,36.1710666,-5.3499654,San Pedro-Gabriel Miró-María Guerrero
88000.0,flat,61.0,2,1,36.1654377,-5.3510132,calle de las Flores
88000.0,flat,80.0,2,1,36.6863123,-6.1256635,88000
88000.0,chalet,240.0,5,3,36.4115322,-6.1344216,"calle José María Gironella, 5"
88500.0,chalet,60.0,2,2,36.9350508,-5.2669558,Olvera
88500.0,flat,120.0,3,2,36.1301655,-5.4452551,"avenida Virgen del Carmen, 19"
88888.0,countryHouse,120.0,1,1,36.7591046,-5.3711851,"calle de las piedras, 42"
88900.0,countryHouse,90.0,2,1,36.7202389,-6.0866353,Barrio Avda. Caballero Bonald - San José Obrero - Guadalcacín
88990.0,flat,65.0,3,1,36.7699887,-6.3476009,Ctra Jerez-Ctra del Puerto
89000.0,flat,80.0,3,2,36.4191707,-6.1468445,Núcleo Urbano
89000.0,flat,50.0,2,1,36.2518157,-5.9681829,Vejer de la Frontera
89000.0,flat,93.0,4,2,36.4628647,-5.7277419,Alcalá de los Gazules
89000.0,chalet,55.0,2,1,36.1717666,-5.3527054,San Pedro-Gabriel Miró-María Guerrero
89000.0,flat,95.0,3,1,36.6784055,-5.4467543,Centro
89000.0,chalet,81.0,2,3,36.9334201,-5.2716821,calle Socorro
89000.0,flat,81.0,3,1,36.9344799,-5.2529785,avenida Julián Besteiro s/n
89000.0,chalet,94.0,2,1,36.3437124,-5.8063897,calle Clavel
89000.0,chalet,151.0,2,2,36.6430218,-5.9907547,calle Poniente
89000.0,flat,93.0,4,4,36.461113,-5.7271505,calle San Antonio
89000.0,chalet,130.0,5,2,36.8490226,-5.7194522,"La Niña, 5"
89000.0,flat,88.0,3,1,36.1803873,-5.3829546,"avenida de las Caracolas, 1"
89000.0,chalet,151.0,2,2,36.6427689,-5.9893786,Pedanías este
89000.0,flat,80.0,3,1,36.1695585,-5.3491437,San José-San Bernardo
89000.0,chalet,77.0,3,2,36.6864197,-6.1320096,Barrio Barriada España - San Pedro
89000.0,chalet,90.0,3,2,36.6544331,-5.6559698,"calle Jesus Maeso, 18"
89000.0,flat,90.0,3,2,36.7868025,-5.5593076,"calle alta, 37"
89000.0,chalet,120.0,4,1,36.7867799,-5.5578498,"guerrero sanchez, 14"
89000.0,flat,78.0,2,1,36.7900593,-5.5572123,"calle Teniente Trujillo, 64  A, puerta 4"
89500.0,flat,27.0,1,1,36.6178077,-6.3572521,Centro - La Costilla
89500.0,flat,125.0,3,2,36.9343049,-5.2532211,"avenida Julián Besteiro, 41"
89550.0,chalet,344.0,4,1,36.8713183,-5.8088293,calle Alcalde Antonio Mancheño
89900.0,chalet,83.0,3,1,36.6808208,-6.1506077,Barrio Picadueñas
89900.0,flat,110.0,3,2,36.8613488,-5.6428256,"avenida de la Feria, 6"
89900.0,chalet,85.0,3,1,36.6825017,-6.152035,Barrio Picadueñas
89900.0,flat,44.0,1,1,36.4747735,-6.1895446,La Pastora - La Estación
89900.0,chalet,84.0,3,1,36.6819693,-6.1510908,Barrio Picadueñas
89900.0,flat,75.0,2,1,36.9322262,-5.2507005,"vereda del Pino, 17"
90000.0,flat,242.0,2,1,36.1246152,-5.4576038,calle Andalucía
90000.0,flat,39.0,1,1,36.4171552,-6.1437172,Núcleo Urbano
90000.0,flat,80.0,3,1,36.6979474,-6.1426115,Barrio Jerez Oeste
90000.0,flat,123.0,2,1,36.4571874,-5.9260425,Medina-Sidonia
90000.0,flat,92.0,3,2,36.6055473,-5.8016966,San José del Valle
90000.0,chalet,83.0,3,1,36.6810637,-6.1521819,calle Teodoro Molina
90000.0,countryHouse,55.0,2,1,36.4369198,-6.0212201,Medina-Sidonia
90000.0,chalet,83.0,3,1,36.6818613,-6.1491775,Barrio Picadueñas
90000.0,chalet,110.0,3,1,36.6804734,-6.1505152,Barrio Picadueñas
90000.0,flat,74.0,2,1,36.7621148,-5.5011911,camino de Pescadores
90000.0,studio,39.0,0,1,36.417002,-6.1429545,Núcleo Urbano
90000.0,flat,131.0,4,1,36.9330345,-5.2510802,calle Perú
90000.0,chalet,100.0,3,1,36.6814425,-6.1499226,Barrio Picadueñas
90000.0,chalet,153.0,2,2,36.4682892,-6.2037595,calle Olmo
90000.0,chalet,90.0,2,1,36.6102863,-5.8028431,San José del Valle
90000.0,flat,90.0,3,1,36.6098433,-5.7998913,San José del Valle
90000.0,flat,90.0,3,2,36.6575269,-5.450916,La Vega
90000.0,chalet,83.0,3,1,36.6831673,-6.1520937,Barrio Picadueñas
90000.0,flat,65.0,3,1,36.4728909,-6.2009696,El Cristo - Cayetano Roldán
90000.0,flat,91.0,2,1,36.811725,-5.747124,calle Calvario
90000.0,chalet,110.0,2,1,36.7468693,-5.8044841,Arcos de la Frontera
90000.0,chalet,225.0,4,3,36.6908867,-6.1036362,Barrio El Rocío - La Milagrosa
90000.0,flat,124.0,3,2,36.78719,-5.55364,"calle pajarete, 16"
90000.0,chalet,100.0,2,2,36.470335,-6.2094308,"paseo de la Fuente, 1943"
90000.0,chalet,80.0,2,1,36.7566312,-5.5070712,El Bosque
90000.0,chalet,90.0,3,2,36.4429717,-6.1256488,"camino del Zújar, 5"
90000.0,flat,97.0,2,1,36.8126131,-5.7484162,Bornos
90000.0,flat,185.0,7,1,36.1300559,-5.4465136,calle Juan Morrison
90000.0,flat,91.0,3,4,36.4643045,-5.7194044,Alcalá de los Gazules
90000.0,flat,50.0,1,1,36.7900593,-5.5572123,"calle Teniente Trujillo, 64"
90000.0,duplex,110.0,3,2,36.7850899,-5.55513,"calle Cristobal Becerra, 32"
90000.0,flat,75.0,3,1,36.7740143,-6.3536398,"Barrio Alto, 3"
90000.0,flat,85.0,2,1,36.6586188,-5.451304,La Vega
90000.0,countryHouse,40.0,1,1,36.713967,-6.417687,Costa Ballena - Las Tres Piedras
90000.0,chalet,115.0,3,1,36.8122364,-5.7458058,"calle Escalera, 3"
90000.0,countryHouse,45.0,1,1,36.8472005,-5.1535507,carretera setenil Ronda s/n
90000.0,flat,85.0,3,1,36.6820114,-5.4452643,Casco antiguo - Convento - Caldereto
90000.0,flat,90.0,3,1,36.7731424,-6.3503448,Ayuntamiento-Barrio Alto
90000.0,chalet,180.0,4,1,36.6757481,-5.4425514,Centro
90000.0,flat,90.0,3,2,36.7423877,-5.7962108,Arcos de la Frontera
90000.0,flat,65.0,2,3,36.4323917,-5.4534112,Jimena de la Frontera
90000.0,chalet,120.0,4,1,36.6822242,-6.1508803,"calle Guita, 15"
90000.0,countryHouse,87.0,2,2,36.69376,-5.38969,"avenida de los Arbolitos, 7"
90000.0,countryHouse,90.0,4,1,36.248928,-5.4658745,carretera A-405 a San roque s/n
90000.0,chalet,199.0,0,0,36.9334303,-5.2600853,"calle Albéniz, 31"
90000.0,flat,80.0,3,2,36.785036,-5.5575085,"avenida Félix Rodríguez de la Fuente, 7"
90000.0,duplex,103.0,3,2,36.6042331,-5.7995211,"calle Laurel, 4"
90000.0,countryHouse,114.0,4,1,36.4386652,-5.4558231,"calle fuente nueva, 21"
90000.0,chalet,134.0,3,2,36.7502996,-5.8087697,Arcos de la Frontera
90000.0,chalet,174.0,10,5,36.6841044,-6.1404841,"Estrella, 3"
90000.0,studio,57.0,0,1,36.1552999,-5.45137,"calle Misioneras Concepcionistas, 13"
90000.0,countryHouse,72.0,2,1,36.7015503,-5.4213757,"Salto del Cabrero, 14"
90000.0,chalet,231.0,5,2,36.1293772,-5.4502537,"calle benitos Pérez Galdós, 11"
90000.0,chalet,300.0,9,2,36.8583185,-5.6435072,"calle Pedro Álvarez, 25"
90000.0,flat,65.0,2,1,36.1316938,-5.4543357,"calle San José, 4"
90400.0,chalet,80.0,3,2,36.3859961,-6.1343453,"camino de la Acedera, 1 -3"
90500.0,flat,67.0,2,1,36.697776,-6.1436607,Barrio Santiago - Coronación
90850.0,chalet,83.0,2,1,36.1695207,-5.3567569,San Pedro-Gabriel Miró-María Guerrero
91000.0,chalet,122.0,1,0,36.3071047,-5.2899535,calle Cañada Real
91000.0,flat,113.0,4,3,36.812567,-5.7398878,calle Huerto del Agua
91000.0,flat,101.0,3,2,36.8115266,-5.7388942,Bornos
91500.0,chalet,84.0,2,2,36.4188624,-6.1564047,calle la vid
91500.0,chalet,84.0,2,2,36.4179585,-6.1597671,calle la Vid
91600.0,flat,87.0,3,1,36.1402118,-5.4491993,calle Jacinto Benavente s/n
92000.0,penthouse,97.0,3,1,36.1436867,-5.4575549,calle Amanecer
92000.0,flat,75.0,2,1,36.689552,-6.1453467,Barrio Santiago - Coronación
92000.0,flat,68.0,2,1,36.3452147,-5.8151379,Benalup
92000.0,flat,58.0,2,1,36.4213468,-6.1392868,"calle Conil de la Frontera, 5 -1"
92000.0,flat,57.0,2,1,36.4213468,-6.1392868,"calle Conil de la Frontera, 5 -1"
92000.0,flat,78.0,3,1,36.6904417,-6.1453411,Barrio Santiago - Coronación
92000.0,chalet,70.0,2,2,36.461145,-5.7231719,calle las Monjas
92000.0,chalet,80.0,2,2,36.4621445,-5.7256075,Alcalá de los Gazules
92000.0,flat,101.0,3,1,36.6124405,-6.2090274,calle Río Duero
92000.0,flat,101.0,3,1,36.6123598,-6.2113858,calle Río Duero
92000.0,countryHouse,200.0,4,1,36.8624549,-5.1824491,"calle San Sebastián, 15"
92000.0,chalet,49.0,1,1,36.3424002,-5.8099275,"calle Fuentes, 7"
92000.0,flat,95.0,3,1,36.7580494,-5.8158512,Arcos de la Frontera
92000.0,flat,91.0,3,1,36.7507404,-5.8010214,Arcos de la Frontera
92000.0,flat,90.0,3,2,36.8556921,-5.6391347,"calle Azahar, 14"
92350.0,chalet,85.0,2,2,36.1682843,-5.3555547,"calle Turia, 11"
92500.0,chalet,65.0,2,1,36.5409825,-6.1745377,Las Canteras - El Almendral
92500.0,flat,70.0,2,1,36.1250873,-5.447484,Centro
92500.0,flat,108.0,4,3,36.6811109,-6.1243877,ronda de los Alunados
92500.0,chalet,89.0,2,1,36.1678267,-5.3545527,San Pedro-Gabriel Miró-María Guerrero
92500.0,flat,117.0,3,2,36.7494097,-5.8126028,Arcos de la Frontera
92685.0,chalet,82.0,2,1,36.1698967,-5.3541967,San Pedro-Gabriel Miró-María Guerrero
92900.0,flat,55.0,1,1,36.4494281,-6.204014,Ronda del estero
92900.0,flat,55.0,1,1,36.4505476,-6.2067423,Ronda del estero
93000.0,flat,87.0,3,1,36.470307,-6.1972244,El Cristo - Cayetano Roldán
93000.0,flat,65.0,1,1,36.4644228,-5.931225,calle Nuestra Señora de la Salud
93000.0,flat,113.0,4,3,36.6812206,-6.1230739,calle Valdepajuelas
93000.0,chalet,173.0,4,2,36.8135718,-5.7438775,calle Alta
93000.0,flat,72.0,2,1,36.5947338,-6.2312411,Barrio Crevillet
93000.0,chalet,460.0,3,2,36.3389812,-5.8098762,"calle Tarifa, 41"
93000.0,flat,59.0,2,1,36.7728747,-6.3532725,calle Sebastián Elcano
93000.0,flat,79.0,3,1,36.6035586,-6.2296304,Barrio Casco Histórico - Zona Alta
93000.0,chalet,81.0,2,1,36.1701649,-5.3557559,San Pedro-Gabriel Miró-María Guerrero
93000.0,flat,85.0,3,1,36.6801977,-5.4468387,Centro
93500.0,chalet,93.0,3,2,36.9063449,-5.1771542,calle Estella del Marques
93500.0,flat,102.0,3,2,36.6065278,-5.8026554,San José del Valle
93500.0,flat,90.0,3,1,36.1827526,-5.4883397,Los Barrios
93656.0,chalet,83.0,3,2,36.1678067,-5.3565105,San Pedro-Gabriel Miró-María Guerrero
93990.0,flat,95.0,2,2,36.1305071,-5.456075,calle Cid Campeador
93999.0,chalet,235.0,7,1,36.816354,-5.7445955,"calle veracruz, 39"
94000.0,flat,80.0,2,1,36.6010984,-6.2295428,calle Santa Fe
94000.0,penthouse,85.0,2,1,36.6027253,-6.2309243,"calle Santa Fe, 29"
94000.0,chalet,91.0,2,2,36.1682843,-5.3555547,"calle Turia, 11"
94000.0,flat,51.0,2,1,36.7280574,-6.4245145,"avenida Cristóbal Colón, 2"
94000.0,flat,110.0,3,2,36.4624761,-5.729003,calle San Antonio
94000.0,flat,110.0,3,2,36.4619647,-5.7294419,calle San Antonio
94185.0,chalet,78.0,2,2,36.1682843,-5.3555547,"calle Turia, 11"
94500.0,chalet,83.0,2,1,36.1682843,-5.3555547,"calle Turia, 11"
94500.0,flat,50.0,2,1,36.768628,-6.3474678,Ctra Jerez-Ctra del Puerto
94600.0,flat,80.0,1,1,36.4712673,-6.2081175,avenida bahia sur
94600.0,flat,68.0,1,1,36.4710406,-6.2101431,"paseo Virgen del Rocio, 98"
94700.0,chalet,434.0,2,1,36.6037844,-6.2265564,calle Espelete
94700.0,chalet,434.0,2,1,36.6023609,-6.2288937,calle Espelete
94900.0,flat,30.0,2,1,36.7330985,-6.4361448,Centro
94999.0,flat,160.0,4,1,36.4580261,-5.9289622,Medina-Sidonia
95000.0,flat,64.0,2,1,36.1397584,-5.4520108,La Reconquista - El Ensanche
95000.0,chalet,132.0,2,2,36.7453525,-5.8023299,Arcos de la Frontera
95000.0,flat,73.0,3,1,36.6952284,-6.1435522,Barrio Santiago - Coronación
95000.0,flat,82.0,2,1,36.6763833,-6.1286678,Barrio Vallesequillo
95000.0,flat,70.0,1,1,36.3400063,-6.1484173,C.C. Tartessus Center Sancti Petri s/n
95000.0,flat,79.0,3,1,36.7721091,-6.3483084,Ayuntamiento-Barrio Alto
95000.0,flat,61.0,2,1,36.4213468,-6.1392868,"calle Conil de la Frontera, 5 -1"
95000.0,countryHouse,86.0,1,1,36.8572417,-5.3216371,"Antonio Machado, 15"
95000.0,studio,60.0,0,0,36.5271929,-6.1917131,"amargura, 70"
95000.0,flat,70.0,3,1,36.6120698,-6.2342766,calle Callao
95000.0,chalet,100.0,3,1,36.1010092,-5.477426,"calle Mastín, 12 C"
95000.0,flat,40.0,1,1,36.6816883,-6.1455813,Barrio Picadueñas
95000.0,flat,60.0,2,1,36.3460032,-5.8141613,"calle Barbate, 10"
95000.0,chalet,164.0,3,2,36.7487645,-5.8041975,calle Arenillas s/n
95000.0,flat,71.0,1,1,36.4597209,-5.9323193,calle Caldereros
95000.0,countryHouse,243.0,4,2,36.9348904,-5.2700546,Olvera
95000.0,chalet,166.0,4,2,36.933925,-5.2661317,calle Pozo
95000.0,flat,80.0,2,1,36.7593973,-5.5038205,calle Jaen
95000.0,chalet,36.0,1,1,36.5237103,-5.8669848,Paterna de Rivera
95000.0,flat,76.0,3,1,36.6097833,-6.2318318,Barrio Carretera de Sanlúcar-Sudamérica
95000.0,flat,115.0,2,2,36.90603,-5.17518,"calle Velazquez, 13"
95000.0,flat,80.0,2,1,36.474318,-6.2073974,"calle Caño Herrera, 1"
95000.0,flat,84.0,2,1,36.9322834,-5.2582364,"Carlos Cano, 10"
95000.0,flat,120.0,4,2,36.90405,-5.1711,"calle Meson, 37"
95000.0,flat,90.0,3,2,36.680085,-6.129832,"calle Diego Fernández Herrera, 12 -14"
95000.0,chalet,168.0,4,1,36.8548432,-5.325232,CA-0419
95000.0,flat,70.0,1,1,36.7608275,-5.5068952,El Bosque
95000.0,chalet,70.0,3,1,36.696953,-5.3856063,Villaluenga del Rosario
95000.0,flat,96.0,3,2,36.3406408,-5.8169995,"calle Mirador, 5"
95000.0,flat,64.0,2,1,36.1393123,-5.4523498,La Reconquista - El Ensanche
95000.0,flat,70.0,3,1,36.6126994,-6.2320737,Barrio Carretera de Sanlúcar-Sudamérica
95000.0,flat,64.0,2,1,36.1398694,-5.4520801,La Reconquista - El Ensanche
95000.0,flat,64.0,2,1,36.1401564,-5.4525787,La Reconquista - El Ensanche
95000.0,chalet,70.0,1,1,36.1421924,-5.4493741,La Reconquista - El Ensanche
95000.0,chalet,85.0,2,1,36.1683864,-5.3542023,San Pedro-Gabriel Miró-María Guerrero
95000.0,flat,100.0,3,2,36.750902,-5.8169633,"Miguel Mancheño, 4"
95000.0,flat,85.0,3,2,36.76629,-5.46537,"calle Nacimiento, 28"
95000.0,flat,55.0,2,1,36.6789826,-5.4471382,"calle Fernán Caballero, 18"
95000.0,flat,44.0,2,2,36.2528265,-5.9662072,Vejer de la Frontera
95000.0,chalet,72.0,4,2,36.9341596,-5.2676296,"calle Carmona, 2"
95000.0,chalet,88.0,3,1,36.7506524,-5.8055807,Arcos de la Frontera
95000.0,countryHouse,90.0,2,1,36.7586228,-5.3725916,"calle Pie de Palo, 3"
95000.0,chalet,120.0,3,2,36.9052,-5.17552,"calle Picasso, 48"
95000.0,flat,104.0,3,2,36.8807265,-5.4065086,"avenida Constitucion 57, 57"
95000.0,countryHouse,3300.0,1,0,36.920516,-5.5470802,"avenida Cádiz, 4404"
95000.0,studio,132.0,0,2,36.1280092,-5.4483045,calle las Huertas
95000.0,chalet,90.0,4,2,36.8210564,-5.7440622,"calle Abedul, 6"
95000.0,flat,80.0,3,1,36.2056477,-5.4187414,"calle del Gas, 2"
95000.0,flat,97.0,2,1,36.8122929,-5.7471759,"calle Calvario, 85"
95000.0,countryHouse,200.0,5,2,36.8807142,-5.4082752,"calle Manuel Carretero, 5"
95156.0,chalet,83.0,2,1,36.1681637,-5.3555569,"calle Turia, 9"
95500.0,flat,87.0,3,2,36.1400496,-5.453311,calle Príncipes de España
95500.0,flat,87.0,3,1,36.1304655,-5.4488232,calle Patriarca Doctor Don Ramón Pérez Rodríguez
96000.0,flat,67.0,2,1,36.7846698,-5.5594341,Prado del Rey
96000.0,chalet,68.0,2,2,36.7473527,-5.8023076,calle Altozano
96000.0,chalet,100.0,4,3,36.44276,-6.1200599,"camino Diseminado Caldero, 57"
96000.0,chalet,100.0,1,0,36.4060203,-6.1386576,calle Pico
96000.0,studio,80.0,0,2,36.1476155,-5.4519659,"avenida España, 10 A"
96000.0,chalet,96.0,3,1,36.1863795,-5.4910657,MADRID
96000.0,flat,83.0,3,2,36.7553745,-5.8183671,avenida Virgen de la Merced
96000.0,flat,64.0,2,1,36.7929932,-6.336516,Bonanza-Avda de Huelva-Bº Andalucia
96000.0,chalet,100.0,3,2,36.4065595,-6.1393119,Núcleo Urbano
96000.0,flat,113.0,3,2,36.461192,-5.7267639,calle San Antonio
96000.0,flat,113.0,3,2,36.4627173,-5.7268201,calle San Antonio
96000.0,flat,46.0,2,1,36.4079035,-6.1542035,Núcleo Urbano
96000.0,chalet,64.0,2,1,36.7619381,-5.3727209,Grazalema
96000.0,chalet,140.0,3,1,36.1310258,-5.4563994,Puerta Europa-Virgen de la Palma-Estación
96000.0,flat,64.0,2,1,36.1674045,-5.3385315,"calle Pavía, 31"
96000.0,countryHouse,88.0,4,2,36.9346786,-5.2569971,"calle Quevedo, 3"
96400.0,chalet,83.0,2,1,36.1682843,-5.3555547,"calle Turia, 11"
96400.0,chalet,81.0,2,1,36.1690284,-5.3543534,San Pedro-Gabriel Miró-María Guerrero
96900.0,flat,53.0,1,1,36.4493097,-6.204572,Ronda del estero
97000.0,chalet,98.0,3,3,36.1304251,-5.4542016,Puerta Europa-Virgen de la Palma-Estación
97000.0,flat,56.0,1,1,36.6875299,-6.144762,Barrio Santiago - Coronación
97000.0,chalet,107.0,2,2,36.4381127,-6.214295,Gallineras
97000.0,flat,71.0,2,1,36.4606919,-5.930543,Medina-Sidonia
97000.0,flat,87.0,3,2,36.7512873,-5.8009807,Arcos de la Frontera
97000.0,flat,46.0,1,1,36.7368159,-6.4288905,Centro
97000.0,flat,87.0,3,2,36.413071,-6.1420422,avenida de la Música
97000.0,flat,91.0,4,1,36.6982645,-6.1482431,Barrio Santiago - Coronación
97000.0,flat,92.0,4,1,36.6974627,-6.1492921,Barrio Santiago - Coronación
97000.0,flat,79.0,3,1,36.7442871,-5.7961209,Arcos de la Frontera
97300.0,flat,110.0,3,2,36.8802499,-5.40755,"avenida de la Constitución, 57"
97500.0,flat,63.0,2,1,36.1688758,-5.3444508,calle Luxemburgo
97500.0,chalet,97.0,2,2,36.1682843,-5.3555547,"calle Turia, 11"
97500.0,chalet,95.0,2,1,36.1693153,-5.3553984,San Pedro-Gabriel Miró-María Guerrero
97500.0,flat,89.0,2,1,36.1662227,-5.3558497,San Pedro-Gabriel Miró-María Guerrero
97900.0,flat,132.0,3,1,36.1289466,-5.4462384,plaza Nuestra Señora de la Palma
98000.0,chalet,103.0,3,2,36.7494106,-5.8086339,calle Corredera
98000.0,flat,36.0,1,1,36.5309049,-6.3009396,La Caleta - La Viña
98000.0,chalet,110.0,3,3,36.7526999,-5.812913,Arcos de la Frontera
98000.0,flat,105.0,3,2,36.7508782,-5.7996899,Arcos de la Frontera
98000.0,flat,31.0,1,1,36.5296255,-6.3015415,La Caleta - La Viña
98000.0,countryHouse,110.0,2,1,36.3693257,-5.8827212,C la Yeguada
98000.0,countryHouse,169.0,4,2,36.8553773,-5.323883,"calle Virgen del Rosario, 1"
98000.0,chalet,85.0,3,2,36.6734905,-6.1307978,calle Amistad
98000.0,flat,90.0,3,1,36.1293828,-5.4524944,Puerta Europa-Virgen de la Palma-Estación
98000.0,flat,90.0,3,1,36.6725696,-6.1247359,Barrio San Telmo - Federico Mayo - El Porta
98000.0,flat,72.0,2,1,36.5256481,-6.2232189,avenida de la Bahia
98000.0,chalet,165.0,2,2,36.4739881,-6.2077087,León Herrero - Bahía sur
98000.0,flat,100.0,4,2,36.9332726,-5.2556148,"calle setenil, 2"
98000.0,flat,57.0,1,1,36.4756816,-6.1927747,La Casería - San Carlos
98000.0,chalet,123.0,3,1,36.8771198,-5.4024936,Algodonales
98000.0,chalet,120.0,4,2,36.6768784,-5.4421723,Casco antiguo - Convento - Caldereto
98000.0,flat,69.0,3,1,36.1288281,-5.4521839,"calle Don Bosco, 54"
98000.0,flat,105.0,3,2,36.7573205,-5.8099244,calle Jose Sanchez s/n
98000.0,flat,61.0,1,1,36.4773862,-6.1958888,La Casería - San Carlos
98000.0,chalet,41.0,1,1,36.3917944,-6.1395669,camino de Caulina
98000.0,countryHouse,82.0,3,1,36.2151738,-6.0161713,carretera Arroyo San Ambrosio s/n carrillasmarras
99000.0,flat,88.0,2,1,36.6805169,-6.1334739,Barrio Madre de Dios
99000.0,flat,64.0,1,1,36.686155,-6.1470237,Barrio Santiago - Coronación
99000.0,flat,83.0,3,1,36.6606393,-5.4490731,La Vega
99000.0,flat,52.0,2,1,36.7368706,-6.424553,"avenida Félix Rodríguez de la Fuente, 75"
99000.0,flat,44.0,1,1,36.4589162,-6.1978407,"calle San Marcos, 183"
99000.0,chalet,175.0,3,1,36.7531375,-5.8156434,calle Álamos
99000.0,chalet,91.0,2,1,36.1682843,-5.3555547,"calle Turia, 11"
99000.0,flat,68.0,3,1,36.1638807,-5.3538303,calle López de Ayala
99000.0,flat,73.0,3,1,36.1811887,-5.4915435,Los Barrios
99000.0,flat,93.0,1,1,36.211834,-5.3397759,"calle los Altos de Santa Margarita, 8"
99000.0,chalet,110.0,2,1,36.341934,-5.8088937,Benalup
99000.0,chalet,88.0,2,1,36.1682843,-5.3555547,"calle Turia, 11"
99000.0,flat,86.0,1,1,36.4163534,-6.144727,cuesta del Matadero
99000.0,flat,90.0,3,1,36.6745706,-5.4498238,Centro
99000.0,flat,88.0,3,1,36.1298272,-5.4543742,Puerta Europa-Virgen de la Palma-Estación
99000.0,penthouse,64.0,2,1,36.4676763,-5.4125717,"calle la viña, 1"
99000.0,flat,94.0,3,1,36.1408318,-5.450459,La Reconquista - El Ensanche
99000.0,flat,104.0,3,1,36.750715,-5.807842,"calle de las Nieves, 75"
99000.0,flat,85.0,3,2,36.7523709,-5.8137237,Arcos de la Frontera
99000.0,studio,70.0,0,4,36.1413408,-5.4474076,"calle Juan Pérez Arriete, 30"
99000.0,flat,122.0,3,2,36.8608862,-5.6421122,"calle los Malteses, 3"
99500.0,chalet,159.0,4,2,36.1198111,-5.4539464,"calle Grazalema, 1"
99500.0,flat,60.0,2,0,36.4157754,-6.1467882,calle Obispo Rancés
99500.0,chalet,159.0,4,3,36.1203832,-5.4517852,calle Grazalema
99500.0,flat,72.0,3,1,36.6829036,-6.1511438,"calle Teodoro Molina, 26"
99500.0,flat,104.0,3,2,36.8193876,-5.7452498,"avenida Cauchil, 29"
99753.0,flat,67.0,2,1,36.6038073,-6.2273344,"calle Cruces, 8"
99800.0,flat,90.0,3,1,36.6736358,-5.4496204,Centro
99800.0,flat,90.0,4,1,36.6760095,-5.4478089,Centro
99800.0,flat,100.0,3,1,36.6738666,-5.4477381,"avenida de España, 64"
99900.0,chalet,120.0,5,2,36.8796887,-5.4113755,Algodonales
99900.0,flat,69.0,3,1,36.6757171,-6.1280708,Barrio Madre de Dios
99900.0,chalet,750.0,1,0,36.9365885,-5.2630065,Olvera
99900.0,flat,78.0,3,1,36.5246271,-6.1878665,calle Sagasta
99900.0,flat,78.0,3,1,36.5262896,-6.1896878,calle Sagasta
99900.0,flat,75.0,3,2,36.6684069,-6.1425979,Barrio Puertas del sur - Guadabajaque
99900.0,chalet,75.0,3,1,36.4591512,-5.7298289,Alcalá de los Gazules
99990.0,flat,78.0,3,1,36.1292262,-5.4591366,Puerta Europa-Virgen de la Palma-Estación
99999.0,chalet,86.0,3,2,36.7596427,-5.5035383,"calle Sevilla, 11"
99999.0,flat,83.0,3,1,36.1352352,-5.4561533,Urbanización Torre Almirante
99999.0,chalet,100.0,0,1,36.1313345,-5.4495455,Centro
100000.0,flat,99.0,3,1,36.6943479,-6.1476342,avenida de la Soleá
100000.0,flat,71.0,1,1,36.689419,-6.1434688,Barrio Santiago - Coronación
100000.0,countryHouse,156.0,1,0,36.3527228,-5.945988,Vejer de la Frontera
100000.0,flat,38.0,1,1,36.68397,-6.141824,"plaza de Belén, 12"
100000.0,chalet,195.0,4,3,36.1209375,-5.4531473,calle Algar
100000.0,chalet,200.0,3,1,36.6111602,-5.9433512,Pedanías este
100000.0,chalet,84.0,3,1,36.4135607,-6.1480771,Núcleo Urbano
100000.0,chalet,116.0,5,1,36.4583035,-5.9314453,calle Torreón
100000.0,chalet,157.0,3,2,36.6838035,-6.1501769,ronda del Pino
100000.0,flat,60.0,2,1,36.6127761,-6.2106486,Barrio El Juncal - Vallealto
100000.0,flat,81.0,3,2,36.7509893,-5.8091013,Arcos de la Frontera
100000.0,countryHouse,95.0,2,1,36.4225941,-5.4335716,estación de los angeles
100000.0,chalet,91.0,4,3,36.815435,-5.7427502,calle Jardín
100000.0,flat,124.0,3,2,36.4628938,-5.7228608,calle Real
100000.0,chalet,157.0,3,3,36.6848895,-6.1475776,Barrio Picadueñas
100000.0,countryHouse,121.0,4,3,36.8155193,-5.7446791,"calle Jardín, 3"
100000.0,flat,69.0,3,1,36.1412748,-5.4510921,calle Vicente Espinel
100000.0,flat,62.0,2,1,36.7034094,-6.1064108,Barrio Avda. Caballero Bonald - San José Obrero - Guadalcacín
100000.0,flat,59.0,1,1,36.6116284,-6.2116005,N-IV
100000.0,chalet,160.0,5,1,36.6534091,-5.6592481,"calle Sol, 17"
100000.0,chalet,100.0,3,1,36.6605298,-6.2707758,Barrio Cuatro Pinos-El Carmen
100000.0,chalet,89.0,2,1,36.6818032,-5.4419203,Casco antiguo - Convento - Caldereto
100000.0,chalet,226.0,5,1,36.9352388,-5.2599555,"Encarnación, 18"
100000.0,flat,75.0,3,2,36.65975,-5.4507377,"paseo Costureras, 18"
100000.0,flat,120.0,3,2,36.4619621,-5.7223105,"calle Real, 3"
100000.0,chalet,71.0,2,1,36.679472,-5.4401153,Casco antiguo - Convento - Caldereto
100000.0,flat,89.0,3,2,36.657268,-5.4523156,La Vega
100000.0,chalet,166.0,4,2,36.757872,-5.3712553,Grazalema
100000.0,flat,50.0,1,1,36.6137486,-6.2111808,Barrio El Juncal - Vallealto
100000.0,chalet,200.0,5,2,36.4629199,-5.7240399,"calle las Monjas, 12"
100000.0,countryHouse,170.0,5,2,36.65537,-5.65636,"calle Real, 5"
100000.0,flat,120.0,4,3,36.8566169,-5.6469887,"avenida de Arcos, 13"
100000.0,flat,100.0,3,1,36.4602725,-5.7275273,"calle Paterna de Rivera, 10"
100000.0,flat,80.0,3,2,36.8599033,-5.6528758,"Blas Infante, 5"
100000.0,flat,120.0,4,2,36.3439682,-5.8085247,"carretera Castaño, 12"
100000.0,flat,80.0,3,2,36.6592433,-5.4509459,paseo de las Costureras s/n bloque 4 2°c
100000.0,countryHouse,77.0,4,1,36.4377672,-6.1236874,"camino del Bidasoa, 19"
100000.0,chalet,120.0,0,0,36.4725661,-6.1968439,"Trafalgar, 9"
100000.0,chalet,100.0,4,1,36.6454021,-5.9881757,"puente Guareña, 26"
100000.0,chalet,65.0,3,1,36.529789,-6.1919927,"calle San José, 56"
100000.0,chalet,150.0,5,2,36.7477389,-5.8078525,Arcos de la Frontera
100000.0,countryHouse,200.0,2,2,36.5800479,-6.0179424,calle El mojo s/n
100000.0,chalet,163.0,3,2,36.8610112,-5.6417243,"Segura, 47"
100000.0,flat,95.0,3,1,36.191054,-5.385757,"calle cepsa, 2"
100000.0,flat,80.0,2,1,36.7591934,-5.5042831,"calle Jaen, 25"
100000.0,countryHouse,174.0,3,1,36.7530727,-5.8139075,"calle Álamos, 12"
100000.0,countryHouse,80.0,1,1,36.389636,-6.0892963,travesía pago del bueno s/n
100500.0,flat,115.0,3,2,36.1370773,-5.438513,La Reconquista - El Ensanche
100500.0,flat,60.0,1,1,36.1618921,-5.4574302,El Rinconcillo - San José Artesano
100600.0,flat,61.0,3,1,36.5176087,-6.2754236,avenida del Perú
101000.0,flat,93.0,3,1,36.1291826,-5.4477621,Centro
101000.0,flat,52.0,1,1,36.7385143,-6.4319253,avenida Veintiocho de Febrero
101000.0,chalet,110.0,3,1,36.1691787,-5.3558302,calle San Pedro de Alcántara
101700.0,chalet,119.0,1,1,36.7704355,-6.3498237,calle Infante Don Alfonso De Orleans - Borbón
101700.0,chalet,119.0,1,1,36.772866,-6.3500362,calle Infante Don Alfonso De Orleans - Borbón
102000.0,chalet,190.0,3,1,36.3500099,-5.8111326,Benalup
102000.0,flat,101.0,3,2,36.4766634,-6.1979609,calle Ortega y Gasset
102000.0,flat,42.0,1,1,36.7733377,-6.3490416,Ayuntamiento-Barrio Alto
102000.0,flat,87.0,4,1,36.7514193,-5.8069328,Arcos de la Frontera
102000.0,flat,85.0,3,1,36.1137869,-5.4663932,"San Bernabe, 5"
102200.0,chalet,111.0,3,2,36.1673231,-5.3652022,calle Francisco de Vitoria
102200.0,chalet,111.0,3,2,36.1703604,-5.3652113,calle Francisco de Vitoria
102500.0,chalet,100.0,1,1,36.3952868,-6.099684,camino de Adelfas de la Boyal
103000.0,flat,171.0,4,1,36.9332621,-5.2530393,"calle Alcalá del Valle, 27"
103000.0,flat,123.0,3,1,36.1298074,-5.4526086,"calle Don Bosco, 56"
103000.0,chalet,91.0,3,1,36.8364351,-5.3920371,Zahara
103400.0,flat,75.0,3,1,36.6915492,-6.106515,Barrio El Rocío - La Milagrosa
103400.0,flat,75.0,3,1,36.6908441,-6.1078657,Barrio El Rocío - La Milagrosa
103600.0,flat,140.0,2,1,36.601859,-6.2219791,calle Luja
103700.0,chalet,64.0,2,1,36.5299584,-6.1908277,Centro
104000.0,flat,85.0,3,2,36.1623889,-5.3464498,Huerta Fava-Santiago
104000.0,chalet,335.0,5,2,36.1693194,-5.3649717,calle Saavedra Fajardo s/n
104000.0,chalet,202.0,4,2,36.1773503,-5.4562899,puente Romano
104000.0,chalet,202.0,4,2,36.1775914,-5.4587694,puente Romano
104900.0,flat,97.0,3,1,36.6731028,-6.1435734,Barrio Puertas del sur - Guadabajaque
105000.0,chalet,106.0,2,2,36.4719783,-6.2052169,ronda Virge del Saliente
105000.0,chalet,115.0,6,2,36.4164013,-6.1488074,"calle San Arturo, 1"
105000.0,flat,81.0,3,1,36.1460691,-5.4570133,San Bernabé
105000.0,flat,54.0,2,1,36.6745847,-6.1459648,Barrio Puertas del sur - Guadabajaque
105000.0,chalet,104.0,3,1,36.611251,-5.9438068,Pedanías este
105000.0,chalet,152.0,2,1,36.1231269,-5.4539811,calle Guadiana
105000.0,flat,40.0,1,1,36.5998412,-6.2267451,Barrio Casco Histórico - Ribera del Marisco
105000.0,flat,34.0,1,1,36.2541173,-5.9669742,Vejer de la Frontera
105000.0,flat,81.0,3,1,36.1446246,-5.4543998,San Bernabé
105000.0,studio,44.0,0,1,36.2514965,-5.9666342,Vejer de la Frontera
105000.0,flat,78.0,3,1,36.4237191,-6.1460706,La Banda - Campo de Fútbol
105000.0,chalet,162.0,5,1,36.7761792,-6.3421205,calle Miguel Hernández
105000.0,flat,45.0,1,1,36.6023219,-6.2257647,calle de la Rosa
105000.0,flat,121.0,3,1,36.4249139,-5.4363685,calle Gonzalo Vallecillo s/n
105000.0,chalet,194.0,3,1,36.1299111,-5.469667,calle Salvador Rocafort
105000.0,chalet,117.0,3,2,36.9309401,-5.4112519,"calle Virgen de los Remedios, 8"
105000.0,flat,68.0,1,1,36.6025754,-6.2236602,calle Cielos s/n
105000.0,flat,84.0,3,1,36.1814089,-5.491258,calle Actor Antonio Moreno
105000.0,flat,89.0,3,1,36.6821126,-5.444951,Centro
105000.0,flat,85.0,2,1,36.6732051,-5.4480617,"avenida de España, 78"
105000.0,countryHouse,554.0,8,3,36.7448828,-5.7990177,"calle Matrera Abajo, 13  y 15"
105000.0,flat,81.0,3,1,36.1442249,-5.4563001,San Bernabé
105000.0,flat,81.0,3,1,36.1448301,-5.4551205,San Bernabé
105000.0,flat,44.0,2,1,36.2520839,-5.968754,Vejer de la Frontera
105000.0,penthouse,57.0,1,1,36.1587469,-5.457132,"calle Pájaro Carpintero, 25"
105000.0,flat,100.0,3,1,36.7550468,-5.5055038,El Bosque
105000.0,flat,53.0,3,1,36.6044844,-6.2139343,Barrio El Juncal - Vallealto
105000.0,chalet,125.0,3,2,36.7902219,-5.5547838,"calle Sierra Margarita, 41"
105000.0,penthouse,115.0,2,1,36.460038,-5.7295702,"rio rocinejo, 4"
105000.0,flat,88.0,1,1,36.7004031,-6.1289798,Barrio El Altillo
105000.0,flat,100.0,3,1,36.7570553,-5.5060095,"avenida Juan XXIII, 33"
105000.0,chalet,105.0,3,1,36.4560214,-6.1351733,camino Batería Colorada
105000.0,studio,34.0,0,1,36.2527282,-5.9676439,"calle San Ambrosio, 9"
105000.0,flat,71.0,3,1,36.6067476,-6.2185841,Barrio El Juncal - Vallealto
105000.0,flat,354.0,3,1,36.4681414,-5.4127364,Jimena de la Frontera
105000.0,chalet,45.0,1,1,36.1638122,-5.4428871,"calle Adolfo Sánchez Vázquez, 1"
105000.0,chalet,90.0,3,1,36.8669158,-6.1763848,"calle Granada, 17"
105000.0,flat,90.0,3,1,36.6735504,-6.1430103,Barrio Puertas del sur - Guadabajaque
105000.0,chalet,122.0,5,2,36.4168763,-6.1504452,Núcleo Urbano
105000.0,flat,75.0,3,1,36.6777283,-5.4448733,"calle José Corrales Jordán, 8"
105225.0,flat,81.0,2,1,36.6025452,-6.2325264,calle Santa Fe
105800.0,flat,87.0,3,1,36.7835845,-6.3548324,calle Padre Cuevas
106000.0,countryHouse,122.0,2,2,36.4623992,-5.9288576,Medina-Sidonia
106000.0,chalet,110.0,2,2,36.46309,-5.931295,Medina-Sidonia
106000.0,chalet,63.0,1,1,36.1830204,-5.4911229,Los Barrios
106000.0,chalet,63.0,1,1,36.1832694,-5.4905356,Los Barrios
107000.0,chalet,109.0,4,2,36.6872879,-6.0996944,calle Pinsapo
107000.0,studio,45.0,0,1,36.1664881,-5.3472066,"calle del Clavel, 76"
107000.0,flat,92.0,3,2,36.1725451,-5.3642424,Mondejar-Junquillos
107260.0,flat,73.0,3,1,36.1825257,-5.3825935,Puente Mayorga-Campamento
108000.0,flat,96.0,3,1,36.139443,-5.4514568,calle Fray Bartolomé
108000.0,flat,105.0,3,2,36.4689718,-5.9410584,Medina-Sidonia
108000.0,chalet,125.0,4,1,36.6771601,-5.440345,Casco antiguo - Convento - Caldereto
108000.0,flat,63.0,3,1,36.7924621,-6.3398744,Bonanza-Avda de Huelva-Bº Andalucia
108000.0,chalet,125.0,4,1,36.6774807,-5.4424739,Casco antiguo - Convento - Caldereto
108000.0,chalet,90.0,3,2,36.6943481,-5.3859016,"plaza de Toros, 14"
108000.0,chalet,90.0,3,2,36.6943481,-5.3859016,"plaza de Toros, 14"
108000.0,flat,64.0,3,1,36.4733324,-6.1976823,El Cristo - Cayetano Roldán
108000.0,flat,70.0,2,1,36.6765779,-5.4480427,Centro
108000.0,flat,65.0,2,1,36.6133344,-6.2310869,Barrio Carretera de Sanlúcar-Sudamérica
108300.0,flat,84.0,2,2,36.428036,-6.1460564,avenida del Torno
108300.0,flat,94.0,3,2,36.4304589,-6.1439348,La Banda - Campo de Fútbol
