Price,Property Type,Size (m2),Number of Rooms,Number of Bathrooms,Latitude,Longitude,Location
2500.0,chalet,126.0,1,1,37.6745928,-2.9712564,rambla Derecha
4000.0,chalet,76.0,1,1,37.7216894,-3.9675094,calle Motril
4000.0,chalet,68.0,1,1,37.7224739,-3.9707922,Martos
4800.0,chalet,40.0,1,1,37.9341122,-4.0521434,calle Alhamar
5000.0,chalet,181.0,1,1,38.0302332,-3.1021686,calle Maestro Manuel Plaza
5000.0,chalet,61.0,2,1,37.7676317,-3.7937101,"calle Buenavista, 24"
5700.0,countryHouse,60.0,3,0,38.1130689,-3.0862043,"calle Antón Pérez, 31"
7000.0,chalet,245.0,1,0,38.2433295,-3.0526277,calle Lope de Vega
7500.0,chalet,72.0,2,1,37.5926367,-4.0857467,"calle Palomar, 10"
7800.0,chalet,190.0,4,1,38.24604,-3.20822,"calle Cádiz, 34"
8000.0,chalet,100.0,3,2,37.7241882,-3.9658746,calle Carnicerias s/n
8000.0,chalet,102.0,2,1,37.9114706,-3.1265121,"calle Santa Maria de la Cabeza, 28"
8500.0,flat,70.0,3,1,38.0953755,-3.7711882,calle Paquita Torres
8500.0,chalet,123.0,3,1,37.5888037,-4.0875568,"calle Carnicería, 72"
9000.0,chalet,144.0,0,0,37.6729999,-3.5662209,Cambil
9000.0,chalet,90.0,2,1,37.9137504,-3.1255121,"calle Don Juan, 10"
9200.0,chalet,73.0,2,1,37.7226144,-3.9702232,calle Motril
9900.0,chalet,100.0,3,1,37.9971967,-3.5448359,Lupion
9900.0,chalet,171.0,5,1,37.7075524,-2.9314856,"calle Carasoles, 51"
10000.0,chalet,100.0,2,1,37.7711289,-3.7945044,"plaza Santa Luisa de Marillac, 6"
10000.0,countryHouse,90.0,3,2,38.2677581,-2.7422216,"carretera de El Puerto / Arroyo Frío, 9"
10000.0,chalet,160.0,4,1,38.2519,-2.88569,"calle Cervantes, 31"
10000.0,countryHouse,3888.0,0,0,37.7623212,-3.9641069,Torredonjimeno
11000.0,countryHouse,200.0,4,1,37.7044827,-2.9345056,"calle Plato, 16"
11500.0,chalet,75.0,2,1,37.4697131,-3.8382603,Ribera Alta
12000.0,chalet,215.0,0,0,37.6726699,-3.5640822,Cambil
12000.0,chalet,130.0,2,1,37.5278489,-3.9424385,"calle Pascual Leyva, 12"
12000.0,chalet,130.0,2,1,37.5262927,-3.943329,calle Pascual Leyva
12000.0,chalet,51.0,3,2,37.8481018,-3.0653439,calle Pablo Iglesias
12000.0,chalet,110.0,3,1,37.7182399,-3.9699874,"calle baja santa lucia, 58"
12000.0,countryHouse,115.0,3,2,38.1837566,-3.6864121,"Diseminado Ventorrillo, 5"
12000.0,countryHouse,100.0,2,2,37.7236889,-3.380371,"calle Primero de Mayo, 45 -47"
12000.0,countryHouse,70.0,0,0,37.7998352,-4.1594891,"calle Arenal, 11"
12000.0,chalet,134.0,3,1,38.2469239,-3.2084881,Santisteban del Puerto
12100.0,flat,108.0,2,1,37.7214713,-3.9675509,"calle Real de San Fernando, 58"
12300.0,chalet,105.0,3,1,38.072153,-3.5864045,"calle Vista Alegre Centro, 13"
12500.0,chalet,245.0,4,1,38.032707,-3.287604,Torreperogil
12800.0,chalet,89.0,1,1,37.7706633,-3.7986643,Ctra. Circunvalación - La Magdalena
13000.0,chalet,87.0,2,2,38.3857764,-2.5825756,calle Cerrillo
13000.0,chalet,87.0,2,2,38.3891328,-2.5820558,calle Cerrillo
13000.0,chalet,100.0,3,1,37.4642298,-3.8386372,"calle Iglesia, 19"
13000.0,chalet,87.0,2,1,38.3870544,-2.5813018,calle Cerrillo
13000.0,chalet,51.0,3,2,37.8468968,-3.0670089,calle Pablo Iglesias
13000.0,countryHouse,63.0,1,1,37.739085,-3.6490268,"calle Villa, 9"
13399.0,chalet,137.0,3,0,37.5264999,-3.9431448,Castillo de Locubin
13500.0,chalet,231.0,5,2,37.674206,-2.9728281,"rambla Izquierda, 25"
13500.0,chalet,43.0,3,2,37.7071791,-2.933893,calle Aire
13999.0,chalet,200.0,4,2,37.968092,-3.8054464,"calle Cid Campeador, 18"
14000.0,chalet,177.0,4,1,37.707105,-2.9329968,"calle Flora, 6"
14000.0,chalet,123.0,3,1,37.7208952,-3.9671682,"calle Cojos, 21"
14000.0,chalet,35.0,2,1,38.0127443,-3.3632479,calle de Valencia
14000.0,chalet,35.0,2,1,38.0111193,-3.3666537,calle de Valencia
14000.0,chalet,35.0,2,1,38.0113091,-3.3632083,calle de Valencia
14000.0,chalet,123.0,4,2,37.7208952,-3.9671682,"calle Cojos, 21"
14000.0,countryHouse,171.0,4,1,38.0272571,-3.1026331,"calle Pintor Juan Jorquera, 9"
15000.0,chalet,72.0,3,1,37.8437276,-3.06867,Quesada
15000.0,countryHouse,150.0,4,2,37.791995,-3.4659471,"calle Santo, 2"
15000.0,chalet,156.0,4,1,37.7829616,-3.6150327,"calle Carlos III, 9"
15000.0,chalet,130.0,4,2,38.203349,-3.5074223,"calle Corredera, 60"
15650.0,chalet,224.0,4,1,38.252035,-2.8918674,calle Luis Medina
15700.0,chalet,77.0,3,1,37.7248554,-3.9594823,calle Dolores Escobedo
15700.0,chalet,77.0,3,1,37.7227712,-3.9598574,calle Dolores Escobedo
15900.0,chalet,150.0,6,2,37.7249611,-3.968929,calle Baluarte
15900.0,chalet,102.0,3,1,37.7214292,-3.9665551,Martos
15900.0,chalet,150.0,6,2,37.721655,-3.9712146,calle Baluarte
16000.0,chalet,190.0,4,1,37.7848463,-3.6139808,calle Maestra
16000.0,flat,136.0,2,1,37.78539,-3.50966,"calle Pablo Picasso, 18"
16000.0,chalet,152.0,3,1,37.94522,-4.2190695,"calle Jesus, 58"
16000.0,chalet,152.0,4,1,37.94522,-4.2190695,"calle Jesus, 58"
16000.0,chalet,190.0,4,1,37.7858267,-3.6166556,calle Maestra
16000.0,countryHouse,124.0,6,1,37.6497009,-3.4616587,"calle Alarcon, 10"
16200.0,chalet,117.0,2,2,37.7243951,-3.9652724,calle Llana Baja
16400.0,chalet,178.0,3,2,38.2494048,-2.8856268,calle Tobazos
16500.0,penthouse,102.0,4,1,37.649319,-3.4599287,calle Ramón y Cajal
17000.0,chalet,206.0,3,2,37.4819261,-3.8405507,calle Cerrillo
17500.0,chalet,44.0,3,1,38.2043784,-3.508769,"calle de Peñas, 19"
17500.0,countryHouse,120.0,2,1,38.08317,-2.6050399,"calle B, 10"
17600.0,chalet,136.0,3,2,37.5291061,-3.9427141,calle Veracruz
17600.0,chalet,99.0,1,1,38.1122046,-3.0851255,calle Antón Pérez
17700.0,chalet,128.0,1,1,37.7695777,-3.7956371,Ctra. Circunvalación - La Magdalena
18000.0,chalet,84.0,2,1,37.9746276,-4.1151437,calle Cruz Chiquita
18000.0,chalet,84.0,3,1,37.9760841,-4.1154605,"calle Cruz Chiquita, 20"
18000.0,flat,176.0,4,1,38.360628,-3.075034,calle Cervantes
18000.0,chalet,82.0,3,1,38.0973911,-3.6453227,plaza Cante Jondo
18000.0,chalet,216.0,4,1,37.7039364,-2.9336658,callejón de la Fuente
18000.0,countryHouse,80.0,4,1,37.7386399,-3.65127,"calle Pozos, 4"
18000.0,countryHouse,120.0,4,2,37.792157,-3.4664933,"calle Federico Garcia Lorca, 48"
18200.0,flat,69.0,2,1,38.092336,-3.7716235,calle Paquita Torres
18500.0,chalet,214.0,5,2,37.7387227,-3.6494483,"calle Bahondillo, 9"
18500.0,chalet,120.0,4,2,37.7236308,-3.964975,LLANA BAJA
18500.0,chalet,300.0,9,2,37.7387227,-3.6494483,"calle Bahondillo, 9"
18800.0,chalet,146.0,4,2,37.64424,-3.45573,Huelma
19000.0,chalet,134.0,4,1,37.9972866,-3.5464812,"calle del Medio, 38"
19000.0,chalet,120.0,4,1,37.7233033,-3.9656819,calle Felipe
19000.0,chalet,180.0,3,2,37.8462444,-3.0666992,Quesada
19000.0,flat,70.0,3,1,38.0944633,-3.7775631,calle Iglesia
19000.0,countryHouse,100.0,4,1,38.0268425,-3.1478684,"calle Pontones, 6"
19000.0,countryHouse,156.0,3,1,38.31803,-2.6609018,"calle Hortizuela, 42"
19100.0,chalet,178.0,3,2,38.2489423,-2.8840269,calle Tobazos
19200.0,chalet,93.0,3,1,37.7224569,-3.9682042,"calle Lepe, 4"
19500.0,flat,114.0,3,1,38.0431931,-4.0478879,"avenida Santo Reino, 23"
19600.0,flat,188.0,3,2,37.7224339,-3.9672985,calle Carnicería
19800.0,flat,85.0,3,1,38.0417844,-4.0483779,Sector Huelva
20000.0,flat,55.0,2,1,37.7670446,-3.791744,calle Hornos Santiago
20000.0,flat,55.0,2,1,37.7672827,-3.7940496,calle Hornos Santiago
20000.0,countryHouse,362.0,4,1,38.1123069,-2.5518434,"plaza Carnero, 6"
20000.0,flat,56.0,2,1,37.76851,-3.7928166,"calle Hornos Santiago, 10"
20000.0,flat,56.0,2,1,37.76851,-3.7928166,"calle Hornos Santiago, 10"
20000.0,chalet,206.0,3,1,37.4848006,-3.8367087,"calle Cerrillo, 16"
20000.0,chalet,206.0,3,2,37.4816401,-3.8379692,calle Cerrillo
20000.0,chalet,87.0,2,1,37.6495874,-3.455292,calle Collado de los Yesos
20000.0,chalet,181.0,2,1,37.9429347,-4.2137091,"calle Hospitalico, 11"
20000.0,chalet,61.0,0,2,38.04704,-3.4649395,calle los molinos
20000.0,chalet,483.0,1,2,38.3403,-3.5394,"calle Jaen, 25"
20000.0,chalet,206.0,3,2,37.4820913,-3.8390825,"calle Cerrillo, 29"
20000.0,chalet,87.0,2,1,37.6499053,-3.4578695,calle Rio Guadalquivir
20000.0,flat,97.0,3,1,38.2731249,-3.6162991,"calle Cuartel, 44"
20000.0,countryHouse,78.0,3,1,37.9762291,-4.1152599,"calle Cruz Chiquita, 10"
20000.0,countryHouse,100.0,6,2,37.78576,-3.50919,"calle Baltasar Garzon Real, 29"
20000.0,countryHouse,135.0,4,1,37.84197,-3.47618,"calle Iglesia, 1"
20000.0,penthouse,170.0,3,1,37.5909347,-3.8176232,"calle Patín, 7"
20000.0,chalet,120.0,6,1,37.9116,-3.12804,"calle de Josefa Santa Maria, 21"
20000.0,countryHouse,160.0,3,1,37.9784907,-3.1496488,El Molar s/n
20100.0,flat,69.0,3,1,38.0952034,-3.7702888,calle Paquita Torres s/n
20200.0,chalet,105.0,3,1,38.1743036,-3.0107609,calle Triunfo
20200.0,chalet,105.0,3,1,38.1744851,-3.0091237,calle Triunfo
21000.0,flat,70.0,3,1,38.0957743,-3.7793805,calle Sebastián Elcano
21000.0,flat,59.0,2,1,37.7724904,-3.7933003,calle la Cuna
21000.0,flat,59.0,2,1,37.7721639,-3.7954364,calle la Cuna
21000.0,chalet,105.0,3,1,37.7392774,-3.6512731,"calle Romeral Bajo, 34"
21000.0,flat,73.0,3,1,37.7212404,-3.9660851,"arco Ventosilla, 1"
21000.0,flat,85.0,3,1,38.0415808,-4.0469093,Sector Huelva
21000.0,flat,65.0,3,1,38.0317476,-4.0433205,camino Real
21000.0,chalet,100.0,4,1,37.5304272,-3.9434777,"calle Lope de Vega, 16"
21300.0,flat,70.0,3,1,37.6455325,-3.9848453,"calle Real, 43"
21300.0,flat,70.0,3,1,37.7212481,-3.9674969,"calle Real de San Fernando, 41"
21500.0,chalet,68.0,3,1,37.77293,-3.7974515,Ctra. Circunvalación - La Magdalena
21500.0,chalet,130.0,4,1,37.7241577,-3.9690739,calle Campanario Bajo
21600.0,chalet,192.0,3,1,37.7225171,-3.964108,"calle Felipe, 54"
21600.0,flat,74.0,2,1,38.112154,-3.6370254,calle José Ortega y Gasset
21600.0,chalet,246.0,4,2,38.2525475,-2.8929519,calle Luis Medina
21900.0,chalet,235.0,3,1,38.2476584,-2.7245784,carretera de Beas
22000.0,flat,84.0,3,1,38.0835541,-3.6263687,calle Núcleo Residencial la Paz
22000.0,flat,88.0,3,2,38.0860654,-3.6267493,paseo Marqueses de Linares
22000.0,flat,116.0,3,1,38.2789757,-3.6088523,La Carolina
22000.0,flat,156.0,3,1,37.7051391,-3.2882015,"calle Horno Alto, 8"
22000.0,chalet,170.0,6,3,37.4369814,-4.0129549,"calle Rósales, 81"
22000.0,chalet,146.0,2,1,37.6522554,-3.4611262,calle Chorrillo
22000.0,chalet,200.0,5,2,37.8218913,-3.4094392,"calle Virgen de la Cabeza, 31"
22000.0,countryHouse,25.0,1,1,38.3945077,-2.7938797,"Umbría, 7"
22000.0,flat,69.0,3,1,38.0951799,-3.7703025,"calle Paquita Torres, 9"
22000.0,chalet,101.0,3,2,37.7667758,-3.7932859,calle Positillo
22000.0,chalet,101.0,3,2,37.766866,-3.7922063,calle Positillo
22000.0,chalet,110.0,3,1,38.2042354,-3.5080508,"calle Linares, 16"
22000.0,chalet,150.0,5,2,38.2419161,-3.0523654,"calle Ruiz Jiménez, 19"
22000.0,chalet,150.0,5,1,38.3116923,-3.0421866,"calle Columna, 2"
22500.0,chalet,58.0,1,1,37.7720618,-3.7946525,Ctra. Circunvalación - La Magdalena
22500.0,countryHouse,120.0,4,1,38.3511263,-2.7376426,"calle Hermanos Sanchez Montoya, 1"
22900.0,chalet,77.0,2,1,37.9437258,-4.2169349,calle Sierpes
22900.0,chalet,88.0,1,1,38.0938992,-3.6439616,calle Jaula
22900.0,chalet,77.0,2,1,37.9446371,-4.2163255,calle Sierpes
23000.0,chalet,108.0,3,1,37.7639555,-3.7960571,Ctra. Circunvalación - La Magdalena
23000.0,chalet,171.0,4,1,37.7396462,-3.6413266,calle Calvario
23000.0,chalet,172.0,4,1,37.7405403,-3.6408305,"calle Calvario, 47"
23000.0,flat,64.0,2,1,37.7391284,-3.6482942,"calle Villa, 20"
23000.0,chalet,100.0,3,2,37.7681025,-3.7950115,calle los Macías
23000.0,chalet,100.0,3,2,37.7693835,-3.7922871,calle Santiago
23000.0,countryHouse,150.0,3,2,37.74031,-3.64967,"calle Maestra, 25"
23125.0,flat,120.0,3,1,38.2714749,-3.6158616,calle Ondeanos
23400.0,flat,92.0,3,1,38.043076,-4.060623,"calle Jorge Guillén, 14"
23400.0,flat,92.0,3,1,38.0447305,-4.0612184,calle Jorge Guillén
23700.0,chalet,235.0,3,1,38.347163,-2.7407707,avenida Beas
23735.0,chalet,131.0,2,1,37.7666999,-3.7935493,"calle Buenavista, 4"
23735.0,chalet,131.0,2,1,37.7684261,-3.7936872,Ctra. Circunvalación - La Magdalena
23900.0,chalet,140.0,4,3,37.9801029,-3.1535507,"calle el Molar, 145 -109"
24000.0,flat,118.0,3,1,38.0422126,-4.0489721,avenida Santo Reino
24000.0,chalet,132.0,3,1,37.7730266,-3.8006823,calle las Trochas
24000.0,chalet,149.0,3,2,37.7588275,-3.0337541,calle Cueva del Agua
24000.0,flat,181.0,1,1,37.9663497,-3.8060741,"calle Cambroneras, 20"
24000.0,flat,57.0,2,1,38.0997747,-3.6359587,calle la Cruz
24000.0,flat,181.0,3,2,37.9642991,-3.8052902,calle Cambroneras
24000.0,flat,90.0,3,1,37.9688506,-3.8024199,calle Corredera
24000.0,chalet,154.0,3,1,37.7240308,-3.9620938,calle Torredonjimeno
24000.0,chalet,177.0,4,0,37.6567503,-3.2633575,JV-3212
24000.0,flat,40.0,2,1,38.0326603,-4.048422,Andújar
24000.0,flat,61.0,2,1,38.1017837,-3.6345973,calle la Cruz
24000.0,flat,139.0,3,1,38.0431556,-4.049714,avenida Santo Reino
24000.0,countryHouse,100.0,2,1,38.0596209,-3.0926899,calle Principal s/n
24000.0,countryHouse,82.0,2,1,37.7049256,-2.9334753,"calle Molina, 8"
24000.0,chalet,235.0,3,1,38.1750177,-3.7718595,calle Higueras
24000.0,countryHouse,152.0,1,1,38.48828,-2.63631,"calle Ancha, 22"
24000.0,chalet,40.0,3,1,38.3509819,-2.7349989,"calle el paso, 16"
24100.0,chalet,142.0,4,2,38.1881504,-3.3101932,calle Pizarro
24150.0,flat,44.0,3,1,38.2805627,-3.6127089,calle Alcázar de Toledo
24200.0,chalet,94.0,4,1,37.768805,-3.7941202,"calle Alegría, 1"
24290.0,flat,70.0,2,1,37.7689958,-3.7903913,Ctra. Circunvalación - La Magdalena
24290.0,flat,70.0,2,1,37.7674658,-3.7924463,calle las Palmas
24500.0,countryHouse,150.0,4,1,37.9421272,-3.6394233,"calle Colon, 4"
24800.0,chalet,172.0,4,2,38.0044146,-3.9145358,calle San Eufrasio
24900.0,chalet,144.0,3,1,37.7228765,-3.9639786,Martos
25000.0,flat,54.0,3,1,38.0346645,-4.0467975,Andújar
25000.0,flat,91.0,2,0,37.5278404,-3.9411149,calle José Echegaray
25000.0,chalet,97.0,3,1,38.096337,-3.644121,calle Romero
25000.0,flat,73.0,2,1,38.1032517,-3.6375774,calle Avilés
25000.0,chalet,157.0,4,2,37.6872445,-3.816596,"calle Alta, 3"
25000.0,chalet,63.0,4,1,38.2512389,-2.8840419,calle Calzada de la Plazuela
25000.0,flat,198.0,4,1,37.69207,-3.81631,"calle Jaen, 18"
25000.0,chalet,68.0,3,1,37.9868606,-3.172226,JUAN CARLOS
25000.0,countryHouse,143.0,2,1,38.3225362,-2.799571,"calle Antonio Machado, 32"
25000.0,chalet,157.0,3,1,37.7632724,-3.7998772,"calle Gacela, 6"
25000.0,chalet,118.0,3,1,37.65185,-3.4589512,Huelma
25000.0,countryHouse,100.0,3,2,37.7851248,-3.5090847,"calle de la Rambla de San Gil, 42"
25000.0,chalet,241.0,3,1,37.5258314,-3.9404761,"calle Calzada, 45"
25000.0,chalet,167.0,4,1,38.2036823,-3.5076583,calle Pastores
25000.0,chalet,167.0,4,1,38.2049309,-3.506217,calle Pastores
25000.0,chalet,120.0,3,1,38.1747219,-3.774125,calle Hermenegildo Altozano
25000.0,chalet,64.0,4,1,38.2535668,-2.8919737,travesía de Lopez Navarrete
25000.0,chalet,100.0,2,1,37.824774,-3.4130879,"calle Correhuela, 33"
25000.0,countryHouse,75.0,0,0,38.1699286,-3.0105211,"San Jose, 20"
25000.0,countryHouse,180.0,4,1,37.9469918,-4.2152435,"calle San Roque, 48"
25000.0,chalet,177.0,3,1,37.9982797,-3.6401077,"calle Pilar, 90"
25000.0,chalet,65.0,0,0,37.8433692,-3.3541312,"calle Cervantes, 54"
25000.0,countryHouse,100.0,1,1,37.9112844,-3.1275167,"calle del Sol, 21"
25000.0,chalet,90.0,2,1,37.7696864,-3.7962727,"calle Santísima Trinidad, 48"
25000.0,chalet,154.0,3,1,37.7261949,-3.9635154,Martos
25000.0,countryHouse,100.0,4,1,37.461184,-3.926494,"callejón del Horno, 4"
25000.0,countryHouse,240.0,8,1,38.3197263,-2.8902759,"calle Olivo, 18"
25200.0,chalet,138.0,3,1,38.1706099,-3.010455,"calle Colón, 9"
25200.0,chalet,138.0,2,1,38.1720671,-3.0105318,calle Colón
25200.0,chalet,138.0,3,1,38.1701024,-3.0116576,Villanueva del Arzobispo
25300.0,chalet,139.0,3,1,37.771191,-3.8943413,calle Granados
25300.0,chalet,144.0,3,1,37.7700163,-3.8953078,"calle Granados, 24"
25500.0,flat,120.0,4,2,38.2684226,-3.6215582,"calle Santo Reino, 8"
25500.0,flat,52.0,1,1,38.0270292,-3.1008348,"Santo Tomé, 10"
25600.0,flat,85.0,2,1,38.0989995,-3.6307419,calle Velarde
26000.0,chalet,196.0,3,1,37.679409,-3.5605384,calle Peñuelas
26000.0,flat,86.0,3,1,38.0679231,-3.589007,calle Santa Isabel
26000.0,flat,144.0,4,2,37.7077214,-2.9331022,Pozo Alcon
26000.0,flat,86.0,3,1,38.0694582,-3.5915366,La Paz-Las Américas
26000.0,chalet,216.0,3,2,37.7073984,-2.9315346,"calle Carasoles, 27"
26000.0,chalet,232.0,3,1,37.9663131,-3.8079042,"calle la Pompa, 18"
26000.0,flat,95.0,3,1,38.0679755,-3.5910508,calle Santa Isabel
26000.0,chalet,150.0,3,1,37.8442847,-3.0661969,Quesada
26100.0,chalet,144.0,3,1,37.7702872,-3.893782,calle Granados
26800.0,flat,72.0,2,1,38.095087,-3.7771197,calle Sebastián Elcano
27000.0,chalet,132.0,3,2,38.1142043,-3.0863744,"calle Conrado Blanco, 2 -10"
27000.0,chalet,192.0,3,1,37.7224714,-3.9642597,"calle Felipe, 50"
27000.0,flat,83.0,3,1,38.0921996,-3.7737009,travesía Historiador Rus de la Puerta
27000.0,flat,81.0,3,1,38.2762873,-3.6136843,Cinco de Julio
27000.0,flat,90.0,3,1,38.276311,-3.6130235,calle Cinco de Julio
27000.0,chalet,116.0,3,2,38.022853,-3.5034399,"calle Virgen de los Remedios, 3"
27000.0,flat,81.0,3,1,38.2791087,-3.611678,La Carolina
27000.0,chalet,131.0,3,1,38.1013914,-3.7765108,Bailén
27000.0,studio,28.0,0,1,38.2983134,-2.6514883,"calle del Postigo, 38"
27000.0,countryHouse,110.0,3,1,37.5901362,-3.8139773,"calle Chaparral, 37"
27000.0,countryHouse,64.0,3,1,37.7077876,-2.9332078,"calle Levante, 4"
27000.0,countryHouse,170.0,7,1,37.9424051,-3.639187,"calle Colon, 6"
27000.0,chalet,131.0,3,1,38.0489314,-4.1698011,"calle Pi y Margall, 4"
27300.0,chalet,129.0,3,1,38.2517849,-2.8862595,"calle Cantón del Toledillo, 1"
27500.0,flat,79.0,3,1,38.0489622,-3.4635007,avenida de Andalucía
27500.0,flat,115.0,3,1,38.2715681,-3.6182686,calle Ondeanos
27500.0,chalet,115.0,5,1,37.6507986,-3.4556399,"calle Carrera de Jesús, 27"
27550.0,flat,120.0,2,1,37.7738674,-3.8004117,Ctra. Circunvalación - La Magdalena
27600.0,flat,59.0,1,1,37.7614185,-3.7937528,calle San Felipe
27600.0,flat,59.0,1,1,37.759828,-3.7954129,calle San Felipe
27700.0,chalet,116.0,3,1,38.0220048,-3.5026107,Virgen de los Remedios
27800.0,chalet,141.0,3,3,37.6437023,-3.9857814,calle Real
28000.0,chalet,116.0,3,1,38.0470938,-3.4597076,calle las Torres
28000.0,flat,100.0,3,1,38.2556571,-2.8930154,"avenida profacio, 6"
28000.0,flat,88.0,3,1,38.1062527,-3.6358963,calle José María Pereda
28000.0,chalet,139.0,4,1,37.966754,-3.8110057,calle Comandante García Pintado
28000.0,countryHouse,160.0,4,0,38.2214909,-2.4737277,Aldea de Miller s/n
28000.0,countryHouse,150.0,4,1,38.1497906,-2.49559,Nacimiento de tobos s/n SN
28000.0,flat,95.0,3,1,38.0967685,-3.7797575,"avenida Manolo Gómez Bur, 57"
28000.0,chalet,67.0,3,1,38.2724751,-3.620866,calle Juan de la Rosa
28000.0,studio,28.0,0,1,38.2986999,-2.65152,"calle rodrigo manrique, 6"
28000.0,flat,110.0,4,2,38.1063923,-3.6352156,"calle Azorín, 2"
28000.0,countryHouse,72.0,4,1,38.24656,-3.20968,"calle San Sebastián, 13"
28000.0,countryHouse,150.0,4,1,37.650087,-3.4551623,"calle Talanquera, 20"
28000.0,chalet,80.0,4,2,37.6574199,-4.1606098,"calle Federico García Lorca, 12"
28000.0,flat,160.0,6,1,38.2021969,-3.5070085,"calle las Peñas, 17"
28100.0,chalet,142.0,4,2,38.1864763,-3.3096849,calle Pizarro
28200.0,chalet,100.0,3,1,38.1866825,-3.310778,calle Luna s/n
28200.0,flat,107.0,3,1,38.2712905,-3.6191849,calle Herrera
28300.0,chalet,70.0,2,1,38.2723448,-3.6171632,calle Refugio
28300.0,chalet,70.0,2,1,38.2707128,-3.6172848,calle Refugio
28800.0,chalet,158.0,3,1,37.7683152,-3.7960393,calle Reventón
28800.0,chalet,158.0,3,1,37.7692906,-3.792855,calle Reventón
28800.0,chalet,158.0,3,1,37.7686013,-3.7958943,calle Reventón
28800.0,chalet,158.0,3,1,37.7713344,-3.7930098,calle Reventón
28900.0,flat,50.0,2,1,38.0335227,-4.0473963,Andújar
29000.0,chalet,102.0,2,1,37.8478866,-3.0653675,Quesada
29000.0,chalet,93.0,3,1,37.8432802,-3.3542337,"calle Cervantes, 51"
29000.0,chalet,88.0,3,1,37.7728882,-3.7985724,Ctra. Circunvalación - La Magdalena
29000.0,chalet,85.0,2,1,37.7182399,-3.9699874,"Callejuela Pena, 7"
29000.0,chalet,96.0,3,1,37.52798,-3.93955,"calle Calvario, 12"
29000.0,countryHouse,160.0,3,2,38.1138806,-3.0869191,"calle Repullete, 8"
29000.0,flat,93.0,3,1,38.1119522,-3.6386552,calle Emilia Pardo Bazán
29000.0,flat,93.0,3,1,38.1126609,-3.6372163,calle Emilia Pardo Bazán
29000.0,chalet,144.0,3,1,38.2525362,-3.1315471,"COLON, 23"
29000.0,chalet,75.0,1,0,37.7687291,-3.9609759,Torredonjimeno
29400.0,chalet,118.0,3,2,37.7221951,-3.9569799,calle Santa Lucía Baja
29400.0,chalet,118.0,3,2,37.7233238,-3.956261,calle Santa Lucía Baja
29500.0,flat,94.0,3,1,38.0917656,-3.772966,Bailén
29600.0,flat,95.0,2,1,38.0981599,-3.7726136,"calle Desengaño, 20"
29600.0,flat,78.0,2,1,38.0984606,-3.771477,calle Desengaño
29700.0,chalet,124.0,2,2,38.2765492,-3.6196387,calle Escondida
29728.0,chalet,171.0,2,1,37.5912277,-4.0860698,"calle Alcaudetejo, 1"
29800.0,chalet,116.0,3,1,37.7207616,-3.9667047,calle Dolores Torres
29900.0,chalet,248.0,3,1,38.0133323,-3.3607276,"calle de Valencia, 84"
29900.0,countryHouse,54.0,3,1,37.5530937,-3.6345411,Campillo de Arenas
29900.0,chalet,100.0,3,1,37.9960849,-3.4689373,calle Nueva el Rojo
29900.0,chalet,153.0,4,1,38.1018853,-3.6418278,calle Ávila
29900.0,chalet,62.0,2,1,38.0441552,-4.0486387,"calle San Clemente, 9"
29900.0,chalet,162.0,3,1,37.7380092,-3.65382,Pegalajar
29900.0,chalet,90.0,3,1,37.78693,-3.50966,"calle andalucía, 19"
29999.0,chalet,70.0,4,2,38.3545099,-2.6529183,Benatae
29999.0,chalet,243.0,4,2,37.7399774,-3.6523047,calle Romeral Bajo
29999.0,flat,50.0,2,1,38.2955994,-2.6522169,calle Aldea de Cabeza Gorda s/n
30000.0,chalet,63.0,3,2,38.0358594,-3.2842757,"calle Sol, 31"
30000.0,chalet,157.0,3,2,37.8449014,-3.0699935,Quesada
30000.0,chalet,85.0,3,1,37.7640173,-3.9575015,"calle la Cerca, 17"
30000.0,chalet,149.0,5,1,37.5909831,-3.8135216,calle Sisehace
30000.0,chalet,152.0,1,1,37.7031713,-4.1142792,"calle Baena, 121"
30000.0,countryHouse,192.0,3,2,37.8410393,-3.4766053,calle Madrilejos
30000.0,chalet,149.0,5,2,37.5884595,-3.8162366,calle Sisehace
30000.0,flat,170.0,5,1,38.0355891,-3.2905522,calle Nueva
30000.0,chalet,114.0,4,2,38.0486067,-3.4624609,calle la Poza
30000.0,chalet,149.0,5,1,37.5896914,-3.8162716,"calle Sisehace, 1"
30000.0,flat,104.0,3,1,38.269553,-3.6197948,calle Herrera
30000.0,flat,289.0,3,1,38.2469106,-3.2067059,"calle Escultor Higueras, 4"
30000.0,flat,289.0,3,1,38.245438,-3.2061434,calle Escultor Higueras
30000.0,flat,92.0,3,1,38.2787928,-3.6102835,"plaza Campomanes, 21"
30000.0,chalet,192.0,4,2,37.8426934,-3.4773664,calle Madrilejos
30000.0,chalet,102.0,2,1,38.0106915,-3.3673005,Madroñal
30000.0,flat,79.0,4,1,38.1030545,-3.6251486,calle Río Grande
30000.0,flat,170.0,3,2,38.0342252,-3.2908229,calle Nueva
30000.0,chalet,174.0,3,1,38.41583,-2.67672,"calle Hernán Cortés, 21"
30000.0,chalet,62.0,2,1,38.0430765,-4.0488246,Andújar
30000.0,countryHouse,227.0,3,1,38.38689,-2.58209,"calle Iglesia, 8"
30000.0,countryHouse,265.0,5,1,37.5926075,-4.0843973,"calle Melojo, 15"
30000.0,flat,80.0,3,1,38.0932957,-3.7784343,calle Sebastián Elcano
30000.0,chalet,318.0,3,2,37.7837921,-3.613552,Mancha Real
30000.0,countryHouse,80.0,3,1,37.7687382,-3.8960892,"calle Beneficiados, 22"
30000.0,flat,101.0,4,1,37.587609,-3.8193209,"paseo del Obispo, 6"
30000.0,flat,98.0,3,1,38.2783794,-3.6086862,calle Campomanes
30000.0,countryHouse,200.0,6,2,37.4874568,-3.840034,"calle San Rafael, 7  -9 - 4"
30000.0,countryHouse,80.0,2,1,38.04304,-2.64949,"calle Patronato el C, 14"
30000.0,chalet,108.0,5,2,37.8235047,-3.4107828,"calle TRASTORRE número, 21"
30000.0,chalet,150.0,3,1,37.8469931,-3.0657529,"calle Pablo Iglesias, 1"
30000.0,chalet,100.0,3,0,38.3220831,-2.8930779,"calle Bolea ,5travesia, 3"
30000.0,chalet,108.0,5,2,37.8235047,-3.4107828,"calle TRASTORRE 21, 622790214"
30000.0,countryHouse,230.0,3,1,38.4291744,-2.7328792,"calle Iglesia, 8"
30000.0,chalet,68.0,5,1,37.703743,-2.9324907,"calle Carrizalejo, 27"
30000.0,countryHouse,100.0,3,1,38.0440273,-4.165984,"calle Juan Perales Padilla, 24"
30000.0,countryHouse,30.0,2,0,38.2553828,-3.1305758,"avenida de Andalucia, 22"
30000.0,flat,89.0,3,1,38.1116542,-3.6334691,"pedro Antonio de Alarcon, 9"
30000.0,flat,100.0,3,1,37.5884302,-3.8216931,"calle Cristo, 34"
30000.0,countryHouse,60.0,2,0,37.8404906,-3.0646819,carretera A-6206 s/n
30000.0,chalet,200.0,3,2,37.7868253,-3.5083976,"calle Jornaleros, 44"
30000.0,countryHouse,200.0,3,1,37.48284,-3.8403331,calle mecedero s/n
30400.0,flat,132.0,3,2,38.2750266,-3.6205655,calle Linares
30400.0,chalet,117.0,3,2,38.0222042,-3.5058444,calle Prado
30400.0,flat,132.0,3,2,38.2743932,-3.622193,calle del Campo
30500.0,chalet,118.0,3,1,37.6507809,-3.4572748,"calle Almaden, 12"
30500.0,flat,69.0,3,1,38.0859006,-3.626395,calle Núcleo Residencial la Paz
30500.0,flat,120.0,4,2,38.2696498,-3.6207053,"calle Cristóbal Colón, 9"
30700.0,chalet,175.0,5,1,37.968586,-4.1085318,calle de Ramón y Cajal
30700.0,chalet,145.0,4,2,37.970966,-4.1083479,calle de Ramón y Cajal
30800.0,flat,112.0,4,1,37.9745561,-4.1061269,avenida Andalucía
30800.0,flat,81.0,3,2,38.0978709,-3.6307539,calle Federico Mayo
30800.0,flat,81.0,3,2,38.0986499,-3.6311464,calle Federico Mayo
30800.0,flat,81.0,3,2,38.0955676,-3.6308429,calle Federico Mayo
31000.0,chalet,151.0,3,2,38.0951972,-3.6455028,calle Martinete
31000.0,flat,89.0,3,1,37.7475536,-3.9136689,plaza San Rafael
31000.0,chalet,67.0,3,1,38.2769794,-3.6237983,calle Linares
31000.0,chalet,67.0,3,1,38.2746561,-3.6202662,calle Linares
31000.0,chalet,100.0,3,1,37.7188041,-3.9667384,"travesía Cobatillas Altas, 8"
31200.0,flat,77.0,3,2,38.0871279,-3.6244122,"calle Núcleo Residencial la Paz, 45"
31200.0,flat,77.0,3,2,38.0859172,-3.6259539,calle Núcleo Residencial la Paz
31400.0,flat,101.0,4,2,38.2748399,-3.6143209,calle Méndez Núñez
31500.0,flat,92.0,3,1,38.2778383,-3.608358,calle Thurriegel
31500.0,flat,97.0,3,1,38.0408144,-4.0516411,calle Conde de la Quintería
31500.0,flat,97.0,3,1,38.0408903,-4.0500993,calle Conde de la Quintería
31500.0,countryHouse,100.0,4,1,38.054836,-3.069974,"calle Canal, 45"
31500.0,flat,63.0,2,1,38.0986866,-3.6279254,calle Obispo Álvarez Lara
31600.0,flat,92.0,3,1,38.0425377,-4.0586991,calle Jorge Guillén
31600.0,flat,92.0,3,1,38.0440842,-4.0615923,calle Jorge Guillén
31600.0,flat,92.0,3,1,38.0441445,-4.0602146,calle Jorge Guillén
32000.0,flat,88.0,3,1,38.1064461,-3.6343842,calle Palacio Valdés
32000.0,chalet,190.0,4,1,37.7857073,-3.6152503,"calle Maestra, 26"
32000.0,chalet,99.0,4,1,38.0724859,-3.5924943,La Paz-Las Américas
32000.0,flat,67.0,2,1,38.0914829,-3.7708245,calle Paquita Torres
32000.0,flat,75.0,1,1,37.8443318,-3.0681656,"calle Pedro Hidalgo, 12"
32000.0,chalet,64.0,2,1,38.0539956,-3.0718126,avenida Naranjos
32000.0,chalet,150.0,3,1,37.5939896,-4.0840724,calle San Marcos
32000.0,chalet,100.0,2,1,37.6533321,-4.1651667,Alcaudete
32000.0,flat,60.0,2,1,38.042968,-4.0509182,"calle San Juan, 50"
32000.0,chalet,150.0,3,1,38.2724674,-3.6184361,"calle Refugio, 26"
32200.0,chalet,400.0,3,2,38.1462979,-3.0209399,JV-7042
32300.0,flat,65.0,1,2,37.6833083,-3.6168791,A-324
32300.0,flat,65.0,1,2,37.6817882,-3.6183685,A-324
32400.0,flat,105.0,3,1,38.0948152,-3.6374709,calle Quevedo
32400.0,chalet,146.0,2,1,37.6492139,-3.4595026,calle Chorrillo
32500.0,flat,111.0,3,2,37.8329605,-3.3548091,"calle Jandulilla, 21"
32500.0,flat,81.0,3,1,38.100725,-3.7806112,pasaje Puerto Rico
32500.0,chalet,111.0,3,2,37.8341733,-3.3561541,calle Jandulilla
32500.0,chalet,160.0,3,1,38.0417179,-4.0618414,Andújar
32500.0,flat,81.0,3,1,38.0977365,-3.7811984,pasaje Puerto Rico
32600.0,flat,215.0,2,1,37.5902112,-3.813725,calle Cruces
32999.0,penthouse,69.0,3,1,37.5917308,-4.0841345,CARMEN
33000.0,flat,95.0,3,1,38.2314517,-3.6327236,calle Constitucion
33000.0,flat,95.0,3,1,38.2291668,-3.6300954,calle Constitucion
33000.0,flat,93.0,3,1,38.1094037,-3.6364195,calle Fernando de Herrera
33000.0,chalet,90.0,3,1,38.246475,-3.2102289,"calle San Sebastián, 23"
33000.0,chalet,138.0,4,1,38.0491625,-3.4667658,calle de las Moreras
33000.0,chalet,255.0,3,2,38.2526124,-3.2028315,Altozano
33000.0,chalet,138.0,3,1,38.0497096,-3.464056,calle de las Moreras
33000.0,chalet,97.0,2,1,37.7696678,-3.7958775,calle Alegría
33000.0,chalet,123.0,4,1,38.0498587,-3.4630613,calle de las Moreras
33000.0,countryHouse,80.0,3,2,38.3178027,-2.6606208,"calle Wenceslao de la Cruz, 42"
33000.0,chalet,140.0,3,1,37.7231235,-3.9665548,DOLORES TORRES
33000.0,flat,125.0,4,2,38.27373,-3.6122119,"avenida Vilches, 6"
33000.0,flat,95.0,3,1,38.2318211,-3.630771,calle Constitucion
33000.0,flat,100.0,2,1,37.7831428,-3.509234,"paseo de San Isidro, 2"
33000.0,chalet,120.0,3,1,38.1127222,-3.0866872,"calle repullete, 56"
33000.0,chalet,250.0,3,2,37.84236,-3.47629,"calle Audiencia, 11"
33000.0,countryHouse,200.0,5,1,37.5549759,-3.6352487,"calle cerrillo, 1"
33000.0,chalet,176.0,3,1,37.8429992,-3.3553815,"calle Cervantes, 85"
33000.0,countryHouse,151.0,2,1,37.7635372,-3.9561815,"calle Techada, 32"
33000.0,chalet,197.0,5,2,37.7021292,-2.9307008,"calle raja del torcal, 15"
33500.0,flat,65.0,3,1,38.0465895,-4.0481902,calle Verbena
33500.0,chalet,253.0,4,1,38.2580059,-3.1275013,"calle notario, 30"
33500.0,countryHouse,134.0,3,2,37.7421828,-3.6942253,La Guardia de Jaén
33500.0,flat,74.0,1,1,37.966608,-3.8048901,calle Corredera
34000.0,chalet,109.0,4,2,38.03487,-3.289134,"travesía Pablos, 5"
34000.0,chalet,111.0,4,2,37.7715751,-3.7965236,calle Santísima Trinidad
34000.0,chalet,304.0,7,3,37.6731804,-2.9720738,rambla Izquierda
34000.0,chalet,104.0,2,1,38.1054524,-3.6339844,calle Madroño
34000.0,chalet,94.0,4,2,38.1830261,-3.685942,calle La Paz
34000.0,chalet,94.0,4,2,38.1830261,-3.685942,calle La Paz
34000.0,chalet,165.0,4,1,38.1418687,-3.5047544,Vilches
34000.0,countryHouse,220.0,4,2,37.591855,-3.8204251,"calle Encinilla, 18"
34000.0,flat,78.0,3,1,37.9185861,-3.0046448,"calle San José, 5"
34000.0,chalet,109.0,2,1,37.5914979,-3.815685,calle Terreros
34000.0,flat,55.0,3,2,38.0972444,-3.7752921,"calle Hernán Cortés, 5"
34000.0,chalet,130.0,4,3,38.0707323,-3.3058364,"calle Duende, 1"
34000.0,countryHouse,150.0,3,0,38.0060373,-3.9088368,calle Dehesa del Barco s/n
34300.0,chalet,180.0,3,1,37.9679473,-3.8122264,Mengíbar
34500.0,chalet,313.0,5,2,37.9876373,-3.5349547,calle Patrocinio de Biedma
34500.0,flat,111.0,3,1,38.0339969,-4.0492053,Andújar
35000.0,flat,82.0,3,1,38.0962626,-3.6288683,calle Cristóbal de Olid
35000.0,chalet,128.0,4,1,37.7724721,-3.7991564,puerta de Martos
35000.0,flat,71.0,2,1,37.767337,-3.9571325,calle la Salud
35000.0,flat,106.0,3,1,38.0980234,-3.7771627,"calle Victoria, 1"
35000.0,flat,139.0,4,2,38.1106178,-3.6378078,Arrayanes
35000.0,flat,82.0,3,1,37.772398,-3.796813,calle Juanito el Practicante
35000.0,flat,89.0,3,1,38.0413646,-4.0475346,Andújar
35000.0,chalet,100.0,3,1,38.2049911,-3.5065968,calle Cuevas Altas
35000.0,chalet,59.0,1,1,38.0272667,-3.9552864,Diseminado Morillo
35000.0,countryHouse,150.0,3,1,37.7726176,-3.8004473,"carretera de Circunvalación, 150"
35000.0,flat,107.0,3,1,38.0974749,-3.7740509,"calle Choza, 5"
35000.0,chalet,300.0,4,3,37.7066178,-2.9328989,"calle de las Parras, 46"
35000.0,chalet,87.0,1,1,38.0471823,-4.054204,travesía San Pedro
35000.0,chalet,87.0,1,1,38.0458981,-4.0518346,travesía San Pedro
35000.0,countryHouse,180.0,7,2,38.2535031,-3.1252905,"avenida Y Paseo Virgen de Consolacion, 56"
35000.0,flat,65.0,1,1,37.6795797,-3.6266613,A-324
35000.0,chalet,110.0,3,1,37.7672815,-3.9588274,Torredonjimeno
35000.0,flat,65.0,1,1,37.6794196,-3.6254253,A-324
35000.0,chalet,188.0,4,1,37.9676048,-3.8081948,calle la Pompa
35000.0,flat,120.0,3,1,38.0951601,-3.7765276,"cuba, 4"
35000.0,chalet,92.0,5,1,38.0452674,-3.4621044,Rus
35000.0,countryHouse,191.0,3,2,38.2504349,-2.8846182,"calle Tobazos, 94"
35000.0,chalet,282.0,5,2,38.24633,-3.21083,"calle San Sebastián, 39"
35000.0,chalet,120.0,3,1,38.0993349,-3.7733964,"calle Jardines, 24"
35000.0,chalet,120.0,4,2,37.7693003,-3.9615916,"calle del Charco, 25"
35000.0,flat,112.0,5,2,37.9737099,-4.10484,"avenida Andalucía, 6"
35000.0,countryHouse,100.0,3,2,37.8448964,-3.0687527,"calle Navas de Tolosa, 3"
35000.0,countryHouse,60.0,2,1,38.2436376,-2.6284656,via Arroyo Canales s/n
35000.0,countryHouse,150.0,2,1,38.4486598,-2.6237344,"Los Maridos, 17"
35000.0,chalet,92.0,4,2,37.7845558,-3.5077043,"calle Baltasar Garzon Real, 87"
35000.0,countryHouse,100.0,3,2,37.8448964,-3.0687527,"calle Navas de Tolosa, 3"
35000.0,chalet,240.0,5,1,37.8440019,-3.0649175,"calle dos de Mayo, 47"
35000.0,chalet,221.0,4,3,37.7217044,-3.9682191,calle Real de San Fernando
35000.0,chalet,140.0,2,1,38.113569,-3.0867647,"calle Repullete, 25"
35000.0,chalet,134.0,5,2,37.74805,-3.91158,"Huertos Baja, 35"
35000.0,flat,74.0,3,1,38.102103,-3.6270482,"calle Río Guarrizas, 6  planta baja dcha"
35000.0,countryHouse,135.0,5,2,37.8418859,-3.4757149,"Manuel de Falla, 10"
35000.0,chalet,200.0,3,1,37.5920851,-3.8205434,"calle Ejido, 38"
35000.0,flat,125.0,5,2,38.0261385,-3.1013004,"calle del Pintor Juan Jorquera, 17"
35000.0,flat,250.0,4,2,37.5300161,-3.6552541,"calle Real, 25"
35000.0,countryHouse,150.0,5,1,38.0430554,-3.1043458,"avenida Valencia, 86"
35000.0,countryHouse,230.0,5,2,38.2561727,-3.1259141,"avenida Virgen de Cosolacion, 60"
35000.0,flat,132.0,4,1,37.7402937,-3.6449015,"calle Baja Fuente, 45"
35000.0,chalet,38.0,1,0,38.03849,-4.0516619,"San Juán, 23"
35000.0,chalet,210.0,3,2,37.5914307,-4.0810351,"calle Almendro, 37"
35000.0,countryHouse,100.0,4,1,37.91176,-3.12647,"calle del Sol, 10"
35000.0,flat,107.0,3,1,38.0951601,-3.7765276,"Victoria, 36"
35000.0,chalet,180.0,6,1,37.65273,-3.6360282,"plaza la Constitucion, 7"
35000.0,chalet,200.0,3,2,37.8451499,-3.06592,"calle Fernando III, 3"
35000.0,chalet,130.0,4,1,37.4663791,-3.9246317,"calle Callejuela Baja, 2"
35000.0,chalet,150.0,2,0,37.466446,-3.9246525,"calle Callejuela Baja, 2"
35000.0,chalet,141.0,3,1,38.0384984,-3.2808395,"Calzada de la Virgen, 27"
35000.0,chalet,150.0,5,1,38.0988509,-3.7787117,"calle Diecinueve de Julio, 29"
35317.0,chalet,62.0,3,1,38.1066263,-3.6428856,Arrayanes
35400.0,flat,65.0,2,1,37.6826779,-3.619924,A-324
35400.0,flat,65.0,2,1,37.6817971,-3.6188587,A-324
35500.0,flat,98.0,4,2,37.78603,-3.6040581,calle Pintor Zabaleta
35500.0,flat,89.0,4,2,37.7858509,-3.6042594,calle Pintor Zabaleta
35500.0,chalet,134.0,2,1,37.8751343,-4.1898826,calle Jose Santiago
35500.0,chalet,50.0,2,1,38.1145638,-3.086724,"arco Alto, 3"
36000.0,flat,78.0,2,1,37.844985,-3.0707863,Quesada
36000.0,chalet,140.0,3,1,37.5891295,-4.0831879,Av/de la Paz
36000.0,chalet,210.0,4,2,37.7203939,-3.9668197,calle Porcuna
36000.0,flat,53.0,2,1,37.84385,-3.06684,"calle D Luis Gutierrez de Caviedes, 1"
36000.0,flat,65.0,2,1,38.0969512,-3.6429656,calle Labrador
36000.0,flat,53.0,2,1,37.8436845,-3.0649501,calle D Luis Gutierrez de Caviedes
36000.0,chalet,162.0,4,2,38.113014,-3.0885884,"calle Cardenal Benavides, 52"
36000.0,flat,151.0,3,2,38.2775128,-3.610885,La Carolina
36000.0,flat,63.0,3,2,37.8433373,-3.0650482,Quesada
36000.0,flat,70.0,2,1,37.7659931,-3.7912489,San Felipe - El Almendral - La Merced
36000.0,flat,121.0,1,1,38.100353,-3.6333397,Linarejos
36000.0,countryHouse,150.0,4,1,37.68335,-3.37007,"calle Calvario, 10"
36000.0,chalet,84.0,3,1,37.8471406,-3.0664424,Quesada
36000.0,flat,95.0,3,1,38.2285266,-3.6305745,calle Constitucion
36000.0,countryHouse,135.0,4,1,37.6745727,-3.5670777,"calle Alamos, 3"
36000.0,flat,100.0,3,2,38.1689186,-3.0083032,"calle san francisco, 10"
36000.0,chalet,150.0,3,1,37.6480579,-3.4561456,"calle La Cárcel, 9"
36000.0,chalet,172.0,9,1,37.6494748,-3.454434,"calle Gahona, 1"
36000.0,flat,100.0,3,1,38.1144196,-3.0891465,"ramon y cajal, 4"
36000.0,chalet,50.0,2,1,37.6422406,-3.929372,"El Pilar de Reyes, 3"
36000.0,countryHouse,140.0,3,1,37.5891689,-3.8137885,"calle Ancha, 20"
36100.0,chalet,100.0,3,2,37.7704067,-3.7972617,"carretera de Circunvalación, 19 , - Cesi"
36900.0,flat,90.0,2,1,37.7651632,-3.9581011,"calle Herrería, 3"
36900.0,chalet,200.0,3,1,38.1722053,-3.7728845,Baños de la Encina
37000.0,chalet,400.0,5,2,37.6760446,-3.5659923,calle San Marcos
37000.0,flat,60.0,1,1,37.7670661,-3.7924843,"calle Almendros Aguilar, 38 -48"
37000.0,chalet,428.0,6,3,37.847888,-3.0654209,calle de la Era Empedra
37000.0,flat,78.0,3,1,38.1035643,-3.6194252,paseo de la Alameda
37000.0,flat,85.0,3,1,38.102962,-3.6286985,calle Río Guarrizas
37000.0,chalet,80.0,4,2,38.1652671,-3.0067141,"calle Bernardo López, 16"
37000.0,chalet,428.0,6,2,37.8477175,-3.0645633,calle Miguel Cervantes
37000.0,countryHouse,250.0,5,1,37.5902984,-4.0864961,"calle Carnicería, 14"
37000.0,countryHouse,300.0,1,1,37.8404906,-3.0646819,"calle Poligono 14, 273"
37100.0,flat,100.0,3,1,38.2771255,-3.6138636,calle Floridablanca
37900.0,countryHouse,130.0,3,1,38.2452094,-3.2062488,"calle Escultor Higueras, 60"
37900.0,flat,70.0,3,1,38.0425009,-4.0563268,Andújar
37999.0,flat,90.0,3,1,38.1086705,-3.6387102,travesía Gonzalo de Berceo
38000.0,flat,98.0,3,1,38.0327935,-3.294907,calle España
38000.0,chalet,189.0,3,1,38.046554,-4.0482872,calle Verbena
38000.0,flat,115.0,3,1,38.2731181,-3.6170715,"Ondeanos, 22"
38000.0,chalet,144.0,5,1,38.18598,-3.3128,"calle San Gregorio, 16"
38000.0,chalet,202.0,3,2,38.2501474,-3.2046358,calle Paco Clavijo
38000.0,chalet,139.0,4,1,37.7468832,-3.9122594,camino Alto
38000.0,flat,84.0,3,1,37.7476495,-3.9165049,calle Virgen de la Cabeza
38000.0,flat,90.0,3,1,38.0965094,-3.7718525,"calle San José, 1"
38000.0,chalet,116.0,3,1,38.0122307,-3.3644889,calle Madroñal
38000.0,chalet,202.0,3,2,38.2490145,-3.2041969,calle Paco Clavijo
38000.0,countryHouse,240.0,4,3,37.64965,-3.46054,"calle Buenavista, 5"
38000.0,flat,48.0,1,1,37.9702778,-3.8078467,carretera de Espeluy
38000.0,chalet,147.0,3,1,38.1858881,-3.3105261,calle Quevedo
38000.0,chalet,105.0,1,1,38.1047099,-3.6355061,calle Madroño
38000.0,flat,83.0,2,1,38.0991527,-3.6269367,Linarejos
38000.0,countryHouse,175.0,4,2,38.41557,-2.67626,"calle Velazquez, 15"
38000.0,flat,71.0,3,1,38.093401,-3.6244197,San Gonzalo
38000.0,chalet,132.0,8,4,37.7629058,-3.7936223,San Felipe - El Almendral - La Merced
38000.0,flat,79.0,2,1,37.970694,-3.8057229,calle Bailén
38000.0,duplex,290.0,3,2,38.1853111,-3.3152896,"calle Toriles, 6"
38000.0,flat,153.0,2,1,38.02218,-3.50079,"calle Luis Suarez, 29"
38000.0,flat,70.0,3,1,38.0888636,-3.6262957,"calle Núcleo Residencial la Paz, 26"
38000.0,flat,95.0,3,1,38.0971375,-3.779989,calle María Bellido
38000.0,countryHouse,112.0,0,0,37.98455,-3.52869,"calle Almeria, 1"
38000.0,chalet,200.0,4,1,38.0992379,-3.7761079,"calle Diecinueve de Julio, 60"
38000.0,chalet,140.0,3,1,37.8690623,-4.1871808,"calle Barrionuevo, 18"
38000.0,chalet,350.0,4,2,37.59021,-3.82055,"calle Sol, 12"
38088.0,chalet,183.0,3,1,38.1045371,-3.6353827,"travesía San Rafael, 13"
38500.0,chalet,96.0,3,1,38.0231211,-3.5062451,calle Jaén s/n
38500.0,chalet,236.0,3,2,37.48748,-3.83763,"plaza Rector Mudarra, 7"
38600.0,chalet,83.0,3,2,37.6854338,-3.8153014,"calle Molino del Rey, 112"
38900.0,flat,65.0,3,1,37.7605543,-3.7935302,ronda Astrónomo Al-Jayyani
39000.0,chalet,112.0,3,1,37.7678474,-3.7929465,Ctra. Circunvalación - La Magdalena
39000.0,chalet,112.0,4,2,37.7681355,-3.7952398,calle Alegría
39000.0,flat,56.0,3,1,38.101468,-3.6275903,calle Martínez de Úbeda
39000.0,chalet,124.0,3,1,38.275779,-2.8263723,Vía
39000.0,flat,70.0,2,1,37.7655192,-3.9557633,"calle la Salud, 20"
39000.0,chalet,180.0,3,2,37.5926927,-4.0856361,calle Pajarejos
39000.0,chalet,110.0,3,1,37.7263533,-3.9615391,plaza Fuente de la Villa
39000.0,flat,51.0,3,1,37.7709341,-3.793944,Ctra. Circunvalación - La Magdalena
39000.0,flat,104.0,3,1,38.0962334,-3.7763324,Bailén
39000.0,chalet,382.0,3,1,38.2747359,-3.6262725,"calle Minas, 68"
39000.0,flat,80.0,3,1,38.0148535,-3.3676982,calle Mariscal Robledo s/n
39000.0,chalet,149.0,6,1,37.588647,-3.8153009,Valdepeñas de Jaén
39000.0,flat,127.0,3,1,38.0949671,-3.7756451,Bailén
39000.0,flat,150.0,3,2,38.2775408,-3.6093059,"calle Campomanes, 5"
39000.0,chalet,77.0,2,1,38.0935495,-3.642266,"calle Áurea Galindo, 37"
39000.0,chalet,76.0,4,1,37.7634045,-3.792569,calle Obispo Arquellada
39000.0,chalet,271.0,4,1,38.1024925,-3.6329206,Arrayanes
39000.0,countryHouse,176.0,6,1,37.91109,-3.66274,"plaza Andalucia, 6"
39000.0,penthouse,100.0,3,1,38.0985979,-3.779341,"calle Diecinueve Julio, 92"
39000.0,chalet,115.0,3,2,38.0430178,-4.0584923,"calle Angosturas, 79"
39000.0,chalet,112.0,3,1,37.7676959,-3.794047,calle Alegría
39000.0,flat,104.0,3,1,38.0959534,-3.7737817,calle Conde de Torreanaz
39000.0,flat,105.0,3,1,38.0987907,-3.774901,calle Doctor Fleming
39000.0,studio,45.0,0,1,38.2955994,-2.6522169,"calle Postigo, 1"
39000.0,penthouse,120.0,3,1,38.3150049,-2.661847,"avenida de Andalucia, 11"
39000.0,chalet,183.0,0,0,37.8430634,-3.3534332,"calle Ramón y Cajal, 21"
39000.0,chalet,160.0,6,2,37.48284,-3.8403331,"calle Cruz, 2"
39000.0,chalet,41.0,1,1,37.7636514,-3.9565324,Torredonjimeno
39000.0,chalet,100.0,3,1,37.7248424,-3.9669291,"Llana baja, 73"
39000.0,chalet,176.0,6,1,37.9111559,-3.6627847,"plaza de Andalucía, 6"
39000.0,countryHouse,76.0,3,1,37.5896692,-4.0839304,"calle Llanete San Francisco, 28"
39000.0,chalet,160.0,3,2,37.7062497,-3.2848598,"calle Antolinos, 39"
39200.0,flat,101.0,3,2,38.0970988,-3.7797872,"avenida Manolo Gómez Bur, 48"
39200.0,flat,85.0,3,1,38.0949647,-3.7796615,avenida Manolo Gómez Bur
39300.0,chalet,58.0,2,1,38.0445176,-4.0532228,Andújar
39400.0,flat,87.0,3,1,38.0378141,-4.0562765,Andújar
39400.0,flat,79.0,2,1,37.7847577,-3.5098997,paseo de San Isidro
39400.0,flat,78.0,3,1,37.7858072,-3.6151795,calle de las Animas
39400.0,flat,79.0,2,1,37.7826978,-3.5074172,paseo de San Isidro
39400.0,flat,79.0,3,1,37.7869809,-3.6149635,calle de las Animas
39500.0,chalet,250.0,4,3,37.7662374,-3.7936703,"calle Capitán Aranda Alta, 12 A"
39500.0,chalet,150.0,3,1,37.7190121,-3.9676505,COBATILLAS ALTAS
39700.0,chalet,150.0,3,1,38.0226363,-3.5027564,"calle Monja, 6"
39800.0,chalet,102.0,3,2,37.70181,-3.2869268,"calle Antonio Machado, 23"
39900.0,flat,100.0,2,1,37.7845082,-3.5091145,paseo de San Isidro
39900.0,chalet,165.0,3,1,37.725438,-3.9662713,Martos
39900.0,flat,133.0,4,2,38.0413729,-4.0579893,"calle Jesús María, 9"
39900.0,flat,110.0,3,1,38.025637,-3.1003605,carretera de Cazorla s/n
39999.0,chalet,250.0,3,2,37.5893576,-3.8156705,"calle Pendiente, 9"
40000.0,chalet,136.0,3,2,38.2859037,-3.5856936,calle Álamos
40000.0,chalet,96.0,3,1,38.1014247,-3.6457879,calle Albacete
40000.0,countryHouse,135.0,7,2,37.8437133,-3.069818,"cuesta de las Chocillas, 40"
40000.0,chalet,90.0,3,2,38.0840206,-3.6183781,calle Córdoba
40000.0,chalet,252.0,4,2,37.7655133,-3.7915455,calle Capitán Aranda Alta
40000.0,chalet,224.0,5,1,38.2433099,-3.0504244,avenida Juan Carlos I
40000.0,flat,96.0,3,1,38.0948584,-3.6321963,calle Joaquín Ruano
40000.0,flat,93.0,3,1,37.7852318,-3.6048068,Mancha Real
40000.0,flat,100.0,3,2,38.3540114,-2.7399939,"travesía Doctor Martínez Ruiz, 1"
40000.0,countryHouse,300.0,9,2,38.2829936,-2.8314029,JA-9115 s/n
40000.0,chalet,161.0,4,2,37.6922948,-3.8175624,Los Villares
40000.0,flat,100.0,4,1,38.2530701,-2.8817177,calle Saenz de Quejana
40000.0,chalet,200.0,4,2,38.1708751,-3.0117998,calle Santa Teresa
40000.0,chalet,116.0,3,2,38.182156,-3.3172423,Navas de San Juan
40000.0,flat,90.0,3,1,37.7700389,-3.964843,"calle huelva, 1"
40000.0,countryHouse,90.0,3,1,37.79663,-4.15641,"calle Moreno Torres, 4"
40000.0,countryHouse,200.0,5,2,38.0038707,-3.9180261,"calle de San Cristobal, 37"
40000.0,chalet,80.0,3,2,37.8264896,-3.4104983,"calle Peñamarta, 7"
40000.0,countryHouse,178.0,4,2,38.0221318,-3.5019345,"calle Luis Suarez, 2"
40000.0,flat,120.0,4,2,38.2681431,-3.6214772,"calle Santo Reino, 2"
40000.0,chalet,170.0,4,1,38.0047885,-3.9151847,"calle doctor ochoa, 3"
40000.0,flat,170.0,4,1,37.70489,-2.93504,"calle Santa Ana, 10"
40000.0,countryHouse,799.0,1,1,38.0528608,-2.7182352,Paraje de los rincones s/n
40000.0,chalet,75.0,2,2,37.7706886,-3.7959633,"calle Llana de San Juan, 51"
40000.0,flat,110.0,3,1,38.20678,-3.50879,"calle San Marcos, 53"
40000.0,chalet,127.0,3,2,38.1834413,-3.3162838,Navas de San Juan
40000.0,flat,86.0,3,1,38.3492721,-2.7369236,"diseminados, 53"
40000.0,chalet,200.0,4,2,37.65223,-3.45959,"carretera Jaén, 9"
40000.0,chalet,150.0,5,1,37.5959991,-4.0844992,calle San Antón
40000.0,chalet,400.0,9,2,37.7852735,-3.5087774,"BALTASAR GARZON, 43"
40000.0,chalet,400.0,5,2,38.3490244,-2.7367257,"calle Maguillo, 2"
40000.0,countryHouse,150.0,7,2,38.41486,-2.67535,"calle ramón y cajal, 40"
40000.0,flat,70.0,2,2,37.5274694,-3.9394107,"calle Ramón y Cajal, 67"
40000.0,chalet,127.0,2,1,38.0122516,-3.3740962,"calle Niño, 6"
40000.0,chalet,80.0,3,1,38.1657559,-2.9999766,"calle María Luisa Ayuso, 12"
40000.0,countryHouse,95.0,2,1,38.0867341,-3.6221265,"calle Granada, 3"
40000.0,countryHouse,251.0,8,2,37.8779046,-3.1538107,"calle Toya, 1"
40000.0,chalet,160.0,3,2,38.2039266,-3.50814,"alto Plaza, 16"
40000.0,penthouse,85.0,3,1,37.9128578,-3.0022422,"cuesta Juan Domingo, 9"
40000.0,countryHouse,320.0,8,1,37.5919736,-4.0897135,"calle Campiña, 50"
40000.0,chalet,100.0,3,1,37.7400683,-3.6455101,"calle Baja Fuente, 50"
40000.0,flat,69.0,3,1,37.9752287,-4.1107845,"calle General San Martin, 3"
40000.0,countryHouse,120.0,3,1,38.00508,-3.91367,"calle Accesoria San Marcos, 6"
40000.0,chalet,160.0,5,3,38.31874,-2.6585899,"calle de los Pozos, 22"
40000.0,flat,109.0,3,1,38.2065351,-3.5069455,Vilches
40000.0,countryHouse,160.0,7,2,37.82146,-3.41158,"calle garcía y galán, 24"
40000.0,countryHouse,130.0,6,2,37.5262656,-3.9439872,"calle Vicente Aleixandre, 27"
40000.0,countryHouse,220.0,4,2,38.3109809,-3.0427686,"calle Parras Bajas, 20"
40000.0,countryHouse,140.0,4,1,38.0451877,-4.1697642,"calle Iglesia, 22"
40000.0,countryHouse,279.0,5,2,38.4302186,-2.7338146,"Del horno, 21"
40000.0,chalet,90.0,4,2,37.9284537,-3.3659131,"ronda del Donadío, 18"
40000.0,flat,60.0,2,1,38.0459841,-4.1693649,"calle Nuestra Señora de la Paz, 1"
40000.0,countryHouse,100.0,3,1,38.3894438,-2.579012,calle Feria s/n
40000.0,countryHouse,170.0,5,2,37.9136907,-3.1241861,"calle del Maestro Rufo Chacon, 10"
40000.0,chalet,200.0,7,3,37.78558,-3.51022,"calle Andres Segovia, 4"
40000.0,countryHouse,150.0,4,1,38.2736162,-3.622552,"calle Juan Bautista, 6"
40000.0,flat,80.0,3,1,37.8784076,-4.0311913,"avenida de Andalucía, 29"
40200.0,chalet,266.0,5,3,37.9676978,-3.8053061,calle Espronceda
40300.0,flat,117.0,4,2,38.2707708,-3.6181798,calle Peral
40300.0,chalet,72.0,3,1,37.8495552,-3.3520691,calle Pérez Galdós s/n
40300.0,flat,127.0,4,1,38.2727434,-3.6175279,calle Peral
40900.0,chalet,110.0,3,0,38.18278,-3.31687,"calle Lorite, 34"
40999.0,duplex,75.0,2,1,38.2737302,-2.7173259,"calle Arcos, 2"
41000.0,chalet,132.0,3,2,37.5896566,-4.0838567,calle Baja
41000.0,flat,89.0,3,2,38.1120918,-3.6317822,plaza Hermanos Álvarez Quintero
41000.0,flat,87.0,3,1,38.0438753,-4.0494737,avenida Santo Reino
41000.0,chalet,172.0,7,0,38.3478597,-2.7359082,"calle la Rivera, 16"
41000.0,flat,104.0,2,1,37.98405,-3.5325,"paseo Doctor Revuelta, 21"
41000.0,chalet,36.0,2,1,37.7651831,-3.7911226,calle Bazo
41000.0,countryHouse,160.0,4,2,38.083118,-2.6054388,"Aldea los teatinos, 32"
41000.0,flat,85.0,3,1,38.0443182,-4.0458269,Andújar
41100.0,flat,65.0,2,1,38.0919115,-3.6469817,"avenida de Andalucía, 78"
41200.0,chalet,172.0,5,1,37.8687603,-4.1873247,"calle Cruz de la Monja, 6"
41200.0,flat,78.0,2,1,37.9677529,-3.8061995,"calle Moral Fernández, 10"
41300.0,chalet,426.0,3,2,37.5905205,-4.0865548,calle San Marcos
41400.0,flat,90.0,4,2,38.2699881,-3.6158539,calle Silvela
41400.0,flat,90.0,4,2,38.2735114,-3.6160708,calle Silvela
41600.0,flat,83.0,3,1,37.7637762,-3.9503918,avenida Andalucía
41600.0,flat,83.0,3,1,37.7648436,-3.9521191,avenida Andalucía
41800.0,chalet,89.0,3,2,37.7038533,-3.2869829,"calle Virgencica, 3"
41800.0,chalet,120.0,3,2,38.0100656,-3.3660863,calle Llana de San Millán
41900.0,countryHouse,140.0,3,2,37.7069219,-2.9328926,"calle Parras, 33"
41900.0,countryHouse,280.0,4,2,37.84088,-3.0708,"calle Pintor Rafael Hidalgo de Caviedes, 8"
42000.0,flat,76.0,2,1,38.0143309,-3.3823812,calle Federico García Lorca
42000.0,flat,80.0,3,1,38.0976949,-3.6046037,calle Úbeda
42000.0,flat,59.0,2,1,37.7593857,-3.7963424,calle Almodóvar
42000.0,flat,103.0,1,1,38.2495267,-3.2001632,avenida de Andalucía
42000.0,chalet,140.0,4,2,37.7861744,-3.616982,calle Tosquilla
42000.0,flat,86.0,3,1,38.0853744,-3.6258918,paseo Marqueses de Linares
42000.0,flat,103.0,3,1,38.2499137,-3.2025995,avenida de Andalucía
42000.0,chalet,59.0,1,1,38.04379,-4.0604532,"calle San Marcos, 3"
42000.0,flat,88.0,3,1,37.7202424,-3.9684078,"calle Campiña, 11"
42000.0,chalet,56.0,2,1,38.084244,-3.6211044,calle Descalzas
42000.0,chalet,105.0,3,1,37.5927871,-4.0904433,"avenida la Paz, 40"
42000.0,flat,147.0,4,2,38.2667178,-3.6228022,La Carolina
42000.0,chalet,223.0,3,1,38.2742932,-3.6224753,calle Juan Bautista
42000.0,chalet,166.0,3,2,38.3387874,-3.5405299,calle Severo Ochoa
42000.0,chalet,174.0,4,1,38.1029061,-3.6349184,Arrayanes
42000.0,flat,70.0,1,1,37.6486257,-3.4507149,"calle El Olivo, 2"
42000.0,flat,99.0,3,1,38.2732991,-3.6156223,"calle Pedro Delgado, 1"
42000.0,chalet,84.0,2,1,38.0307923,-3.2864762,calle Parque Peroxil s/n
42000.0,chalet,218.0,6,1,37.5272,-3.94122,"calle Ramón y Cajal, 16"
42000.0,chalet,56.0,2,1,38.0821025,-3.6214133,calle Descalzas
42000.0,chalet,110.0,2,1,38.0971712,-3.7727951,calle Frentona s/n
42000.0,flat,85.0,3,1,38.0989739,-3.7803488,"calle Guardia Civil, 3"
42000.0,chalet,200.0,5,1,37.9832899,-3.53429,"calle de Francisco López, 20"
42000.0,countryHouse,400.0,4,1,38.3477822,-2.7387102,"calle de San Blas, 6"
42000.0,countryHouse,90.0,3,1,38.1178271,-2.6701259,"Rambla, 25"
42000.0,countryHouse,90.0,2,1,37.7638047,-3.7960521,calle de Puerto Alto s/n SN
42000.0,chalet,73.0,3,1,37.9385483,-4.0535602,"calle San Cristóbal, 9"
42000.0,chalet,56.0,2,1,38.083903,-3.6221271,calle Descalzas
42000.0,chalet,195.0,4,1,38.2485546,-3.2075937,"calle Sagunto, 12"
42000.0,flat,160.0,4,1,38.02858,-3.09855,"calle de Montoro, 39"
42000.0,countryHouse,126.0,4,2,38.0246586,-3.505577,"calle Prado, 5"
42000.0,flat,80.0,5,1,37.7848027,-3.6076729,"calle Castilla, 14"
42000.0,chalet,250.0,4,2,37.541033,-3.99454,"calle la Era, 1"
42000.0,chalet,250.0,4,2,37.5899259,-3.8170259,"calle Cristo, 26"
42100.0,chalet,88.0,6,3,37.7127985,-2.9986721,carretera de Huesa
42100.0,chalet,88.0,6,3,37.7155869,-2.9981242,carretera de Huesa
42200.0,flat,123.0,4,2,38.2768981,-3.6085786,calle Campomanes
42200.0,flat,123.0,4,2,38.2797517,-3.6086402,calle Campomanes
42400.0,flat,93.0,2,1,38.0404646,-4.0467346,calle Doctor Torres Laguna s/n
42500.0,flat,118.0,3,2,38.1024442,-3.6254109,calle Río Grande
42500.0,flat,118.0,3,1,38.0996552,-3.6249418,calle Río Grande
42500.0,flat,118.0,3,1,38.1024062,-3.6246668,calle Río Grande
42600.0,flat,88.0,3,1,37.7192395,-3.9694276,calle Campiña
42800.0,countryHouse,88.0,2,1,37.53852,-3.99674,"calle de la parra, 26"
42900.0,chalet,100.0,2,1,37.541033,-3.99454,- s/n
42999.0,chalet,110.0,4,1,38.0211079,-3.6139863,calle Torreblascopedro
43000.0,chalet,102.0,2,2,37.7646447,-3.7918635,"calle Obispo Arquellada, 6"
43000.0,chalet,102.0,3,2,37.7661528,-3.7907113,calle Obispo Arquellada
43000.0,chalet,222.0,4,2,37.6765884,-3.5685049,calle Solana
43000.0,flat,88.0,3,1,38.1045756,-3.6348841,calle Miguel de Unamuno
43000.0,chalet,112.0,3,1,37.7241976,-3.3807363,calle Cervantes
43000.0,flat,98.0,4,2,37.7871178,-3.605824,calle Pintor Zabaleta
43000.0,chalet,208.0,4,2,37.67664,-3.56691,"Solana, 9"
43000.0,chalet,195.0,5,2,37.5564801,-3.6347456,"calle Hermanos Martinez Roman, 20"
43000.0,flat,111.0,3,1,38.0949095,-3.7735483,calle Conde de Torreanaz
43000.0,flat,85.0,3,1,38.0435019,-4.0482402,Andújar
43000.0,chalet,147.0,4,2,37.589203,-4.0845236,JUAN MONTILLA
43000.0,flat,100.0,3,1,38.2790392,-3.6087139,calle Floridablanca
43000.0,flat,100.0,3,1,38.2803802,-3.6107724,calle Floridablanca
43000.0,chalet,100.0,3,1,37.9714663,-4.1061194,"calle Huertas, 35"
43000.0,chalet,97.0,4,1,38.1059938,-3.6392582,"calle Brasil, 4"
43000.0,flat,85.0,3,1,37.7693663,-3.9629507,Torredonjimeno
43000.0,flat,100.0,3,1,38.2796199,-3.6096911,calle Floridablanca
43000.0,flat,70.0,2,1,38.0405239,-4.0485745,"calle Emperador Trajano, 25"
43000.0,chalet,89.0,5,2,38.2455673,-3.2126312,calle San Sebastián
43000.0,flat,112.0,4,2,38.2755949,-3.6175331,"calle del Campo, 10"
43000.0,chalet,100.0,3,1,38.0444092,-4.1661533,"calle de la Luna, 6"
43000.0,flat,125.0,4,1,38.0969098,-3.6369803,"calle Barriada de la Paz, 21 A"
43700.0,flat,79.0,2,2,37.7859081,-3.5997985,calle Pintor Sorolla
43900.0,chalet,127.0,2,1,38.0134698,-3.3739803,Ubeda
44000.0,flat,115.0,2,2,38.2740088,-3.6125607,"avenida Juan Carlos I, 24"
44000.0,flat,131.0,4,2,37.7087541,-2.929164,"calle Barranco, 73"
44000.0,chalet,159.0,2,1,37.9670418,-3.8100025,calle ALTA s/n o GARCÍA MORATO s/n
44000.0,flat,104.0,3,1,38.0965001,-3.7747351,"calle Torreanaz, 13"
44000.0,flat,104.0,3,1,38.0944754,-3.7749789,calle Conde de Torreanaz
44000.0,chalet,72.0,3,1,38.1866825,-3.310778,calle Luna s/n
44000.0,chalet,114.0,2,2,37.7020328,-2.9340808,"calle jaén, 43"
44000.0,chalet,119.0,4,1,37.7876835,-3.6137078,calle Cervantes
44000.0,flat,76.0,3,1,37.7782583,-3.8013827,calle Virgen de la Paloma
44000.0,chalet,195.0,3,2,37.5289196,-3.9441772,Castillo de Locubin
44000.0,countryHouse,220.0,4,2,37.59022,-3.82161,"calle Patin, 4 N"
44000.0,chalet,100.0,2,2,37.4634892,-3.9245421,Alcalá la Real
44000.0,flat,92.0,3,1,37.9686575,-3.8026642,"calle General Reding, 24"
44000.0,chalet,206.0,3,1,38.0440611,-4.0487828,calle Verbena
44000.0,chalet,120.0,3,2,38.1031919,-3.6440222,calle Soria
44000.0,chalet,98.0,4,1,37.7860857,-3.6137383,calle Cervantes
44000.0,flat,90.0,3,1,38.1144868,-3.0926729,"avenida Andalucía, 76"
44000.0,flat,80.0,2,1,37.7653867,-3.9541497,"avenida de la paz, 39"
44000.0,flat,156.0,3,2,38.2757364,-3.6173194,"calle del Campo, 4"
44000.0,chalet,80.0,3,1,37.5271837,-3.9413043,"calle rosales, 8"
44000.0,chalet,201.0,4,2,37.5907582,-3.8166887,"calle San Blas, 5"
44100.0,flat,133.0,2,2,38.2782582,-3.6147557,"león merino, 15"
44100.0,flat,138.0,4,2,38.2777708,-3.616314,La Carolina
44200.0,chalet,149.0,3,1,37.7697257,-3.8952525,calle Albaicín
44500.0,flat,75.0,3,1,37.7731925,-3.8987212,Torredelcampo
44500.0,chalet,190.0,3,2,37.9949523,-3.4710614,calle Puerta
44900.0,chalet,113.0,2,1,37.764682,-3.792365,calle Bazo
44900.0,flat,130.0,3,1,38.1695754,-3.0064317,"La cruz, 2"
45000.0,chalet,75.0,2,1,38.0368751,-3.282483,"avenida de Cazorla, 51"
45000.0,countryHouse,264.0,5,2,38.1714827,-3.0107425,calle Palacio
45000.0,flat,55.0,3,1,37.7708431,-3.7977137,Ctra. Circunvalación - La Magdalena
45000.0,chalet,160.0,6,2,37.9988043,-3.5465413,calle Ramón Y Cajal
45000.0,flat,85.0,2,1,38.0946037,-3.6410854,calle Álamos
45000.0,chalet,156.0,3,2,37.5258057,-3.941796,"calle Calzada, 19"
45000.0,flat,63.0,2,1,38.0927528,-3.6441607,"Aurea Galindo, 67"
45000.0,chalet,130.0,3,2,37.7511454,-3.9139194,calle Juan XXIII
45000.0,studio,57.0,0,1,37.7722199,-3.7954463,calle Juanito el Practicante
45000.0,chalet,180.0,5,1,37.7678456,-3.7948501,calle Positillo
45000.0,flat,74.0,2,1,37.7637381,-3.9485138,calle Guadalquivir
45000.0,flat,94.0,2,1,38.2523333,-2.8879114,calle la Feria
45000.0,countryHouse,17.0,1,1,38.1446064,-3.6112111,Urbanización las Encinas
45000.0,chalet,196.0,4,1,37.7824728,-3.6147557,"calle Tosquilla, 116"
45000.0,countryHouse,182.0,3,1,38.0371269,-3.2858536,"calle Prim, 19"
45000.0,chalet,120.0,3,1,38.1117407,-3.0854957,"calle Emilio Castelar, 9"
45000.0,chalet,84.0,3,2,38.2669314,-3.6225303,La Carolina
45000.0,chalet,101.0,3,1,38.3110895,-3.0428417,Chiclana de Segura
45000.0,countryHouse,213.0,8,2,37.6346291,-3.6410587,"plaza de la Constitución, 6"
45000.0,chalet,156.0,3,2,37.5247294,-3.9407881,Castillo de Locubin
45000.0,flat,57.0,2,1,37.7711875,-3.7972414,calle Juanito el Practicante
45000.0,countryHouse,100.0,5,2,38.0693153,-3.3062504,"calle de San Miguel, 14 Nmero"
45000.0,chalet,120.0,4,1,37.7017896,-4.1147247,Martos
45000.0,flat,98.0,3,1,38.0345187,-3.2950117,"calle España, 28 A"
45000.0,flat,100.0,4,2,37.7636039,-3.9520806,Torredonjimeno
45000.0,chalet,116.0,3,1,38.0151064,-3.3692069,plaza de los Carreteros
45000.0,chalet,108.0,2,1,37.7227422,-3.9684976,Martos
45000.0,chalet,169.0,2,1,38.3517984,-2.8000071,calle Pedronares
45000.0,chalet,169.0,2,1,38.3503362,-2.7992138,calle Pedronares
45000.0,chalet,156.0,3,2,37.5246973,-3.9425583,calle Calzada
45000.0,chalet,250.0,7,2,38.3823471,-2.583672,"calle Ejido, 6"
45000.0,countryHouse,159.0,3,1,37.7986647,-4.157135,"avenida de Andalucia, 1"
45000.0,flat,130.0,3,1,37.5273552,-3.9419459,"paseo de la Constitución, 11"
45000.0,countryHouse,90.0,2,1,37.9093938,-3.0005673,"calle José Salcedo Cano, 34"
45000.0,chalet,70.0,2,1,38.1036995,-3.6223856,Linarejos
45000.0,flat,102.0,3,2,38.2546141,-2.8869846,"San Juan de la Cruz, 3"
45000.0,chalet,402.0,4,2,37.9830973,-3.8803324,"calle Ancha, 38"
45000.0,flat,145.0,6,2,37.6459649,-3.4574276,"calle Ramón y Cajal, 106"
45000.0,flat,80.0,3,1,37.6488947,-3.4566908,IGLESIA
45000.0,flat,72.0,3,1,37.7692576,-3.9592428,Torredonjimeno
45000.0,flat,85.0,3,1,38.041675,-4.0476616,Sector Huelva
45000.0,chalet,110.0,3,1,37.5906832,-4.0886225,avenida la Paz
45000.0,flat,71.0,2,1,37.9732567,-4.104145,"calle Molinos, 2"
45000.0,flat,220.0,1,1,37.6715472,-2.9695484,"avenida Pozo Alcón, 26"
45000.0,studio,87.0,0,1,37.9690249,-3.809508,"calle Real, 4"
45000.0,chalet,100.0,3,1,38.2089812,-3.5079264,"calle virgen el castillo, 8"
45000.0,flat,77.0,3,1,38.0195134,-3.3669814,"calle Ballesteros, 21"
45000.0,flat,85.0,3,1,38.0977276,-3.7730307,calle Baeza
45000.0,countryHouse,130.0,3,1,37.7008263,-4.1146724,"calle Niño Jesús, 27"
45000.0,flat,86.0,3,2,38.1048016,-3.6199825,"plaza Julián Jiménez, 3"
45000.0,chalet,190.0,1,1,38.11766,-2.66995,"avenida de la Democracia, 24 d"
45000.0,chalet,180.0,5,2,37.6774797,-3.5652275,"calle del Carmen, 11"
45000.0,chalet,180.0,4,1,38.24638,-3.20779,"calle Cádiz, 15"
45000.0,countryHouse,210.0,6,2,38.3867243,-2.5835507,"calle Chorrillo, 2"
45000.0,chalet,153.0,2,2,37.7403702,-3.6464552,"calle Alta Fuente, 51"
45000.0,flat,94.0,4,1,37.7664505,-3.9519548,Torredonjimeno
45000.0,flat,90.0,4,1,38.0846057,-3.6249831,"calle Núcleo Residencial la Paz, 44"
45000.0,flat,90.0,3,2,37.7632339,-3.9483309,Torredonjimeno
45000.0,flat,117.0,3,1,37.82173,-3.41426,"calle Rafael Moreno Navarro, 19"
45000.0,flat,85.0,3,1,38.0936636,-3.7767729,Bailén
45000.0,flat,67.0,3,1,38.0964482,-3.7778395,Bailén
45000.0,flat,170.0,4,2,38.0958627,-3.7751233,CENTRO
45000.0,chalet,207.0,6,2,37.5271837,-3.9413043,"paseo del Generalisimo, 10"
45000.0,chalet,190.0,6,2,37.6839074,-3.3693765,"plaza de la Constitucion, 8"
45000.0,countryHouse,150.0,4,2,38.3166106,-2.6612921,"calle Wenceslao de la Cruz, 50"
45000.0,flat,70.0,4,1,38.0996762,-3.6270274,"calle Obispo Álvarez Lara, 33"
45000.0,chalet,200.0,0,0,37.52826,-3.94236,"avenida Virgen de la Cabeza, 54"
45000.0,chalet,80.0,2,1,37.9075943,-3.0002265,"travesía Hoz, 14"
45100.0,chalet,171.0,3,1,37.5278945,-3.9404378,calle de la Independencia
45500.0,chalet,120.0,2,1,37.5277,-3.93991,"calle Veracruz, 40"
45500.0,chalet,95.0,3,1,38.0866589,-3.619835,calle Sevilla
45500.0,chalet,230.0,4,2,37.7068114,-2.9337792,"calle Ballesta, 3"
45500.0,flat,89.0,3,1,38.100702,-3.6264316,calle Obispo Álvarez Lara
45800.0,flat,111.0,4,2,37.7639813,-3.9532718,"calle Real, 71"
45800.0,flat,110.0,4,2,37.7623813,-3.9542718,calle Real
46000.0,flat,101.0,3,1,37.7621071,-3.9498353,calle Velázquez
46000.0,flat,64.0,2,1,38.10141,-3.6350949,travesía Masegosas
46000.0,chalet,286.0,5,1,37.9962686,-3.4640034,calle Niño Jesús
46000.0,flat,71.0,2,1,38.10241,-3.63576,"travesía Masegosas, 23"
46000.0,flat,71.0,2,1,38.10225,-3.63753,"camino Masegosas, 1"
46000.0,flat,72.0,2,1,38.1011052,-3.6346575,travesía Masegosas
46000.0,flat,93.0,3,1,38.097249,-3.6281971,calle Manuel Lozano Garrido
46000.0,chalet,120.0,3,1,37.9712748,-3.8082965,"segura, 111"
46000.0,flat,89.0,3,1,38.0964569,-3.6306797,Manuel Lozano Garrido
46000.0,flat,90.0,3,1,37.8438951,-3.3521062,"calle Antonio Nieto, 5"
46100.0,chalet,576.0,5,1,37.5898003,-4.0844433,cuesta del Cerro
46500.0,flat,97.0,3,2,37.7675399,-3.9534727,"calle Legazpi, 72"
46500.0,flat,102.0,3,1,37.7675399,-3.9534727,"calle Legazpi, 72"
46500.0,flat,102.0,3,2,37.7673007,-3.954865,calle Legazpi
46500.0,chalet,260.0,4,1,37.5920884,-4.0887217,"calle Campiña, 26"
46600.0,chalet,112.0,3,1,37.7493181,-3.9128365,calle Parras
46810.0,flat,95.0,4,1,37.7233475,-3.975021,Martos
46900.0,chalet,121.0,2,1,38.3560061,-2.7986093,avenida de Albacete s/n
46900.0,chalet,141.0,4,1,38.037647,-3.2841136,calzada de la virgen
46900.0,chalet,95.0,3,2,38.1725295,-3.7735701,"calle Amargura, 4"
46900.0,countryHouse,198.0,7,1,37.8228828,-3.4113547,"calle Teniente Caballero, 2"
47000.0,chalet,143.0,3,1,37.7711106,-3.7957258,calle Llana de San Juan
47000.0,chalet,149.0,3,1,37.6460707,-3.9072583,"Estrella, 12"
47000.0,flat,41.0,2,1,37.7152649,-3.7605208,camino de las Huertas Grandes
47000.0,chalet,78.0,5,2,37.5298,-3.94365,"calle Ocón, 14"
47000.0,flat,130.0,5,2,38.0682513,-3.5902982,calle Santa Isabel
47000.0,flat,82.0,2,1,38.0944956,-3.6389614,calle Guillén
47000.0,flat,41.0,2,1,37.7136143,-3.7600701,camino de las Huertas Grandes
47000.0,chalet,79.0,4,1,38.0719733,-3.5906272,"calle Padre Casañas, 17"
47000.0,chalet,163.0,3,3,37.5298,-3.94365,"OCON, 14"
47000.0,chalet,160.0,3,1,37.768364,-3.7933128,"calle Positillo, 4"
47000.0,chalet,128.0,4,1,38.0284978,-3.1465419,Ubeda
47000.0,flat,83.0,2,1,38.0172132,-3.3691746,calle Veracruz
47000.0,chalet,247.0,5,2,37.7512043,-4.1713648,calle Ramiro Rivera
47000.0,flat,102.0,1,1,37.7201969,-3.9682201,"calle Campiña, 10"
47000.0,chalet,138.0,2,1,37.79287,-3.46543,"calle Eras, 11  y 78"
47000.0,flat,80.0,3,1,37.7620775,-3.9509598,"calle Padrenuestro, 71"
47000.0,chalet,349.0,3,2,37.4626159,-3.9230992,Alcalá la Real
47000.0,chalet,180.0,3,2,38.2472477,-3.2043415,calle Paco Clavijo
47000.0,chalet,140.0,3,2,38.1025563,-3.7713645,"calle San Luis, 17"
47000.0,countryHouse,1000.0,1,1,37.7664019,-3.7851703,"calle Vandelvira, 14"
47000.0,chalet,153.0,4,2,37.7072062,-2.9317777,"calle Barranco, 19"
47000.0,flat,94.0,3,1,37.7640073,-3.9513253,Torredonjimeno
47000.0,flat,83.0,3,1,37.7675732,-3.9522957,Torredonjimeno
47000.0,flat,90.0,3,1,38.1133542,-3.0964575,"carretera Córdoba-Valencia, 10"
47400.0,chalet,108.0,3,2,37.703542,-3.2901719,calle Huertas
47500.0,chalet,90.0,3,2,37.7719818,-3.7973355,calle Llana de San Juan
47500.0,chalet,161.0,5,1,37.52884,-3.93956,"calle de los Olivos, 20"
47500.0,chalet,130.0,3,1,37.6877218,-3.8162566,Los Villares
47500.0,flat,105.0,3,1,38.0994075,-3.7771979,"calle Victoria, 44"
47600.0,chalet,92.0,2,2,37.8425453,-3.3521859,calle Numancia s/n
47900.0,flat,75.0,2,1,38.0381688,-4.0589309,"paseo Real de la Feria, 26"
47999.0,flat,80.0,3,1,38.1063762,-3.6364654,calle Palacio Valdés
48000.0,chalet,112.0,3,2,38.1678273,-3.0014031,calle Maestro Turina
48000.0,flat,77.0,3,1,38.1033401,-3.6264972,calle del Río Guadalén
48000.0,chalet,153.0,2,1,38.1697626,-3.7737686,"calle de las Eras, 14"
48000.0,chalet,119.0,3,1,38.0689038,-3.3093844,Sabiote
48000.0,flat,107.0,4,1,38.0873708,-3.6259348,BARRIO DE LA PAZ
48000.0,countryHouse,95.0,4,2,37.7852735,-3.5087774,"avenida de Andalucía, 37"
48000.0,countryHouse,150.0,4,1,38.1695754,-3.0064317,"horno, 6"
48000.0,countryHouse,131.0,5,2,38.35277,-2.64983,"calle del Pilar, 25"
48000.0,chalet,70.0,2,1,37.9360639,-4.0532194,"Los santos, 7"
48000.0,chalet,120.0,3,2,37.7212283,-3.9645724,calle Madera
48000.0,flat,38.0,2,1,37.7787485,-3.7971567,"calle Jacinto Higueras, 3"
48000.0,flat,100.0,3,2,38.094313,-3.7728451,Bailén
48000.0,countryHouse,155.0,4,1,37.67696,-3.56619,"cuesta Solana, 32"
48000.0,chalet,90.0,4,1,38.0449522,-4.1692941,"Manuel maroto, 12"
48000.0,chalet,120.0,3,1,38.0999644,-3.6383288,"calle Calerin Bajo, 7"
48000.0,countryHouse,150.0,5,2,38.1707059,-3.0114712,"calle Colón, 48"
48000.0,chalet,180.0,3,2,38.02159,-3.61231,"calle Linares, 5"
48000.0,flat,90.0,3,1,38.2791024,-3.61064,"calle Iberia, 46"
48000.0,flat,120.0,3,1,37.7869247,-3.6080289,"calle Virgen del Rosario, 38"
48200.0,chalet,210.0,3,1,38.2089418,-2.9734905,calle San Fernando
48300.0,chalet,226.0,3,1,37.5903587,-4.0923562,calle Molinillos
48500.0,chalet,249.0,4,2,37.64979,-3.45451,"calle Mirabuenos, 79"
48500.0,flat,41.0,2,1,37.7804842,-3.7979685,Peñamefecit - Avda Barcelona
48600.0,flat,72.0,2,1,37.7871781,-3.6061523,avenida Juan Carlos I
49000.0,flat,103.0,3,2,38.0934878,-3.7721542,Bailén
49000.0,flat,103.0,3,2,38.0945377,-3.7707251,calle Manuel de Falla
49000.0,flat,250.0,5,1,37.5918252,-3.8180983,"calle Ladera, 39 -23"
49000.0,flat,119.0,3,1,38.0430902,-4.048542,avenida Santo Reino
49000.0,flat,114.0,3,2,38.0933316,-3.7727635,"calle Baeza, 86"
49000.0,flat,100.0,3,1,38.1039672,-3.6200615,avenida Primero de Mayo
49000.0,flat,97.0,2,2,38.0897297,-3.6299226,calle Santa Engracia
49000.0,chalet,62.0,1,1,38.0172951,-3.3671909,calle CRISTOBAL COLON
49000.0,chalet,120.0,1,1,38.1031022,-3.6352283,camino Madroñal
49000.0,chalet,150.0,3,1,37.785367,-3.6083736,calle Lecheras
49000.0,flat,90.0,3,1,37.9726406,-3.8055768,avenida Juan XXIII
49000.0,chalet,217.0,6,2,38.0047631,-3.9252769,calle Miguel Hernández
49000.0,flat,145.0,4,1,38.0949409,-3.7750058,ZONA CASA DE LA CULTURA s/n
49000.0,flat,104.0,2,1,38.1850586,-3.6840116,calle Diego Torregrosa
49000.0,chalet,152.0,3,1,38.1715525,-3.7735205,"cuesta de los Herradores, 1"
49000.0,flat,70.0,3,1,38.0862757,-3.6278922,BARRIADA DE LA PAZ
49000.0,countryHouse,160.0,2,1,38.2840312,-3.5852512,La Carolina
49000.0,chalet,172.0,3,1,38.1015038,-3.6414739,calle San Pedro
49000.0,countryHouse,102.0,4,3,38.25419,-3.12926,"calle Calvario, 41"
49000.0,countryHouse,250.0,8,2,37.9859225,-3.5355218,"calle Patrocinio de Biedma, 23"
49000.0,flat,90.0,3,1,37.7740855,-3.9022121,"paseo DE LA ESTACIÓN, 96"
49000.0,flat,134.0,3,1,38.2723381,-3.6172884,"avenida las Huertas, 34"
49000.0,chalet,80.0,4,1,37.7932541,-3.4657021,"calle Guadalquivir, 11"
49000.0,flat,90.0,3,1,37.9720798,-3.8078703,avenida Juan XXIII
49000.0,chalet,200.0,4,2,38.0258723,-3.1036433,"reyes católicos, 9"
49000.0,chalet,90.0,2,1,37.8353629,-3.3579717,"San José, 43"
49000.0,flat,80.0,3,1,37.5549229,-3.6357134,"plaza de la Legión, 4"
49200.0,flat,73.0,2,1,37.7867135,-3.6070082,avenida Juan Carlos I
49250.0,chalet,91.0,3,2,37.9669726,-3.8150363,calle Guadalimar
49400.0,flat,90.0,2,2,37.7861482,-3.6002872,calle Pintor Sorolla
49400.0,flat,89.0,3,2,37.7852506,-3.6000631,calle Pintor Sorolla
49400.0,flat,90.0,2,2,37.7848361,-3.6011167,calle Pintor Sorolla
49490.0,chalet,236.0,4,2,37.5912317,-4.08783,Alcaudete
49500.0,chalet,97.0,4,1,38.1831522,-3.3171218,calle Ejercito Español
49500.0,flat,100.0,3,1,38.1053622,-3.6202469,"avenida Primero de Mayo, 18"
49500.0,chalet,142.0,3,2,37.9710323,-3.8085402,"calle Murillo, 2 -10"
49800.0,flat,86.0,4,3,38.0934312,-3.6458104,avenida de Andalucía
49800.0,flat,80.0,3,1,38.0146726,-3.3678014,"calle Vista Alegre, 5"
49900.0,flat,113.0,4,1,38.0989667,-3.6338909,calle Bailén
49900.0,chalet,198.0,4,2,37.9973947,-3.4660053,Baeza
49900.0,chalet,152.0,4,2,37.7213185,-3.967724,Martos
49900.0,chalet,114.0,3,1,37.9859797,-3.5316318,Begijar
49900.0,countryHouse,150.0,3,2,37.4866445,-3.8381772,"calle nueva, 4"
49900.0,flat,82.0,1,1,37.720788,-3.7657721,puente de la Sierra
49900.0,flat,70.0,2,1,37.766766,-3.792528,Almendros Aguilar
49915.0,chalet,120.0,2,2,37.5290317,-3.6517108,"calle Canovas, 39"
49990.0,flat,75.0,3,1,37.7703424,-3.7938613,calle Juanito el Practicante
49998.0,chalet,90.0,3,2,38.0852566,-3.6197968,"calle Córdoba, 24"
49999.0,flat,85.0,3,1,38.1041781,-3.6264693,calle Río Grande
49999.0,flat,65.0,3,1,37.759614,-3.7961742,Alcantarilla - La Glorieta
49999.0,chalet,50.0,1,1,38.1392154,-3.5970381,Urbanización Llanos de la Encina
50000.0,flat,120.0,3,1,37.7470151,-3.9124271,calle Samuel Liebana
50000.0,flat,180.0,6,2,38.0946208,-3.776773,"calle Ramón y Cajal, 28"
50000.0,countryHouse,160.0,5,1,37.8437399,-3.07084,"calle el Teatro, 97"
50000.0,flat,87.0,3,1,38.0927069,-3.7793924,"calle Gerona, 1"
50000.0,flat,84.0,2,1,38.0310555,-3.2922284,calle Doctor Fleming
50000.0,flat,117.0,3,1,37.7225113,-3.9721981,MARCELINO ELOSUA s/n
50000.0,chalet,246.0,7,2,38.0116387,-3.3722709,calle Gradas
50000.0,flat,96.0,3,1,38.0462637,-3.4594542,calle tartesos
50000.0,chalet,267.0,6,1,38.3521103,-2.6521492,EL PILAR
50000.0,countryHouse,180.0,3,2,37.7595678,-3.03242,"calle Cueva del Agua, 94"
50000.0,flat,100.0,3,1,37.9692375,-3.8152529,calle Guadalimar
50000.0,flat,118.0,3,1,37.7225962,-3.9727195,"calle Marcelino Elosúa, 2 -30"
50000.0,chalet,126.0,3,2,37.9916812,-3.4657692,calle Andrés de Vandelvira
50000.0,flat,101.0,3,1,37.971629,-3.8076427,"carretera de Espeluy, 12"
50000.0,flat,62.0,2,1,37.771608,-3.8976739,"calle Cristóbal Colón, 4"
50000.0,chalet,95.0,2,2,38.0863824,-3.6189399,calle Córdoba
50000.0,chalet,120.0,4,2,38.1661049,-3.0017031,"calle San Isidro, 4"
50000.0,flat,110.0,3,2,38.3486844,-2.7383379,"calle De La Iglesia, 3"
50000.0,flat,106.0,3,1,37.7661228,-3.958831,Torredonjimeno
50000.0,flat,100.0,3,2,38.2527491,-2.8915869,"calle Angosto, 10"
50000.0,flat,75.0,3,1,37.7702701,-3.7975314,calle Juanito el Practicante
50000.0,flat,115.0,3,1,37.7248619,-3.3828706,Bélmez de la Moraleda
50000.0,chalet,246.0,3,1,38.1698526,-3.7735304,"calle de las Eras, 11"
50000.0,chalet,100.0,3,1,38.3175223,-2.9013862,"calle San Sebastian, 40"
50000.0,countryHouse,64.0,2,1,38.4589396,-2.6037964,"Aldea Onsares, 4"
50000.0,flat,76.0,3,1,37.7566393,-3.7936028,Alcantarilla - La Glorieta
50000.0,flat,140.0,4,1,38.1713084,-3.0099859,"calle San Pedro, 19"
50000.0,chalet,122.0,4,1,37.7408427,-3.6438343,"calle Agramaderos, 4"
50000.0,flat,140.0,4,1,38.1713084,-3.0099859,"calle San Pedro, 19"
50000.0,countryHouse,270.0,6,2,38.3462949,-2.7383773,"calle Doctor Martinez Ruiz, 17"
50000.0,countryHouse,252.0,6,1,37.7383328,-3.6396448,calle Real s/n
50000.0,chalet,130.0,2,2,37.7236356,-3.9682264,"calle Camarín, 11"
50000.0,chalet,267.0,5,2,38.0103049,-3.3746999,Ubeda
50000.0,countryHouse,165.0,4,2,38.3611099,-3.07607,"calle Nueva, 4"
50000.0,countryHouse,64.0,1,1,38.46149,-2.59753,"diseminado diseminados, 50"
50000.0,countryHouse,320.0,14,2,37.7602455,-3.0297083,"calle Cueva del Agua, 23"
50000.0,countryHouse,150.0,5,2,38.2482949,-2.8867368,camino del collado s/n
50000.0,countryHouse,320.0,14,2,37.7652402,-3.0197605,"Tiscar-Don Pedro, 44"
50000.0,chalet,250.0,4,2,37.8441131,-3.0682992,Quesada
50000.0,flat,96.0,4,1,37.7659126,-3.9519264,Torredonjimeno
50000.0,chalet,246.0,0,0,38.0099344,-3.3739744,calle Gradas
50000.0,chalet,157.0,5,2,38.068376,-3.5875204,"calle Esperanza, 15"
50000.0,flat,108.0,3,1,37.9715262,-3.8039909,"calle Bailén, 33"
50000.0,flat,100.0,3,1,38.0992963,-3.7815931,"pasaje Puerto Rico, 2"
50000.0,countryHouse,219.0,10,1,37.911903,-2.9997037,"calle Herrón, 1"
50000.0,chalet,114.0,4,1,38.1054379,-3.6408128,camino Masegosas
50000.0,chalet,226.0,4,1,37.93551,-4.0536199,"calle Mártires, 8"
50000.0,flat,100.0,3,1,38.0969094,-3.7797147,calle Almendral
50000.0,countryHouse,200.0,8,2,37.6497383,-3.4570562,"calle cabezas, 52  / 47"
50000.0,flat,70.0,3,1,38.1695005,-3.0080235,"calle Palma, 12"
50000.0,chalet,385.0,7,2,38.021385,-3.5019296,"calle aire, 7"
50000.0,countryHouse,150.0,8,2,37.7245202,-3.3794425,"avenida Blas Infante, 7"
50000.0,chalet,247.0,5,2,37.705641,-2.9359151,"cataluña, 34"
50000.0,chalet,90.0,3,2,37.64881,-3.46081,"calle Mesón, 17"
50000.0,flat,50.0,2,1,37.779623,-3.7966144,"plaza de la Igualdad, 22"
50000.0,countryHouse,282.0,4,2,37.5173059,-3.7748599,"Cortijo de Rigüelos, 1"
50000.0,chalet,195.0,7,1,37.7631647,-3.0789779,"calle Chinipa, 29"
50000.0,chalet,190.0,6,1,38.1829131,-3.688354,"calle Pósito, 3"
50000.0,countryHouse,105.0,6,2,38.0690812,-3.3052089,"calle Minas, 40"
50000.0,chalet,130.0,3,2,37.9432604,-4.2110462,"calle de Francisco Cobo Cruz, 7"
50000.0,chalet,159.0,3,2,37.7677108,-3.9656246,Torredonjimeno
50000.0,flat,97.0,3,2,37.9748227,-4.1037468,"calle Arrieros, 2"
50000.0,chalet,200.0,0,0,38.0369711,-3.288249,"calle Obispo Basulto, 110"
50000.0,countryHouse,70.0,2,1,38.33849,-3.72836,"calle Horno, 8"
50000.0,penthouse,122.0,4,1,37.7661234,-3.8966026,"Arenales, 22"
50000.0,countryHouse,190.0,2,2,37.5893631,-4.0819157,"calle Alta, 54"
50000.0,countryHouse,150.0,3,1,37.8796844,-4.0331733,"calle Nueva, 12"
50000.0,flat,90.0,3,1,38.2799979,-3.6103633,"calle León Merino, 87"
50000.0,chalet,200.0,2,1,38.2549248,-2.895471,"calle la Vid, 14"
50000.0,flat,60.0,2,1,37.7229278,-3.3818369,"calle de la Ermita, 1 , puerta B"
50000.0,countryHouse,100.0,3,2,38.0334727,-3.2917564,"calle Santiago, 17"
50000.0,chalet,80.0,2,1,38.1660893,-3.0003046,"calle el Niño, 22"
50000.0,chalet,122.0,3,1,38.0047885,-3.9151847,"calle Federico García Lorca, 3"
50000.0,flat,107.0,3,1,38.0255892,-3.0997324,"avenida Aguascebas, 8"
50000.0,chalet,182.0,4,1,37.7410204,-3.6483562,"calle Alta, 5"
50000.0,chalet,100.0,3,2,37.8473643,-3.0672049,"paseo de Santa Maria, 122"
50000.0,chalet,70.0,3,1,38.2464701,-2.7269853,"calle Alvarez de Castro, 3"
50000.0,chalet,200.0,4,1,38.170552,-3.0086988,"calle Miguel de Cervantes, 12"
50000.0,chalet,160.0,5,1,37.9523562,-3.5970475,"calle Batalla de Bailén, 15"
50000.0,countryHouse,210.0,4,3,38.4400696,-2.6864868,JA-9111 s/n
50000.0,chalet,75.0,3,1,38.2756632,-3.6219929,"calle San Teodoro, 7"
50000.0,countryHouse,160.0,4,1,38.3371993,-3.7300118,"calle la Purisima, 23"
50000.0,flat,90.0,3,1,37.7645802,-3.9581861,"calle Almazán, 3"
50000.0,flat,85.0,2,1,38.0981487,-3.6305741,"calle Velarde, 3 , Bajo DCH."
50000.0,chalet,80.0,4,1,38.1841876,-3.6877793,"calle las Eras, 31"
50000.0,flat,60.0,2,1,38.276511,-3.6140434,"calle Navas de Tolosa, 16"
50000.0,flat,110.0,3,1,38.34276,-3.53836,"avenida de Andalucía, 38"
50000.0,chalet,250.0,5,2,37.7593256,-3.0327413,"calle Cueva del Agua, 102"
50000.0,flat,95.0,3,1,38.1063315,-3.6367033,"calle Wenceslao Fernández Flores, 1"
50000.0,flat,67.0,2,1,37.9377178,-4.0527663,"calle del Pilar, 2"
50100.0,flat,101.0,3,1,38.0927564,-3.7712296,calle Manuel de Falla s/n
50500.0,flat,116.0,3,2,38.0404146,-4.0578791,calle Jesús María
50800.0,flat,135.0,3,1,38.0949844,-3.7716848,"calle Moredal, 88"
50900.0,flat,110.0,3,1,38.0389146,-4.0498027,Andújar
51000.0,chalet,110.0,3,1,38.1077292,-3.6417908,calle Cuba
51000.0,flat,104.0,3,2,37.457989,-3.9242725,calle Abén Zayde
51000.0,flat,85.0,3,1,38.1004085,-3.6303976,calle Gravina
51000.0,flat,177.0,4,2,38.0317564,-3.3161075,"carretera Córdoba-Valencia, 8"
51000.0,flat,104.0,3,1,37.4588419,-3.9221979,Aben Zayde
51000.0,flat,85.0,3,1,38.0991314,-3.6266894,calle Gravina
51000.0,countryHouse,90.0,2,1,38.1300724,-2.6904658,"Casas carrasco, 6"
51000.0,flat,84.0,3,1,37.7655133,-3.9588182,"calle San Pedro, 3"
51000.0,countryHouse,250.0,4,1,38.3185731,-2.6593795,"calle Horno Alto, 13"
51000.0,flat,108.0,3,2,37.7665443,-3.9556395,Torredonjimeno
51000.0,flat,99.0,3,1,37.7209727,-3.9735042,"calle Manuel Caballero, 20"
51100.0,flat,115.0,3,1,38.0978359,-3.6299995,calle Manuel Lozano Garrido
52000.0,flat,82.0,3,1,37.7712602,-3.795767,"calle Juanito el Practicante, 34"
52000.0,chalet,120.0,4,1,38.3401834,-3.7281687,Baños de la Encina
52000.0,chalet,184.0,4,1,37.7227973,-3.9685628,"calle Motril, 2"
52000.0,flat,67.0,3,1,37.7647481,-3.7933887,San Felipe - El Almendral - La Merced
52000.0,chalet,193.0,4,2,38.1008783,-3.7738116,travesía Independencia
52000.0,chalet,114.0,4,1,37.7658239,-3.791974,San Felipe - El Almendral - La Merced
52000.0,countryHouse,80.0,2,1,38.0884647,-2.6001368,Aldea los Atascaderos s/n sinnombreva
52000.0,flat,45.0,2,1,37.7792777,-3.7963202,plaza de la Igualdad s/n
52000.0,flat,90.0,4,1,38.0954924,-3.6344222,calle Zabala
52000.0,penthouse,110.0,3,1,38.16832,-3.00823,"calle Pedro Campos Campiña, 7"
52000.0,chalet,162.0,3,1,37.7696316,-3.7924429,San Bartolomé - Millán de Priego
52000.0,duplex,230.0,4,2,38.2509485,-2.887579,"calle las Tiendas, 42"
52000.0,flat,95.0,2,1,37.7450217,-3.6936027,calle Ramon y Cajal
52000.0,chalet,193.0,4,2,38.1005811,-3.7733595,calle Independencia
52000.0,chalet,148.0,3,1,38.0401762,-3.2839588,Pintor Zabaleta
52000.0,chalet,154.0,3,2,38.0389485,-3.2821885,"calle Pintor Zabaleta, 3"
52000.0,flat,50.0,1,1,38.2983477,-2.6514698,"calle del postigo, 35"
52000.0,flat,114.0,4,2,37.96779,-3.80968,"calle manuel de la chica saeta, 1"
52000.0,flat,77.0,3,1,38.019104,-3.3681502,calle Navas de Tolosa s/n
52000.0,chalet,100.0,4,2,37.7695849,-3.9561459,"calle Norte, 76"
52000.0,countryHouse,75.0,3,2,38.1818665,-3.6898631,Guarroman
52200.0,flat,124.0,3,2,38.0338286,-4.053826,calle Maestro Bernardo Estepa s/n
52300.0,flat,82.0,2,1,38.0333664,-4.0485152,calle Miguel Estepa Hermosilla
52499.0,flat,150.0,5,2,38.1149313,-3.087342,"plaza de la Constitución, 2"
52500.0,chalet,445.0,5,1,38.01898,-3.72388,"calle Cervantes, 8"
52500.0,chalet,141.0,5,1,37.7703808,-3.7955835,calle Reventón
52900.0,chalet,124.0,4,1,38.0948267,-3.6342991,Centro Ciudad
53000.0,flat,119.0,3,1,38.0970935,-3.777848,calle Isabel la Católica
53000.0,chalet,158.0,3,2,38.0092686,-3.3666871,calle Cervantes
53000.0,flat,116.0,3,2,38.0931844,-3.7724499,"calle Moredal, 4"
53000.0,flat,118.0,3,2,38.0958167,-3.7726998,calle Teatro s/n
53000.0,flat,185.0,4,1,38.2503699,-3.20151,"calle de Federico García Lorca, 16"
53000.0,flat,93.0,2,1,38.1151194,-3.0860792,"plaza Juan XXIII, 10"
53000.0,flat,185.0,4,1,38.2511121,-3.2011054,calle de Federico García Lorca
53000.0,chalet,106.0,5,2,37.7256794,-3.9653806,calle Llana Baja
53000.0,flat,140.0,3,1,38.0934528,-3.7734551,travesía Moredal
53000.0,chalet,165.0,4,1,38.1494012,-2.6921159,"Aldea la Ballestera, 31"
53000.0,chalet,120.0,3,2,38.1665668,-3.0069535,"calle Morales, 42"
53000.0,flat,110.0,4,2,38.2770233,-3.6100103,"calle Turriegel, 7  2ºB"
53000.0,chalet,140.0,3,1,38.0951601,-3.7765276,calle General Prin s/n
53200.0,chalet,175.0,3,1,38.1032788,-3.6364324,avenida de Arrayanes
53200.0,chalet,197.0,1,1,38.3536915,-2.6499935,"calle Carreterilla, 3"
53200.0,chalet,138.0,4,1,38.1116148,-3.635096,avenida de Arrayanes
53300.0,chalet,110.0,3,1,38.1045992,-3.6403555,calle Cuba
54000.0,flat,93.0,3,2,38.1008485,-3.6284004,calle Río Guadalimar
54000.0,countryHouse,85.0,5,2,37.9881701,-3.9922596,DOCTOR FLEMING
54000.0,chalet,94.0,3,2,37.9716564,-3.8012084,calle Magnolia
54000.0,flat,150.0,4,2,37.5892081,-4.0753149,"carretera de la Fuensanta, 19"
54000.0,flat,150.0,4,2,37.5892386,-4.0766815,carretera de la Fuensanta
54000.0,chalet,96.0,3,2,38.1824044,-3.6830485,calle República Federal Alemana
54000.0,chalet,79.0,3,1,38.0938287,-3.7847674,calle Santo Domingo
54000.0,chalet,100.0,4,2,38.0075344,-3.366195,"calle Alta del Salvador, 14"
54000.0,chalet,97.0,2,2,38.1811901,-3.427793,"calle Eisman Higueras, 230"
54000.0,flat,85.0,2,1,38.0918967,-3.6294722,Centro Ciudad
54000.0,flat,113.0,4,2,37.7809695,-3.6157501,calle Tetuán
54000.0,flat,116.0,3,1,38.2777596,-3.6098706,La Carolina
54000.0,flat,130.0,3,1,38.0951419,-3.7718284,"travesía Moredal, 4"
54000.0,flat,120.0,3,1,38.0987921,-3.6342434,Centro Ciudad
54000.0,flat,86.0,3,2,38.1018153,-3.6277278,"calle Guadalimar, 19"
54000.0,flat,150.0,3,1,37.7836563,-3.6087908,calle Lecheras
54000.0,chalet,97.0,2,2,38.1807094,-3.4289115,calle Jaen
54000.0,chalet,79.0,3,1,38.0925,-3.783106,calle Santo Domingo
54000.0,chalet,79.0,3,1,38.0941244,-3.7824695,calle Santo Domingo
54000.0,chalet,121.0,1,0,37.76124,-3.9548397,Torredonjimeno
54000.0,chalet,110.0,3,1,37.7420782,-3.6455676,"calle San Gregorio, 1"
54000.0,countryHouse,200.0,6,2,38.4149169,-2.6755267,"calle Ramón y Cajal, 34"
54000.0,flat,110.0,3,1,37.7727256,-3.8930029,"calle Andalucía, 58"
54000.0,flat,95.0,3,1,38.0427716,-4.0435605,"avenida de Granada, 60"
54000.0,chalet,214.0,1,1,37.9732432,-4.1084962,"calle Alonso Coello, 23"
54200.0,flat,91.0,3,2,37.7854661,-3.6014259,calle Pintor Sorolla
54200.0,flat,99.0,3,2,37.7883104,-3.6000529,Pintor Sorolla
54500.0,chalet,204.0,5,1,37.7740624,-3.8018935,carretera de Circunvalación
54500.0,flat,55.0,1,1,38.0951261,-3.6352978,"pasaje del Comercio, 19"
54500.0,flat,120.0,3,1,38.20994,-3.51249,"calle Molera, 7"
54600.0,flat,99.0,2,1,37.7868876,-3.6087537,avenida Juan Carlos I
54600.0,flat,79.0,2,2,38.0991976,-3.6282103,calle Velarde
54680.0,penthouse,48.0,1,1,38.38635,-2.58304,"calle Rodrigo Manrique, 15"
54900.0,flat,130.0,4,2,38.1183441,-3.0754902,calle Cazorla
54900.0,flat,90.0,4,1,38.0409452,-4.0526315,calle Meloneras
54900.0,flat,86.0,3,1,38.0853558,-3.6274362,calle Núcleo Residencial la Paz
54900.0,flat,130.0,4,2,38.1192198,-3.0766343,"calle Cazorla, 14"
54900.0,flat,73.0,3,1,37.4633245,-3.9250865,MESA
54900.0,chalet,125.0,2,1,37.723659,-3.9709641,Martos
55000.0,chalet,87.0,0,0,38.0222365,-3.3684926,calle Pintor Juan Esteban
55000.0,chalet,125.0,2,1,38.3390773,-3.5389271,calle Granada
55000.0,flat,96.0,3,1,38.0898715,-3.6332513,calle Miguel Cobo
55000.0,flat,40.0,2,1,37.7792777,-3.7963202,plaza de la Igualdad s/n
55000.0,flat,104.0,4,1,38.0983422,-3.6343048,calle Corredera de San Marcos
55000.0,chalet,95.0,2,2,38.0461256,-3.459597,calle Bética
55000.0,flat,110.0,3,2,38.0661509,-3.311274,calle Balbino Quesada
55000.0,flat,72.0,3,1,37.7709357,-3.8921033,calle República Argentina
55000.0,flat,47.0,2,1,37.7807199,-3.7954585,Peñamefecit - Avda Barcelona
55000.0,flat,115.0,3,2,37.770473,-3.9623852,calle San Roque
55000.0,chalet,85.0,3,1,37.7978375,-4.1541341,Higuera de Calatrava
55000.0,flat,90.0,3,2,38.0935429,-3.7722379,"calle Moredal, 1"
55000.0,chalet,519.0,11,3,38.0660466,-3.5847412,calle Doctor Pulido Torres
55000.0,flat,65.0,2,1,38.0916148,-3.6438186,ronda del Molino
55000.0,flat,107.0,4,1,38.0955339,-3.6351721,calle Corredera de San Marcos
55000.0,chalet,250.0,3,2,37.9863836,-3.5367842,Begijar
55000.0,chalet,219.0,3,1,38.0139462,-3.3707745,calle San Nicolás
55000.0,chalet,87.0,3,2,38.0201782,-3.3670512,calle Pintor Juan Esteban
55000.0,flat,170.0,6,2,38.1008365,-3.634162,calle Calderón
55000.0,chalet,140.0,3,1,37.972893,-4.1008373,Arjonilla
55000.0,chalet,70.0,3,1,37.996843,-3.6345379,calle Juan XXIII
55000.0,chalet,250.0,4,2,38.1711536,-3.0083459,"calle Labradores, 12"
55000.0,chalet,120.0,3,1,37.6402013,-4.004634,Martos
55000.0,chalet,143.0,3,2,37.9865922,-3.5373302,Begijar
55000.0,flat,119.0,3,1,38.0945584,-3.7720204,Bailén
55000.0,flat,64.0,3,1,37.7687528,-3.7921289,"calle Josefa Sevillanos, 2"
55000.0,chalet,187.0,5,2,38.24833,-3.2057,"calle Paco Clavijo, 16"
55000.0,flat,47.0,2,1,37.7792777,-3.7963202,"plaza de la Igualdad, 7"
55000.0,flat,116.0,3,1,37.7763368,-3.8959738,Torredelcampo
55000.0,flat,110.0,4,2,37.7839719,-3.6162739,Mancha Real
55000.0,chalet,158.0,4,1,37.767832,-3.8937838,carrera alta
55000.0,flat,100.0,4,2,37.7862527,-3.6017085,Mancha Real
55000.0,chalet,240.0,3,2,38.0053703,-3.9089429,calle VENEZUELA s/n
55000.0,flat,101.0,3,1,37.7602366,-3.948458,Torredonjimeno
55000.0,chalet,120.0,3,2,37.9662878,-3.814509,calle Borosa
55000.0,flat,98.0,3,1,37.74698,-3.91108,"glorieta de San Isidro, 5"
55000.0,flat,104.0,4,1,38.0965133,-3.635765,calle Corredera de San Marcos
55000.0,chalet,140.0,4,2,37.7037927,-4.1168542,BAENA
55000.0,flat,104.0,4,1,38.0965133,-3.635765,calle Corredera de San Marcos
55000.0,chalet,150.0,4,2,38.0612068,-3.4334188,calle Eras
55000.0,chalet,246.0,5,2,38.016065,-3.3671597,avenida Antonio Machado
55000.0,flat,50.0,1,1,38.2992877,-2.651079,calle del Postigo
55000.0,flat,89.0,3,1,37.7704573,-3.7960169,Ctra. Circunvalación - La Magdalena
55000.0,chalet,300.0,4,4,38.0130795,-3.3689753,"calle San Nicolás, 256"
55000.0,flat,125.0,4,1,38.0953989,-3.7769366,"Callejuela del Consuelo, 3"
55000.0,chalet,150.0,4,1,38.0995581,-3.7780786,"calle Casado del Alisal, 44"
55000.0,countryHouse,125.0,4,2,37.7859964,-3.5100034,"calle Pablo Picasso, 7"
55000.0,chalet,100.0,3,2,38.2404908,-3.0534365,"zorrila, 8"
55000.0,countryHouse,120.0,4,2,38.3909,-2.58215,"calle Fuente Salivas, 20"
55000.0,chalet,125.0,3,2,37.82279,-3.41181,"calle nueva, 3"
55000.0,chalet,200.0,4,3,37.9132725,-3.1252777,"Redonda Maidalga, 80"
55000.0,chalet,160.0,7,2,37.7906239,-3.4650594,"calle Llana, 25"
55000.0,flat,133.0,4,2,38.1184407,-3.0819297,"carretera Circunvalación, 23"
55000.0,chalet,150.0,4,2,38.41508,-2.67611,"calle Ramón y Cajal, 15"
55000.0,flat,70.0,3,1,38.0955677,-3.7735342,calle Martín Ruiz
55000.0,flat,121.0,4,2,38.1722987,-3.0061962,"avenida Valencia, 97"
55000.0,chalet,250.0,1,2,38.1727918,-3.0091372,calle Labradores
55000.0,chalet,250.0,5,2,37.7063026,-3.2848386,"calle Nicho, 14"
55000.0,flat,99.0,3,1,37.7608995,-3.9495068,"calle Velázquez, 53"
55000.0,countryHouse,133.0,4,1,38.3492721,-2.7369236,"avenida de la Victoria, 4 km"
55000.0,chalet,300.0,5,2,38.2544712,-3.1284515,"calle de Don Mendo de Benavides, 9"
55000.0,flat,109.0,4,2,37.9737099,-4.1048399,"avenida Andalucía, 6"
55000.0,countryHouse,245.0,7,3,38.2542781,-3.1287454,"calle San Benito, 1"
55000.0,chalet,250.0,1,2,38.1704028,-3.0096033,calle Labradores
55000.0,flat,118.0,3,2,37.7701784,-3.9555987,Torredonjimeno
55000.0,flat,220.0,7,2,38.1152714,-3.0837928,"calle Regente Molina Valero, 32"
55000.0,flat,93.0,2,1,38.0374711,-3.290149,herreros
55000.0,flat,150.0,4,2,37.7874461,-3.6120253,"calle San Marcos, 13"
55000.0,chalet,100.0,3,1,38.2041946,-3.5078762,"calle Linares, 7"
55000.0,penthouse,100.0,3,1,38.0942272,-3.7738374,calle Héroes de Bailén
55000.0,chalet,250.0,5,2,37.7876221,-3.6122405,"calle San Marcos, 26"
55000.0,chalet,112.0,3,1,38.0183308,-3.3673159,Ubeda
55000.0,chalet,144.0,3,2,37.765134,-3.9565991,Torredonjimeno
55000.0,countryHouse,500.0,12,5,37.8219,-3.4122,"calle Andalucía, 9"
55000.0,flat,68.0,2,1,38.1680387,-3.0126528,"calle Maestro Ricardo López, 19"
55000.0,countryHouse,200.0,3,1,38.2756043,-2.776994,Cañada catena s/n
55000.0,flat,135.0,3,1,38.1734196,-3.0038097,"calle García Lorca, 8"
55000.0,flat,80.0,2,1,38.1190143,-3.0785193,"avenida Gómez de Llano, 65"
55000.0,countryHouse,200.0,3,1,38.2756043,-2.776994,Cañada catena s/n
55000.0,countryHouse,300.0,4,3,38.059236,-3.4336715,"calle Hoyo de Valdecanales, 12"
55000.0,countryHouse,150.0,5,2,37.5886709,-4.0899811,"calle Fuente Zaide, 24"
55000.0,flat,90.0,3,1,38.0960196,-3.7777548,"calle María Bellido, 4"
55000.0,flat,111.0,4,2,37.7681242,-3.9568331,Torredonjimeno
55000.0,chalet,150.0,4,2,38.38893,-2.57798,"calle Pinos, 34"
55000.0,flat,54.0,2,1,37.7576177,-3.7948114,"calle Esperanza, 5"
55000.0,chalet,140.0,5,2,38.25186,-3.13109,"calle Centenares, 14"
55000.0,chalet,180.0,4,2,37.7056399,-3.2855699,"calle río, 3"
55000.0,countryHouse,250.0,5,2,38.3232012,-2.7990288,"calle Ancha, 30"
55000.0,countryHouse,147.0,4,2,38.066961,-3.0400619,"calle el Barquero, 21"
55000.0,flat,120.0,4,1,37.9697914,-3.8094484,"calle Real, 21"
55000.0,chalet,177.0,4,2,37.73829,-3.65315,"calle Parras Altas, 12"
55000.0,countryHouse,100.0,3,1,37.68983,-3.81867,"calle Juan Alcalde, 2"
55000.0,penthouse,153.0,4,2,38.2036625,-3.5085167,"alto Plaza, 20 n"
55000.0,chalet,137.0,3,2,38.3563615,-2.8055788,"calle Viviendas Protegidas, 40"
55000.0,chalet,113.0,4,1,37.52856,-3.9393,"calle Belén, 36"
55000.0,countryHouse,130.0,0,0,38.3155716,-2.7141635,Unnamed Road s/n
55000.0,chalet,190.0,5,2,37.763944,-3.074532,"calle iglesia, 50"
55000.0,countryHouse,140.0,4,3,37.74101,-3.64825,"calle Patines, 11"
55000.0,chalet,140.0,3,2,37.8426165,-3.0670074,calle del Médico Basilio Rodriguez s/n
55000.0,flat,100.0,3,1,37.7679905,-3.9544203,"calle Álvaro de Bazán, 35"
55000.0,chalet,162.0,5,2,37.8398855,-3.4756364,Jimena
55000.0,chalet,41.0,3,2,38.1139091,-3.0843493,"calle Guadalquivir, 10 O"
55000.0,countryHouse,240.0,4,2,38.0433583,-4.0613865,"calle San José, 6"
55000.0,chalet,191.0,4,1,37.5884302,-3.8216931,"calle carrera, 11"
55200.0,flat,601.0,3,2,38.0193517,-3.3675039,Ubeda
55200.0,chalet,127.0,2,1,38.0969024,-3.6361462,avenida Andrés Segovia
55400.0,chalet,257.0,4,2,37.8420212,-3.4745709,calle Plaza
55500.0,flat,110.0,3,2,38.1677243,-3.0080619,"calle San Miguel, 6"
55700.0,flat,91.0,3,2,38.275659,-3.6173149,La Carolina
55800.0,flat,109.0,3,2,38.0985454,-3.6350875,Centro Ciudad
55800.0,flat,65.0,2,1,37.7888766,-3.608346,avenida Juan Carlos I
56000.0,flat,89.0,2,1,38.0978465,-3.6345604,calle Puente
56000.0,flat,115.0,3,1,38.3563237,-2.7411472,avenida de Andalucía
56000.0,chalet,153.0,5,2,37.9982276,-3.6394107,calle Bernabe Soriano
56000.0,chalet,82.0,2,2,38.2779453,-3.6112261,La Carolina
56000.0,flat,58.0,1,1,38.0946475,-3.6325675,Centro Ciudad
56000.0,penthouse,95.0,3,1,38.0978268,-3.7722641,Bailén
56000.0,chalet,72.0,3,1,38.1015775,-3.6354076,avenida de Arrayanes
56000.0,flat,66.0,3,1,37.7794394,-3.7994275,"calle Bilbao, 18"
56000.0,chalet,165.0,3,2,38.1051073,-3.6344339,Arrayanes
56000.0,chalet,90.0,6,1,37.4457426,-3.8388414,"camino del Corral, 11"
56000.0,countryHouse,90.0,6,1,37.4457426,-3.8388414,"camino del Corral, 11"
56000.0,flat,140.0,3,1,38.25575,-3.13406,"calle San Antonio, 9"
56000.0,chalet,104.0,3,1,37.9689014,-3.8048238,calle Vera Cruz
56000.0,flat,64.0,2,1,37.7710074,-3.7924765,calle Almendros Aguilar
56000.0,chalet,105.0,4,2,38.1132847,-2.5506034,"calle Sebastian Ruiz, 19"
56000.0,flat,83.0,2,1,38.094079,-3.6363991,calle Canalejas
56000.0,countryHouse,200.0,5,2,37.7971829,-4.1572599,"calle Ocho de Marzo, 21"
56000.0,countryHouse,150.0,4,1,37.915656,-3.1251014,"c/San José artesano, 33"
56000.0,flat,130.0,3,2,38.1162158,-3.0863309,"calle Ministro Benavides, 61"
56000.0,penthouse,160.0,4,1,38.0947942,-3.7724395,"calle Baeza, 52"
56000.0,countryHouse,210.0,4,2,38.0702022,-3.3088226,"calle San Jose, 33"
56050.0,chalet,180.0,4,2,37.7593444,-3.7887134,carretera de Otíñar
56100.0,flat,47.0,2,1,37.7809088,-3.7959314,plaza de la Igualdad
56400.0,flat,78.0,2,1,37.7874961,-3.6061411,avenida Juan Carlos I
56800.0,studio,65.0,0,1,37.9076422,-3.0002137,"calle Hoz Alta, 11"
56900.0,flat,80.0,2,1,38.034416,-3.2942468,calle Miguel Hernández
57000.0,penthouse,97.0,2,1,38.0934519,-3.7720159,"calle Moredal, 20 , Segundo "
57000.0,countryHouse,90.0,4,2,37.5549591,-3.6342792,"calle del Agua, 19"
57000.0,flat,92.0,3,2,38.1008049,-3.6280749,Linarejos
57000.0,chalet,85.0,2,1,37.7648962,-3.79412,San Felipe - El Almendral - La Merced
57000.0,chalet,80.0,3,2,38.2779223,-3.6110464,La Carolina
57000.0,chalet,250.0,9,2,37.9438209,-4.2132079,calle Hospitalico
57000.0,chalet,140.0,4,2,37.7228111,-3.9689499,MORERIA
57000.0,flat,151.0,4,2,37.9819802,-3.5310302,"calle Pedro Perez, 54"
57000.0,flat,146.0,3,2,38.0225099,-3.50482,"calle Prado, 69"
57000.0,chalet,145.0,3,1,38.0208354,-3.5059302,Prado
57000.0,chalet,110.0,4,2,37.7240745,-3.9617761,Fuente de la Villa
57000.0,penthouse,70.0,1,1,38.0467372,-4.1671486,"calle Camilo José Cela, 2 nD"
57000.0,chalet,60.0,3,2,38.2781841,-3.6094633,"calle Campomanes, 12"
57000.0,flat,98.0,3,1,37.74584,-3.90982,"avenida del Parque, 3"
57000.0,flat,100.0,3,1,37.74584,-3.9098198,"Av del pargue, 3"
57000.0,chalet,134.0,3,1,37.8391452,-3.3552732,"calle Pilarillo, 65"
57000.0,penthouse,60.0,3,1,37.9158952,-3.0049439,"calle Narra, 1"
57000.0,flat,98.0,4,1,37.7460976,-3.910815,"calle General Moscardo, 8"
57100.0,flat,66.0,3,1,37.7803718,-3.7998918,calle Bilbao
57200.0,flat,141.0,3,2,38.0342727,-4.0540789,calle Profesor Isabel García s/n
57500.0,chalet,103.0,2,1,37.8411768,-3.3544199,Jodar
57500.0,chalet,158.0,3,1,38.2761791,-3.6197821,La Carolina
57600.0,flat,173.0,3,2,38.1693846,-3.0091234,"plaza Mayor, 11"
57600.0,flat,186.0,2,1,38.1684176,-3.0104632,Villanueva del Arzobispo
57600.0,chalet,42.0,2,1,38.252632,-2.8834313,calle Vista Alegre
57600.0,chalet,42.0,2,1,38.2531823,-2.8829103,calle Vista Alegre
57900.0,flat,74.0,3,1,38.0378417,-4.0546931,Andújar
57900.0,chalet,171.0,2,1,38.0954901,-3.6418797,"calle Huertas, 4"
58000.0,chalet,95.0,3,2,38.1006299,-3.6412498,avenida Doctor Juan Reyes
58000.0,flat,58.0,2,1,37.7611694,-3.7971552,"calle Almodóvar, 25"
58000.0,flat,87.0,3,1,37.7704808,-3.7924417,calle Martínez Molina
58000.0,flat,85.0,3,2,37.9748057,-4.1037602,"calle Arrieros, 2"
58000.0,flat,150.0,3,1,38.2696264,-3.6208073,La Carolina
58000.0,flat,88.0,3,1,37.7697036,-3.7936181,calle Martínez Molina
58000.0,chalet,162.0,6,2,37.7698113,-3.7948371,calle Soria de San Juan
58000.0,flat,87.0,3,1,38.09588,-3.77486,"calle Cuba, 1"
58000.0,flat,99.0,4,2,38.0898747,-3.6293922,calle Segadores
58000.0,flat,55.0,1,1,37.9114771,-2.9982282,"calle Fuente Maleno, Cazorla"
58000.0,flat,88.0,3,1,37.7635685,-3.9528781,Torredonjimeno
58000.0,flat,119.0,3,1,38.040423,-4.0514564,Andújar
58000.0,flat,99.0,4,1,38.0897816,-3.6300879,Centro Ciudad
58000.0,chalet,95.0,3,2,38.3508397,-2.8086089,"paseo la Vicaria, 69"
58000.0,flat,68.0,3,1,37.779207,-3.7990214,"calle Bilbao, 7"
58000.0,flat,116.0,4,2,38.0882168,-3.6306712,calle Numancia
58000.0,chalet,99.0,4,1,37.9954005,-3.4747868,Baeza
58000.0,chalet,125.0,4,2,37.9909924,-3.470738,Baeza
58000.0,countryHouse,180.0,3,2,38.1140367,-3.0865851,"plaza Alforjas Para la Poesía, 5"
58000.0,chalet,80.0,4,1,38.0183036,-3.3680194,Ubeda
58000.0,flat,77.0,2,1,38.093956,-3.7814174,"calle Perú, 16"
58000.0,chalet,220.0,0,0,38.0103363,-3.3664634,cuesta Merced
58000.0,chalet,90.0,2,1,38.0190773,-3.7310841,"calle ciudad de Jaén, 12"
58000.0,flat,65.0,3,1,37.7788852,-3.7972541,"calle Almería, 18"
58000.0,flat,100.0,3,2,37.7842818,-3.612623,"calle Carniceria, 110"
58100.0,chalet,184.0,3,1,37.4611443,-3.9264459,callejón del Horno s/n
58400.0,chalet,168.0,4,2,37.6881926,-3.8205297,´Huelva
58400.0,chalet,108.0,3,2,37.6884413,-3.8222217,Los Villares
58500.0,countryHouse,138.0,2,1,38.2237743,-2.5821145,Los Anchos s/n SN
58500.0,flat,98.0,3,2,37.9174294,-3.0027407,"calle Martínez Falero, 37"
58800.0,flat,78.0,2,1,37.7881862,-3.6084872,avenida Juan Carlos I
58800.0,flat,95.0,2,1,38.0725282,-3.3137357,calle de Menendez Pidal
58900.0,chalet,208.0,8,1,37.5880814,-3.8173593,plaza del Bosque
59000.0,flat,84.0,2,1,38.0410987,-4.0563704,calle Altozano de la Victoria
59000.0,flat,52.0,1,1,37.7758589,-3.8930402,avenida Constitucion
59000.0,chalet,179.0,3,2,37.7680874,-3.7942353,"calle Buenavista, 34"
59000.0,chalet,179.0,3,1,37.7695269,-3.7929845,Ctra. Circunvalación - La Magdalena
59000.0,chalet,104.0,3,1,38.0901183,-3.6250176,calle Núñez de Balboa
59000.0,flat,116.0,3,1,37.8446058,-3.066385,"cuesta de San Juan, 8"
59000.0,chalet,94.0,4,2,38.0398174,-4.0481097,calle Pablillos
59000.0,flat,109.0,4,2,38.0973639,-3.6367551,calle Bailén
59000.0,chalet,115.0,4,1,38.0982987,-3.7745733,"calle Casas del Campo, 26"
59000.0,flat,97.0,3,1,38.071099,-3.5900196,La Paz-Las Américas
59000.0,chalet,114.0,2,1,37.5935343,-4.0834591,"calle San Antón, 42"
59000.0,chalet,280.0,5,2,37.5285059,-3.9435545,"calle Collados, 11"
59000.0,chalet,120.0,4,1,37.7437602,-3.6471348,Pegalajar
59000.0,chalet,167.0,4,2,38.2695703,-3.6198717,calle Nonscribas
59000.0,flat,90.0,3,1,37.7635349,-3.9553304,Torredonjimeno
59000.0,chalet,193.0,4,1,37.9830171,-3.5313079,Begijar
59000.0,flat,86.0,3,1,38.0923541,-3.7795755,"plaza Dos de Mayo, 4"
59000.0,flat,105.0,4,1,37.762546,-3.9548272,"calle Linares, 5"
59000.0,penthouse,115.0,3,1,38.0959996,-3.7735574,calle Baeza
59000.0,countryHouse,190.0,4,1,38.3859,-2.58424,Siles
59000.0,chalet,167.0,4,2,38.2695251,-3.6205922,calle Nonscribas
59000.0,duplex,100.0,4,1,38.0949151,-3.7803524,calle Concepción
59000.0,flat,61.0,1,1,38.0164849,-3.3682686,calle Llana de San Nicolás
59000.0,countryHouse,200.0,4,1,37.5289,-3.94414,"calle Nueva de la Plaza, 4"
59000.0,flat,79.0,3,1,38.0344074,-3.296227,"calle España, 44"
59000.0,flat,175.0,3,2,37.7635483,-3.9549426,Torredonjimeno
59000.0,countryHouse,65.0,2,1,37.6244196,-3.9773707,Diseminado s/n
59000.0,flat,100.0,3,2,38.0963278,-3.779989,calle María Bellido
59000.0,chalet,250.0,4,2,38.049309,-3.4611457,"avenida Libertad, 19"
59200.0,flat,121.0,3,2,38.0338286,-4.053826,calle Maestro Bernardo Estepa s/n
59400.0,flat,99.0,3,2,37.789067,-3.6083246,avenida Juan Carlos I
59400.0,flat,99.0,3,2,37.7863322,-3.6059437,avenida Juan Carlos I
59500.0,chalet,144.0,5,2,37.7703971,-3.8965059,"calle Cruces, 1"
59500.0,flat,170.0,4,1,37.5912253,-4.0756872,carretera de la Fuensanta
59500.0,countryHouse,181.0,4,3,38.2741102,-3.6178622,"calle Numancia, 15"
59900.0,duplex,80.0,3,2,37.7714955,-3.8927366,Torredelcampo
59900.0,flat,110.0,2,1,37.758022,-3.7966115,Alcantarilla - La Glorieta
59900.0,chalet,170.0,3,2,37.6465849,-3.9084993,calle Elvira
59900.0,flat,80.0,3,1,38.1018241,-3.6275607,Linarejos
59900.0,flat,90.0,3,1,38.0431727,-4.0489908,Andújar
59900.0,chalet,207.0,4,2,37.9943322,-3.4698049,plaza Valdivia
59900.0,flat,52.0,1,1,37.7730196,-3.8935142,avenida Constitucion
59900.0,chalet,248.0,6,1,37.9824022,-3.5325323,Begijar
59900.0,flat,82.0,3,1,38.0392372,-4.052225,Andújar
59900.0,chalet,152.0,4,2,38.101636,-3.6317879,calle Cástulo
59900.0,duplex,70.0,3,2,37.7722929,-3.894561,Torredelcampo
59900.0,chalet,400.0,8,2,37.6767397,-3.5642977,"calle del Real, 26"
59900.0,chalet,230.0,6,2,38.02528,-3.10085,"calle Palmeras, 13"
59900.0,chalet,120.0,6,2,38.02528,-3.10085,"calle Palmeras, 13"
59999.0,chalet,86.0,3,1,38.0996632,-3.6359847,calle Calerin Bajo
60000.0,flat,78.0,3,1,38.035361,-4.0478812,calle Barriada Virgen Cabeza
60000.0,flat,90.0,3,2,37.9748057,-4.1037602,"calle Arrieros, 2"
60000.0,chalet,112.0,3,2,37.4859847,-3.8353295,calle Mesones
60000.0,flat,102.0,3,1,37.7731925,-3.7963352,calle Córdoba
60000.0,flat,96.0,5,2,38.0938024,-3.6352935,calle Canalejas
60000.0,chalet,120.0,3,2,38.1658791,-2.999554,"calle Párroco Antonio Alonso, 10"
60000.0,flat,186.0,3,1,38.1680298,-3.0076874,plaza Mayor
60000.0,flat,142.0,5,2,38.1005145,-3.6338018,calle Calderón
60000.0,chalet,186.0,3,1,38.0709559,-3.3054906,calle Blas Poyatos
60000.0,chalet,140.0,3,2,38.1006859,-3.6393824,A-6100
60000.0,flat,120.0,3,2,37.5919779,-4.0883122,"calle Campiña, 22"
60000.0,flat,113.0,3,2,38.0421179,-4.0555485,Andujar
60000.0,duplex,76.0,3,2,37.7727628,-3.8956026,avenida Constitucion
60000.0,chalet,120.0,3,2,37.5904486,-4.0897486,calle Fuente Zaide
60000.0,flat,102.0,3,1,37.7704754,-3.7946844,calle Arquillos
60000.0,chalet,200.0,5,1,38.0976586,-3.7773999,"calle Almendral, 6"
60000.0,flat,85.0,3,1,38.021883,-3.3641428,calle Cazorla
60000.0,flat,107.0,3,2,37.7634549,-3.9508059,Torredonjimeno
60000.0,flat,101.0,3,1,38.095634,-3.6300572,Centro Ciudad
60000.0,flat,60.0,2,1,37.7580226,-3.7961406,Alcantarilla - La Glorieta
60000.0,flat,113.0,3,2,38.0403814,-4.0429459,Andújar
60000.0,chalet,120.0,3,2,37.769746,-3.9630176,Torredonjimeno
60000.0,flat,135.0,5,2,37.7721216,-3.8973744,"calle Cristóbal Colón, 20"
60000.0,flat,110.0,4,1,38.0144889,-3.3702248,cuesta Cobatillas s/n
60000.0,flat,85.0,3,1,38.0936158,-3.7862834,avenida Andújar s/n -
60000.0,flat,160.0,4,2,37.7045695,-2.935564,"calle Antonio Lazo, 26"
60000.0,flat,75.0,3,1,38.0401011,-4.0598426,"calle Corredera San Bartolomé, 39"
60000.0,chalet,123.0,3,2,38.1858773,-3.3121532,"calle sol, 26"
60000.0,countryHouse,205.0,3,2,37.64784,-3.906,"calle Peñuelas, 9"
60000.0,flat,118.0,3,2,37.7699502,-3.8966183,"calle Aguilar, 7"
60000.0,countryHouse,205.0,3,2,37.64784,-3.906,"calle Peñuelas, 9"
60000.0,flat,116.0,3,1,37.7722926,-3.8972152,"calle Cristóbal Colón, 26"
60000.0,flat,115.0,4,1,38.0144889,-3.3702248,cuesta Cobatillas s/n
60000.0,chalet,147.0,3,2,37.7636926,-3.9494799,Torredonjimeno
60000.0,flat,80.0,3,1,38.2030923,-3.5082113,Vilches
60000.0,chalet,111.0,3,2,38.2813701,-3.6111309,La Carolina
60000.0,flat,130.0,4,2,38.2536503,-2.8899439,"avenida de Santa Isabel, 29"
60000.0,chalet,200.0,4,2,37.7168227,-3.966183,calle Cobatillas Bajas
60000.0,chalet,144.0,5,1,37.7709384,-3.7927431,Ctra. Circunvalación - La Magdalena
60000.0,flat,140.0,4,2,37.7709851,-3.898815,"cuesta Negra, 6"
60000.0,flat,55.0,2,1,37.7578402,-3.7950903,"juan varela, 5"
60000.0,flat,95.0,3,1,38.0995668,-3.7745506,"calle Diecinueve de Julio, 104"
60000.0,chalet,65.0,3,3,38.2500172,-2.8849886,"calle Barrio Nuevo, 35"
60000.0,flat,126.0,3,1,38.1180944,-3.0775439,"calle Hernán Cortés, 34"
60000.0,flat,186.0,3,2,38.1684363,-3.008608,plaza Mayor
60000.0,countryHouse,270.0,5,2,38.0250351,-3.1014205,"calle Correos, 46"
60000.0,countryHouse,300.0,5,2,38.35409,-2.803,"avenida Andalucia, 40"
60000.0,countryHouse,150.0,0,0,38.4098315,-3.3738447,"calle Cristobal Colon, 15"
60000.0,chalet,150.0,3,2,37.7839018,-3.507693,"calle Jardinillos, 38"
60000.0,countryHouse,96.0,4,1,38.2986557,-2.72686,"calle Otoño, 1"
60000.0,chalet,160.0,5,2,37.8444598,-3.0651875,"calle Felipe II, 6"
