Price,Property Type,Size (m2),Number of Rooms,Number of Bathrooms,Latitude,Longitude,Location
10300000.0,countryHouse,750.0,10,10,37.7897826,-2.7227981,Castril
5500000.0,chalet,7478.0,16,15,37.3417299,-3.7391172,Colomera
5303000.0,countryHouse,300.0,4,2,37.79785,-2.7851824,Castril
5000000.0,chalet,1055.0,10,4,36.7459686,-3.5970735,Centro
4950000.0,chalet,900.0,4,4,36.7331239,-3.7370794,Barrio La Herradura
4900000.0,chalet,674.0,8,10,36.7514496,-3.6177149,Urbanizacion Costa Aguilera Norte
4250000.0,countryHouse,500.0,8,4,36.996684,-4.0110022,Alhama de Granada
3750000.0,chalet,1079.0,8,8,36.7452895,-3.5859986,avenida 28 de Febrero
3495000.0,chalet,1400.0,19,19,36.8156747,-3.6963906,Lugar Cazulas
3495000.0,countryHouse,1362.0,17,17,36.8150954,-3.6809247,Otivar
3000000.0,chalet,310.0,6,5,37.1796311,-3.5955313,"calle Tiña, 2 -4"
3000000.0,chalet,310.0,6,5,37.1816003,-3.595658,calle Tiña
3000000.0,countryHouse,540.0,5,5,36.9190583,-3.4808126,La Rabitilla
3000000.0,chalet,310.0,6,5,37.1784172,-3.5969793,calle Tiña
3000000.0,chalet,310.0,6,5,37.1807107,-3.5956876,Albaicín
3000000.0,chalet,310.0,6,5,37.1794281,-3.5956093,Albaicín
3000000.0,chalet,310.0,6,5,37.179159,-3.5973687,Albaicín
3000000.0,chalet,310.0,6,5,37.17971,-3.5954814,"calle Tiña, 4"
3000000.0,chalet,310.0,6,5,37.1797867,-3.5934808,calle Tiña
3000000.0,chalet,310.0,6,5,37.1803173,-3.5938585,Albaicín
3000000.0,chalet,310.0,6,5,37.1787449,-3.596279,Albaicín
3000000.0,chalet,310.0,6,5,37.1786617,-3.5949229,Albaicín
3000000.0,chalet,310.0,6,5,37.1804796,-3.5940054,Albaicín
3000000.0,chalet,54000.0,5,1,36.9161342,-3.4801697,Lanjaron
3000000.0,countryHouse,582.0,8,6,37.8076655,-2.5383344,Huéscar
2999990.0,chalet,800.0,1,0,37.1826932,-3.5781682,calle Santo Sepulcro del Sacromonte
2999990.0,chalet,800.0,5,2,37.181691,-3.5842223,camino del Sacromonte s/n
2999990.0,chalet,800.0,5,3,37.1820683,-3.5864207,camino del Sacromonte s/n
2999900.0,chalet,600.0,15,9,37.1810344,-3.5933971,callejón de San Nicolás s/n
2999000.0,chalet,390.0,5,3,37.1793697,-3.5802675,camino del Sacromonte
2995000.0,countryHouse,250.0,7,3,37.3907949,-3.5185777,calle los Pinos
2900000.0,chalet,1723.0,11,9,36.7499815,-3.6134067,calle Almendros
2700000.0,chalet,439.0,5,4,36.722835,-3.7362221,camino de la Torre
2700000.0,chalet,404.0,5,4,36.7360382,-3.7211774,Cotobro
2700000.0,chalet,439.0,5,4,36.7351919,-3.7209305,calle la Torre
2700000.0,chalet,484.0,4,3,36.7348098,-3.7111168,calle Bajada del Mar
2700000.0,chalet,484.0,4,3,36.7354788,-3.7141396,Cotobro
2600000.0,chalet,1513.0,15,15,37.1773252,-2.9481536,Huéneja
2525000.0,chalet,896.0,5,6,36.7380545,-3.6729304,"Alclub, 9"
2500000.0,chalet,408.0,5,5,37.1250737,-3.5732575,La Zubia
2500000.0,chalet,1428.0,11,7,37.1236185,-3.5857434,"calle Laurel de la Reina, 13"
2500000.0,chalet,1428.0,11,7,37.1236185,-3.5857434,"calle Laurel de la Reina, 13"
2500000.0,chalet,1428.0,11,7,37.1251032,-3.5858221,calle Laurel de la Reina
2500000.0,chalet,369.0,3,5,36.7238173,-3.7301994,"calle Testa, 3"
2500000.0,chalet,336.0,3,5,36.7238173,-3.7301994,"calle Testa, 3"
2500000.0,chalet,700.0,11,7,37.1088962,-3.5900293,"calle Alcazaba, 2"
2500000.0,chalet,829.0,11,7,37.1219106,-3.5867606,calle Laurel de la Reina
2500000.0,chalet,310.0,6,5,37.1788981,-3.5965388,Albaicín
2500000.0,chalet,418.0,7,3,36.7439276,-3.5917297,Centro
2500000.0,chalet,374.0,5,5,36.744879,-3.6140339,Urbanizacion Costa Aguilera Norte
2500000.0,chalet,700.0,11,7,37.1249508,-3.5856146,La Zubia
2500000.0,chalet,700.0,8,3,37.1246296,-3.585125,La Zubia
2500000.0,countryHouse,400.0,12,2,36.921114,-3.4094505,via sin nombre s/n
2490000.0,chalet,1000.0,6,5,36.7214153,-3.7338546,Barrio Punta La Mona
2490000.0,chalet,1009.0,6,5,36.722451,-3.7341907,camino de la Ermita
2490000.0,chalet,367.0,4,3,36.7310891,-3.7356633,calle el Salao
2450000.0,chalet,292.0,3,5,36.7238173,-3.7301994,"calle Testa, 3"
2400000.0,chalet,291.0,3,5,36.7238173,-3.7301994,"calle Testa, 3"
2400000.0,countryHouse,46001.0,1,1,37.167909,-4.151674,CORTIJO LA BARRAGANA s/n
2400000.0,countryHouse,46001.0,1,1,37.1658235,-4.1525477,Loja
2400000.0,countryHouse,46000.0,1,1,37.167752,-4.153785,Loja
2400000.0,chalet,398.0,5,6,36.750037,-3.7656184,Barrio Los Cármenes - Cerro Gordo
2400000.0,countryHouse,46001.0,1,1,37.1700999,-4.1505634,Loja
2390000.0,chalet,412.0,5,7,36.7355126,-3.7189066,"Tenis, 21"
2350000.0,chalet,1025.0,4,4,36.7216585,-3.7314288,camino de la Torre
2200000.0,chalet,479.0,6,7,37.3732534,-3.7138266,Colomera
2200000.0,chalet,350.0,2,2,37.0020414,-3.2680001,Trevélez
2100000.0,chalet,292.0,3,5,36.7238173,-3.7301994,"calle Testa, 3"
2050000.0,chalet,329.0,3,5,36.7238173,-3.7301994,"calle Testa, 3"
2000000.0,chalet,1800.0,12,8,37.1878785,-3.7202391,"er extrarradio, 10"
2000000.0,countryHouse,170.0,4,2,36.7637075,-3.53455,Diseminado las Angustias s/n
2000000.0,chalet,400.0,5,5,36.7201963,-3.5588975,Playa Granada
1999000.0,chalet,941.0,8,3,37.4917141,-2.773433,plaza Mayor
1990000.0,chalet,291.0,6,4,36.7351329,-3.6735265,calle la Romántica
1990000.0,chalet,288.0,4,3,36.7378862,-3.6752198,Velilla - Velilla Taramay
1950000.0,chalet,292.0,3,5,36.7238173,-3.7301994,"calle Testa, 3"
1950000.0,chalet,386.0,6,2,37.1730699,-3.6103381,camino De Purchil s/n
1950000.0,chalet,386.0,6,2,37.1705393,-3.6363064,camino De Purchil
1950000.0,chalet,386.0,6,2,37.1736637,-3.6079602,Barrio Ronda - Arabial
1950000.0,chalet,386.0,6,2,37.1722155,-3.6351568,camino de Purchil s/n
1950000.0,chalet,386.0,6,2,37.1719992,-3.6339191,camino De Purchil
1950000.0,chalet,386.0,6,2,37.1711513,-3.6109699,Barrio Ronda - Arabial
1950000.0,chalet,400.0,8,3,37.1683906,-3.682821,Vegas del Genil
1930000.0,chalet,702.0,4,5,36.7380545,-3.6729304,"Alclub, 9"
1900000.0,chalet,620.0,7,6,37.1740955,-3.5985355,"plaza del Carmen, 3"
1900000.0,chalet,479.0,6,7,37.3713198,-3.7152322,calle Alonso Rivas
1900000.0,chalet,479.0,6,7,37.3731666,-3.7124742,calle Alonso Rivas
1900000.0,chalet,479.0,6,6,37.3713433,-3.7122099,Parecela
1900000.0,chalet,479.0,6,7,37.3769764,-3.6987913,Colomera
1900000.0,chalet,479.0,6,7,37.3712146,-3.7156825,calle Alonso Rivas
1900000.0,chalet,479.0,6,7,37.4066475,-3.7313052,Colomera
1900000.0,chalet,479.0,6,7,37.3710492,-3.7155966,Colomera
1890000.0,chalet,306.0,5,2,36.7225922,-3.7307746,Barrio Punta La Mona
1850000.0,chalet,570.0,9,9,37.1769753,-3.5929037,Albaicín
1850000.0,chalet,500.0,7,6,36.7426731,-3.7038758,Cotobro
1800000.0,chalet,943.0,5,6,37.2524292,-3.6466653,"calle Guadalquivir, 11 -1"
1800000.0,chalet,797.0,5,6,37.2509322,-3.6467846,"Vía, 11"
1800000.0,chalet,622.0,7,5,37.1827,-3.5913925,Albaicín
1800000.0,chalet,798.0,5,6,37.2528456,-3.6465331,"calle Guadalquivir, 11"
1800000.0,chalet,661.0,5,6,36.7313181,-3.7300572,carretera de la Playa
1750000.0,chalet,1000.0,6,6,37.1678909,-3.6681066,Urbanización la Romana
1750000.0,chalet,474.0,5,6,36.7309353,-3.7276605,calle Ruiseñor
1750000.0,chalet,505.0,5,6,36.7276755,-3.7307486,Barrio Punta La Mona
1750000.0,chalet,300.0,4,3,36.7470656,-3.7458066,Mezquita s/n
1750000.0,chalet,379.0,4,3,36.7306849,-3.7276391,calle Ruiseñor
1750000.0,chalet,379.0,4,3,36.7299195,-3.7284082,calle Ruiseñor
1750000.0,chalet,505.0,5,6,36.7343435,-3.7357465,Barrio La Herradura
1750000.0,chalet,300.0,4,3,36.7331092,-3.7394637,Barrio La Herradura
1750000.0,chalet,379.0,4,3,36.7303449,-3.7304342,Barrio Punta La Mona
1745000.0,chalet,427.0,7,6,36.7443242,-3.6715341,calle Citalmar
1700000.0,chalet,269.0,4,4,36.747374,-3.6336907,Urbanización Alfa Mar
1700000.0,countryHouse,23233.0,6,3,36.7473462,-3.5897657,Centro
1695000.0,chalet,390.0,4,5,36.7339429,-3.7322885,avenida de los Profesionales Sanitarios s/n
1695000.0,chalet,372.0,4,6,36.7339429,-3.7322885,avenida de los Profesionales Sanitarios s/n
1695000.0,chalet,310.0,6,4,36.7341338,-3.7364813,calle Obispo
1695000.0,chalet,300.0,4,5,36.7339429,-3.7322885,avenida de los Profesionales Sanitarios s/n
1690000.0,chalet,528.0,6,6,36.7232519,-3.7335497,Barrio Punta La Mona
1690000.0,chalet,454.0,6,5,36.7313416,-3.7306074,calle Gavilanes
1680000.0,countryHouse,300.0,6,5,37.010562,-3.0083334,Nevada
1650000.0,chalet,661.0,5,5,36.7293194,-3.7307054,Barrio Punta La Mona
1650000.0,countryHouse,1000.0,10,5,37.4019071,-3.5507294,Iznalloz
1650000.0,chalet,576.0,14,10,36.8075269,-3.3488419,calle Caracol
1650000.0,chalet,661.0,5,6,36.7305369,-3.7323491,CL CARRETERA DE LA PLAYA
1650000.0,countryHouse,1430.0,14,17,36.9813471,-3.5413803,Barrio Urbanizable Residencial
1650000.0,chalet,246.0,6,5,36.733726,-3.7154607,calle Principal
1650000.0,chalet,250.0,5,4,36.7341059,-3.7176896,calle Principal
1650000.0,chalet,664.0,7,4,36.7301752,-3.7319669,carretera de la Playa
1650000.0,chalet,661.0,6,6,36.7307851,-3.7324945,Barrio Punta La Mona
1650000.0,chalet,246.0,5,5,36.7318876,-3.7168396,Cotobro
1650000.0,chalet,165.0,4,3,36.7335063,-3.7167742,"calle Principal, 2"
1650000.0,chalet,294.0,5,3,36.7245203,-3.7330403,Barrio Punta La Mona
1625000.0,chalet,439.0,4,5,36.7380545,-3.6729304,"Alclub, 9"
1595000.0,chalet,369.0,5,4,37.1709004,-3.5894036,"calle Huerta de los Angeles, 16"
1595000.0,chalet,369.0,5,4,37.1714048,-3.5913902,calle Huerta de los Angeles
1595000.0,chalet,369.0,5,4,37.1725145,-3.5883789,calle Huerta de los Angeles
1595000.0,chalet,369.0,5,4,37.1694935,-3.5902306,calle Huerta de los Angeles
1595000.0,chalet,369.0,5,4,37.1720159,-3.5893882,calle Huerta de los Angeles
1595000.0,chalet,369.0,5,4,37.1716497,-3.5903901,calle Huerta de los Angeles
1595000.0,chalet,369.0,5,4,37.1726655,-3.5892628,Barrio Cuesta Escoriaza - Barranco del Abogado
1595000.0,chalet,369.0,5,4,37.1698046,-3.590854,calle Huerta de los Angeles
1595000.0,chalet,369.0,5,4,37.1709004,-3.5894036,"calle Huerta de los Angeles, 16"
1595000.0,chalet,369.0,5,4,37.1708213,-3.5906438,Barrio Cuesta Escoriaza - Barranco del Abogado
1595000.0,chalet,369.0,5,4,37.1690269,-3.5885346,Barrio Cuesta Escoriaza - Barranco del Abogado
1595000.0,chalet,369.0,5,4,37.1726234,-3.5908654,calle Huerta de los Angeles
1595000.0,chalet,369.0,5,4,37.1692133,-3.5883732,Barrio Cuesta Escoriaza - Barranco del Abogado
1595000.0,chalet,369.0,5,4,37.1699967,-3.5885755,Barrio Cuesta Escoriaza - Barranco del Abogado
1595000.0,chalet,369.0,5,4,37.1711814,-3.5883033,Barrio Cuesta Escoriaza - Barranco del Abogado
1590000.0,chalet,253.0,4,5,36.7293933,-3.7340348,Barrio Punta La Mona
1590000.0,chalet,1742.0,10,13,37.0914384,-3.6426806,calle Condado de Huelva
1590000.0,chalet,1742.0,10,13,37.0899898,-3.644549,calle Condado de Huelva
1590000.0,chalet,1742.0,10,13,37.0915785,-3.6437519,"calle Condado de Huelva, 36"
1590000.0,chalet,1583.0,10,13,37.0915785,-3.6437519,"calle Condado de Huelva, 36"
1590000.0,chalet,1583.0,10,13,37.0915785,-3.6437519,"calle Condado de Huelva, 36"
1590000.0,chalet,1583.0,10,13,37.0915785,-3.6437519,"calle Condado de Huelva, 36"
1590000.0,chalet,1742.0,10,13,37.0905794,-3.6432466,calle Condado de Huelva
1590000.0,chalet,1742.0,10,13,37.090551,-3.6443513,calle Condado de Huelva
1590000.0,chalet,1583.0,10,13,37.0934453,-3.6439102,calle Condado de Huelva
1590000.0,chalet,1583.0,10,13,37.0915785,-3.6437519,"calle Condado de Huelva, 36"
1590000.0,chalet,1742.0,10,13,37.092786,-3.6425875,calle Condado de Huelva
1590000.0,chalet,1583.0,10,13,37.0915785,-3.6437519,"calle Condado de Huelva, 36"
1590000.0,chalet,584.0,7,6,37.168354,-3.5861355,cuesta Escoriaza
1590000.0,chalet,1583.0,10,13,37.0915785,-3.6437519,"calle Condado de Huelva, 36"
1590000.0,chalet,1583.0,10,13,37.0915416,-3.6464359,calle Condado de Huelva
1590000.0,chalet,1583.0,10,13,37.0915785,-3.6437519,"calle Condado de Huelva, 36"
1590000.0,chalet,1742.0,10,13,37.0904906,-3.642491,calle Condado de Huelva
1590000.0,chalet,1742.0,10,13,37.092605,-3.6453311,calle Condado de Huelva
1590000.0,chalet,1742.0,10,13,37.0927351,-3.6439542,calle Condado de Huelva
1565000.0,chalet,441.0,5,6,36.7519198,-3.6582924,carretera de Almería
1565000.0,chalet,600.0,5,6,36.7469878,-3.662698,"la colina de taramay, 2"
1550000.0,chalet,165.0,4,4,37.0946173,-3.394621,"URB. ARTTYSUR LUX VILLAGE, 8"
1550000.0,countryHouse,1070.0,9,5,37.0079754,-3.0136148,"calle Real de Laroles, 7"
1525000.0,chalet,382.0,4,4,36.7380545,-3.6729304,"Alclub, 9"
1525000.0,penthouse,394.0,4,4,36.7375207,-3.6902073,Almuñecar Centro
1500000.0,chalet,312.0,6,2,37.1644391,-3.5918818,"camino Bajo de Huétor, 7"
1500000.0,countryHouse,1200.0,24,24,37.2407069,-3.6737766,Albolote
1500000.0,chalet,6337.0,9,9,37.1749829,-4.1995009,calle Escuelas de Venta Santa Bárbara
1500000.0,chalet,270.0,4,4,36.730759,-3.7304767,Barrio Punta La Mona
1500000.0,countryHouse,1300.0,20,15,37.2557349,-4.1698774,Zagra
1495000.0,chalet,368.0,4,5,36.7339429,-3.7322885,avenida de los Profesionales Sanitarios s/n
1495000.0,chalet,395.0,4,5,36.7339429,-3.7322885,avenida de los Profesionales Sanitarios s/n
1495000.0,chalet,725.0,5,4,36.7331936,-3.7381878,Barrio La Herradura
1490000.0,countryHouse,213.0,3,2,36.7837081,-3.7003775,Rio Verde s/n
1480000.0,chalet,810.0,7,6,37.1111512,-3.6087312,Ogijares
1480000.0,chalet,810.0,7,6,37.1118427,-3.6109318,Ogijares
1480000.0,chalet,810.0,7,6,37.1125559,-3.6101946,Ogijares
1480000.0,chalet,810.0,7,6,37.1120309,-3.6079998,Ogijares
1450000.0,chalet,472.0,7,8,36.7480086,-3.6120758,"calle Platano, 1029"
1450000.0,chalet,500.0,7,8,36.7558697,-3.6122344,calle Chaparro
1450000.0,chalet,429.0,8,9,36.7487508,-3.6101964,calle Platano
1450000.0,chalet,472.0,8,8,36.7439655,-3.585432,Centro
1449000.0,chalet,330.0,8,5,36.738817,-3.6747363,calle la Romántica
1420000.0,chalet,700.0,6,5,37.0942781,-3.6215818,calle Media Luna
1405000.0,chalet,310.0,4,4,36.7312278,-3.7333005,Barrio Punta La Mona
1405000.0,chalet,255.0,4,3,36.7293166,-3.7313695,camino la Herencia
1405000.0,chalet,255.0,4,3,36.7330255,-3.7301682,camino La Herencia
1405000.0,chalet,240.0,4,3,36.7324449,-3.731611,Barrio Punta La Mona
1400000.0,countryHouse,600.0,7,3,37.2081881,-3.6358397,calle Jardines
1400000.0,countryHouse,600.0,7,3,37.2104816,-3.6351329,calle Jardines
1400000.0,chalet,600.0,7,3,37.2075769,-3.6311981,Maracena
1400000.0,chalet,690.0,5,6,36.7485594,-3.6647802,calle Taramay s/n
1400000.0,chalet,384.0,5,3,36.744576,-3.5863735,Centro
1400000.0,chalet,384.0,4,3,36.7419129,-3.6223087,Monte los Almendros - El Pargo - Costa Aguilera
1400000.0,countryHouse,600.0,7,3,37.2083958,-3.6379396,Maracena
1390000.0,countryHouse,1075.0,1,2,37.0017242,-3.9910015,Alhama de Granada
1385000.0,countryHouse,573.0,10,5,37.1887854,-3.7194086,plaza San Agustín s/n
1350600.0,chalet,657.0,6,5,37.1808737,-3.5920895,callejón de las Tomasas s/n
1350600.0,chalet,657.0,6,5,37.1808125,-3.5928495,"callejón de las Tomasas, 1"
1350600.0,chalet,623.0,6,5,37.1815006,-3.5906423,callejón de las Tomasas
1350600.0,chalet,622.0,6,4,37.180997,-3.5914539,"callejón de las Tomasas, 12"
1350600.0,chalet,657.0,6,5,37.1804368,-3.5923174,calle San Agustín Alto
1350000.0,chalet,415.0,7,3,36.7369665,-3.7579735,calle las Palomas
1350000.0,chalet,370.0,4,3,37.1701939,-3.5847174,calle Barranco del Abogado
1350000.0,chalet,413.0,6,6,36.7456148,-3.7578622,calle Cataluña
1325000.0,chalet,456.0,7,5,37.1072543,-3.6018542,"calle Escultor Cayetano Aníbal, 15 -13"
1300000.0,countryHouse,90.0,2,1,36.7565177,-3.5564181,Motril pueblo
1295000.0,chalet,341.0,4,5,36.7339429,-3.7322885,avenida de los Profesionales Sanitarios s/n
1295000.0,chalet,200.0,5,5,36.7850918,-3.6587906,"Fantastisk egendom med tre boningshus och, 8 hektar"
1295000.0,countryHouse,479.0,6,5,36.7743906,-3.6624183,Itrabo
1295000.0,chalet,650.0,5,3,36.7461621,-3.5851592,Centro
1290000.0,chalet,596.0,5,4,37.1701436,-3.5895913,"calle Molinos, 71"
1290000.0,chalet,391.0,1,5,36.9970657,-3.0231879,calle FUENTEZUELAS
1272600.0,chalet,289.0,5,3,37.1796493,-3.5919648,"calle Zafra, 12 -14"
1250000.0,chalet,479.0,8,6,36.7434734,-3.6883641,Almuñecar Centro
1250000.0,chalet,400.0,5,3,36.7418786,-3.7548612,calle Nueva Peña Parda s/n
1250000.0,countryHouse,329.0,2,2,37.2498872,-3.7508658,Polígono 13 parcela105
1250000.0,chalet,565.0,10,5,36.7453782,-3.5310304,"camino Minasierra, 1931"
1250000.0,chalet,479.0,8,6,36.7427173,-3.6897488,"avenida Almanzora, 1"
1250000.0,chalet,565.0,10,5,36.7453782,-3.5310304,"camino Minasierra, 1931"
1250000.0,chalet,565.0,10,5,36.7469723,-3.5308888,camino Minasierra
1250000.0,chalet,755.0,14,14,37.1462501,-3.5781896,avenida Andalucía
1250000.0,chalet,479.0,8,6,36.743536,-3.6883383,avenida Almanzora
1250000.0,chalet,479.0,8,6,36.7420903,-3.6909358,Almuñecar Centro
1250000.0,chalet,358.0,5,3,36.7501421,-3.609206,calle Granado
1250000.0,chalet,479.0,8,6,36.7445073,-3.6912457,Almuñecar Centro
1250000.0,chalet,479.0,8,6,36.7414687,-3.6902938,avenida Almanzora
1250000.0,countryHouse,384.0,3,2,37.4494968,-2.7316783,Caniles
1250000.0,chalet,560.0,7,5,36.7699583,-3.5270056,mirasierra s/n
1250000.0,chalet,565.0,10,5,36.7453782,-3.5310304,"camino Minasierra, 1931"
1250000.0,chalet,565.0,10,5,36.7453782,-3.5310304,"camino Minasierra, 1931"
1250000.0,chalet,250.0,3,3,36.744888,-3.6154817,Urbanización el Pargo
1250000.0,chalet,255.0,5,4,36.7426447,-3.7532964,Barrio Las Palomas
1250000.0,chalet,565.0,10,5,36.7433885,-3.5313472,camino Minasierra
1250000.0,chalet,358.0,5,3,36.7486068,-3.6117965,calle Granado
1250000.0,chalet,479.0,8,6,36.7419667,-3.6903505,Almuñecar Centro
1250000.0,chalet,479.0,8,6,36.7427982,-3.691961,Almuñecar Centro
1250000.0,chalet,575.0,6,6,37.4826199,-2.7672127,"carretera de Caniles, 13"
1248000.0,countryHouse,60.0,2,1,36.9621986,-3.0467794,Ugijar
1200000.0,chalet,317.0,16,7,37.1669084,-3.5853736,"callejón de la Sabica, 12 -26"
1200000.0,chalet,317.0,16,7,37.1656148,-3.5854718,callejón de la Sabica
1200000.0,countryHouse,639.0,14,16,37.1630189,-3.5093875,"calle Erillas, 1"
1200000.0,chalet,242.0,5,5,37.1813736,-3.5881787,"callejón del Boli, 6"
1200000.0,chalet,317.0,16,7,37.1669235,-3.5858231,"DE LA SIERRA, 19"
1200000.0,chalet,317.0,16,7,37.16747,-3.5869794,callejón de la Sabica
1200000.0,chalet,317.0,16,7,37.1678827,-3.5844575,callejón de la Sabica
1200000.0,chalet,317.0,16,7,37.1687162,-3.5852909,Ctra Sierra - Acceso Nuevo Alhambra
1200000.0,chalet,317.0,16,7,37.1668583,-3.5859556,"carretera de la Sierra, 19"
1200000.0,chalet,359.0,7,4,36.7298398,-3.7306466,"calle Jilgueros, 4 ---2"
1200000.0,chalet,247.0,4,3,36.7335173,-3.6764302,"calle Torrepinos, 35"
1200000.0,chalet,317.0,16,7,37.1679618,-3.5841252,callejón de la Sabica
1200000.0,chalet,250.0,4,5,36.7457563,-3.6484918,calle Menorca
1200000.0,chalet,480.0,7,8,36.9946972,-3.0860049,calle Granada
1200000.0,countryHouse,5132.0,8,5,37.1511236,-3.0719207,camino Bajo
1200000.0,chalet,359.0,7,4,36.7303276,-3.73226,Barrio Punta La Mona
1200000.0,chalet,250.0,4,5,36.7455101,-3.648632,Lomos de Curumbico s/n
1200000.0,chalet,185.0,2,2,36.7395413,-3.7083804,"calle Montañés, 12"
1200000.0,chalet,359.0,7,6,36.7283424,-3.7296752,Barrio Punta La Mona
1200000.0,chalet,300.0,3,3,36.7415391,-3.7526571,calle Peña Baja
1200000.0,chalet,317.0,16,7,37.1656429,-3.584626,Ctra Sierra - Acceso Nuevo Alhambra
1200000.0,chalet,359.0,6,4,36.7308913,-3.7302956,Barrio Punta La Mona
1200000.0,chalet,431.0,7,4,36.7277469,-3.7319702,Barrio Punta La Mona
1200000.0,chalet,200.0,4,4,36.7395482,-3.7583505,Barrio Las Palomas
1200000.0,chalet,317.0,16,7,37.1680854,-3.5865549,Ctra Sierra - Acceso Nuevo Alhambra
1200000.0,chalet,200.0,4,4,36.7384888,-3.7615802,Barrio Las Palomas
1200000.0,chalet,359.0,7,4,36.725901,-3.728598,avenida Marina del Este
1199000.0,flat,426.0,8,5,37.176459,-3.6013568,"plaza de la Trinidad, 11"
1195000.0,chalet,375.0,4,5,36.7339429,-3.7322885,avenida de los Profesionales Sanitarios s/n
1195000.0,chalet,335.0,5,4,36.74164,-3.7551732,"calle Nueva Peña Parda, 23"
1190000.0,chalet,398.0,4,4,37.1597115,-3.5796311,Bola de Oro
1190000.0,chalet,755.0,14,14,37.1450362,-3.5754588,avenida Andalucía
1190000.0,chalet,755.0,14,14,37.1472452,-3.5751032,Huétor-Vega
1190000.0,chalet,755.0,14,14,37.1468394,-3.5761809,"avenida Andalucía, 57"
1190000.0,chalet,755.0,14,14,37.1457551,-3.5761691,avenida Andalucía
1190000.0,chalet,755.0,14,14,37.1479223,-3.5775682,avenida Andalucía
1190000.0,chalet,755.0,14,14,37.1488509,-3.5757622,avenida Andalucía
1190000.0,chalet,325.0,4,4,36.7412944,-3.7545842,"calle Peña Baja, 4"
1190000.0,chalet,755.0,14,14,37.1466629,-3.576267,"avenida Andalucía, 57"
1190000.0,chalet,340.0,6,7,36.7471079,-3.6032041,Monte los Almendros - El Pargo - Costa Aguilera
1190000.0,chalet,755.0,14,14,37.1461359,-3.575287,Huétor-Vega
1190000.0,chalet,512.0,5,5,36.7284042,-3.7321697,Barrio Punta La Mona
1190000.0,chalet,276.0,5,3,36.7435264,-3.7561661,calle Pena Baja
1190000.0,chalet,755.0,14,14,37.1469129,-3.5776471,Huétor-Vega
1189000.0,chalet,327.0,6,7,36.7491334,-3.6177457,calle Laurel
1185000.0,chalet,293.0,4,3,36.7423882,-3.7563021,calle Peña Baja
1180000.0,chalet,300.0,4,3,36.7400623,-3.7540309,calle peña parda
1180000.0,chalet,205.0,4,4,37.1649014,-3.6088208,"calle Doctor López Font, 40"
1180000.0,flat,663.0,17,11,37.1757575,-3.6068818,"calle Emperatriz Eugenia, 11"
1180000.0,flat,663.0,17,11,37.1739925,-3.6058281,Barrio Jardín Botánico
1180000.0,flat,663.0,17,11,37.1751811,-3.6084352,calle Emperatriz Eugenia
1180000.0,flat,663.0,17,11,37.1768841,-3.6072566,calle Emperatriz Eugenia
1180000.0,flat,663.0,17,11,37.1750449,-3.6081483,calle Emperatriz Eugenia
1180000.0,flat,663.0,17,11,37.1762479,-3.6052094,Barrio Jardín Botánico
1180000.0,chalet,306.0,5,4,37.1649606,-3.6088174,"calle Doctor López Font, 40"
1180000.0,flat,663.0,17,11,37.1746834,-3.6065611,calle Emperatriz Eugenia
1180000.0,chalet,300.0,4,3,36.7424718,-3.7527565,calle Peña Baja
1180000.0,chalet,363.0,4,4,37.1750058,-3.6033303,plaza de los Lobos
1180000.0,chalet,205.0,4,4,37.1641336,-3.6079663,calle Doctor López Font
1180000.0,flat,663.0,17,11,37.1769531,-3.6066998,Barrio Jardín Botánico
1180000.0,chalet,363.0,4,4,37.1753715,-3.602638,Barrio Jardín Botánico
1180000.0,chalet,205.0,4,4,37.166343,-3.6089861,Figares
1180000.0,chalet,205.0,4,4,37.1657755,-3.6079841,Figares
1180000.0,flat,663.0,17,11,37.1755363,-3.6057426,calle Emperatriz Eugenia
1180000.0,chalet,205.0,4,4,37.1660132,-3.6085624,calle Doctor López Font
1180000.0,flat,663.0,17,11,37.1757575,-3.6068818,"calle Emperatriz Eugenia, 11"
1180000.0,chalet,363.0,4,4,37.1768961,-3.6035528,"plaza de los Lobos, 7"
1180000.0,chalet,363.0,4,4,37.1786714,-3.6031922,plaza de los Lobos
1180000.0,chalet,275.0,5,4,36.7364485,-3.7583136,calle las Palomas
1180000.0,chalet,275.0,5,3,36.7328635,-3.7370257,Barrio La Herradura
1180000.0,flat,663.0,17,11,37.1752289,-3.6054638,Barrio Jardín Botánico
1180000.0,flat,663.0,17,11,37.1755639,-3.6086586,Barrio Jardín Botánico
1180000.0,flat,663.0,17,11,37.1747092,-3.6059722,calle Emperatriz Eugenia
1180000.0,flat,663.0,17,11,37.1769664,-3.6054561,Barrio Jardín Botánico
1180000.0,chalet,363.0,4,4,37.1779675,-3.6043589,Barrio Jardín Botánico
1180000.0,chalet,363.0,4,4,37.1782252,-3.6039634,Barrio Jardín Botánico
1180000.0,chalet,205.0,4,4,37.164117,-3.6068908,Figares
1180000.0,chalet,293.0,4,3,36.7349734,-3.736464,Barrio La Herradura
1180000.0,chalet,325.0,5,3,36.7369091,-3.7409192,Barrio La Herradura
1150000.0,chalet,400.0,9,5,37.1606347,-3.5804411,"calle Zoraya, 7"
1150000.0,chalet,400.0,9,5,37.1614658,-3.5796858,calle Zoraya
1150000.0,chalet,400.0,9,5,37.1616764,-3.5802356,calle Zoraya
1150000.0,chalet,400.0,9,5,37.1621061,-3.5805961,Bola de Oro
1150000.0,chalet,400.0,9,5,37.1591395,-3.5811412,calle Zoraya
1150000.0,chalet,400.0,9,5,37.1595159,-3.5817909,Bola de Oro
1150000.0,chalet,400.0,3,4,37.1606347,-3.5804411,"calle Zoraya, 7"
1150000.0,chalet,400.0,9,5,37.1592399,-3.5798963,calle Zoraya
1150000.0,chalet,400.0,9,5,37.1620888,-3.5792575,Bola de Oro
1150000.0,chalet,400.0,9,5,37.1615168,-3.5794465,calle Zoraya
1150000.0,chalet,400.0,9,5,37.1614546,-3.5818685,Bola de Oro
1150000.0,chalet,400.0,9,5,37.1618495,-3.5804616,Bola de Oro
1150000.0,chalet,390.0,4,4,37.1606719,-3.5824705,Bola de Oro
1150000.0,chalet,400.0,9,5,37.1594172,-3.5795615,Bola de Oro
1150000.0,chalet,400.0,9,5,37.1622333,-3.5796974,Bola de Oro
1150000.0,chalet,250.0,5,4,36.728042,-3.7337179,"carretera de la Playa, 35"
1150000.0,chalet,272.4,5,4,36.7291879,-3.7348761,Barrio Punta La Mona
1150000.0,chalet,252.0,5,4,36.7280072,-3.7355098,Barrio Punta La Mona
1120000.0,chalet,440.0,8,8,36.935745,-3.5698975,"calle la Redonda, 8 -12"
1100000.0,chalet,260.0,4,3,37.15863,-3.5788918,Bola de Oro
1100000.0,chalet,260.0,4,3,37.1600823,-3.5780203,Bola de Oro
1100000.0,chalet,260.0,4,3,37.1603265,-3.5793077,"calle Zoraya, 1"
1100000.0,chalet,260.0,4,3,37.1603265,-3.5793077,"calle Zoraya, 1"
1100000.0,chalet,260.0,4,3,37.1621673,-3.5797282,calle Zoraya
1100000.0,chalet,4000.0,3,2,36.7004099,-3.4849995,"calle Acera del Mar, 68"
1100000.0,chalet,260.0,4,3,37.161309,-3.5782046,calle Zoraya
1100000.0,chalet,260.0,4,3,37.160763,-3.5775222,Bola de Oro
1100000.0,chalet,260.0,4,3,37.1618811,-3.5805333,Bola de Oro
1100000.0,chalet,260.0,4,3,37.1603265,-3.5793077,"calle Zoraya, 1"
1100000.0,chalet,260.0,4,3,37.1599294,-3.5804085,calle Zoraya
1100000.0,flat,186.0,4,3,37.1744643,-3.596855,plaza Isabel la Católica
1100000.0,chalet,200.0,4,3,37.1615894,-3.5777551,Bola de Oro
1100000.0,countryHouse,160000.0,12,1,37.6278314,-2.6776156,Benamaurel
1100000.0,countryHouse,1500.0,5,2,37.7957731,-2.7796177,Castril
1099000.0,chalet,339.0,4,3,37.1734495,-3.5897773,Barrio Cuesta Escoriaza - Barranco del Abogado
1095000.0,chalet,297.0,4,4,36.7339429,-3.7322885,avenida de los Profesionales Sanitarios s/n
1095000.0,chalet,327.0,4,4,36.9394987,-3.570588,El Valle
1060000.0,chalet,487.0,6,3,37.1639105,-3.5757291,"carretera de la Sierra, 130 -136"
1050000.0,chalet,120.0,5,2,36.7538589,-3.7440882,"Viaducto de río Jate, 108"
1050000.0,chalet,120.0,5,2,36.7538589,-3.7440882,"Viaducto de río Jate, 108"
1050000.0,chalet,120.0,5,2,36.7627403,-3.7410622,Vía
1050000.0,chalet,120.0,5,2,36.7547571,-3.7455757,Viaducto de río Jate
1050000.0,chalet,360.0,5,3,36.7432619,-3.7031304,calle Río Guadiaro
1050000.0,chalet,360.0,5,3,36.745002,-3.7025868,Cotobro
1049000.0,chalet,720.0,4,4,37.0971935,-4.2598269,calle CARBONARA s/n
1000000.0,chalet,300.0,6,4,36.7170514,-3.5552175,"calle Rector Lorenzo Morillas Cuevas, 12"
1000000.0,chalet,2500.0,9,5,37.096716,-4.2601823,"camino Calero, 4"
1000000.0,flat,1070.0,9,9,36.7315817,-3.6925361,plaza de Constitucion
1000000.0,chalet,360.0,5,4,36.7178047,-3.5570571,Playa Granada
1000000.0,chalet,260.0,3,3,36.7239361,-3.7320188,Barrio Punta La Mona
1000000.0,chalet,373.0,5,4,37.1322793,-3.5687844,Cajar
1000000.0,countryHouse,211.0,4,2,36.7381815,-3.5009586,carretera GR-5209 s/n
1000000.0,chalet,375.0,5,4,36.7184621,-3.557844,"calle Rector Juan de Dios López González, 2"
999999.0,chalet,1801.0,17,17,37.302214,-3.1428158,"calle Cañaveral, 18"
999000.0,chalet,759.0,15,16,37.1631336,-3.512178,A-4026 s/n
999000.0,chalet,355.0,6,4,37.1604986,-3.6021879,avenida Don Bosco
999000.0,chalet,600.0,4,3,36.7480027,-3.6034727,Monte los Almendros - El Pargo - Costa Aguilera
999000.0,countryHouse,250.0,4,2,37.31327,-4.14743,"Diseminado Extrarradio, 463"
998000.0,countryHouse,200.0,2,1,36.7672669,-3.5999687,Centro
998000.0,chalet,293.0,9,2,36.7324766,-3.6790852,calle Barrio Andaluz
995000.0,chalet,349.0,6,4,37.1918658,-3.6089662,calle Gaona
995000.0,chalet,676.0,6,4,37.1921909,-3.6102165,"calle Gaona, 2"
995000.0,chalet,676.0,6,4,37.1938786,-3.6099184,calle Gaona
995000.0,chalet,676.0,6,4,37.1921909,-3.6102165,"calle Gaona, 2"
995000.0,countryHouse,280.0,5,4,37.1322355,-3.5405377,"Casa Alta, 4"
995000.0,chalet,676.0,6,4,37.1935386,-3.6109685,calle Gaona
995000.0,chalet,676.0,6,4,37.1915733,-3.6088562,Barrio La Cruz
995000.0,chalet,300.0,6,4,36.8338034,-3.5142448,"calle iglesia, 1"
995000.0,chalet,500.0,11,9,37.1195768,-3.5849142,"calle Veleta, 3"
990560.0,chalet,1523.0,1,1,37.159149,-3.5318078,camino Viejo de Güéjar
990000.0,chalet,719.0,8,6,37.2522322,-3.6524942,calle Mistral
990000.0,chalet,719.0,8,6,37.252324,-3.6548748,calle Mistral
990000.0,chalet,719.0,8,6,37.2499415,-3.6523475,Albolote
990000.0,chalet,719.0,8,6,37.2528387,-3.6517919,calle Mistral
990000.0,chalet,719.0,8,6,37.2522717,-3.6516459,Albolote
990000.0,chalet,154.0,5,3,37.1711452,-3.5850282,"calle Barranco del Abogado, 5"
990000.0,chalet,154.0,5,3,37.1711452,-3.5850282,"calle Barranco del Abogado, 5"
990000.0,chalet,424.0,7,8,37.3750389,-4.0718835,"camino Montefrio, 1"
990000.0,chalet,424.0,7,8,37.3773669,-4.0733373,Vía
990000.0,chalet,424.0,7,8,37.3768977,-4.0717614,Montefrio
990000.0,chalet,154.0,5,3,37.1719073,-3.5863195,Barrio Cuesta Escoriaza - Barranco del Abogado
990000.0,chalet,154.0,5,3,37.1724767,-3.5837806,Barrio Cuesta Escoriaza - Barranco del Abogado
990000.0,chalet,433.0,5,3,36.7366868,-3.7610285,Barrio Los Cármenes - Cerro Gordo
990000.0,chalet,719.0,8,6,37.2532437,-3.652056,calle Mistral
990000.0,chalet,719.0,8,6,37.2502095,-3.6523694,Albolote
990000.0,chalet,154.0,5,3,37.1711452,-3.5850282,"calle Barranco del Abogado, 5"
990000.0,chalet,424.0,7,8,37.3775396,-4.0723544,Vía
990000.0,chalet,154.0,5,3,37.1699513,-3.5838097,calle Barranco del Abogado
990000.0,chalet,546.0,5,5,36.7439416,-3.526624,calle Alonso de Contreras
990000.0,chalet,719.0,8,6,37.2513246,-3.6512858,calle Mistral
990000.0,chalet,719.0,8,6,37.2520157,-3.6512231,Albolote
990000.0,chalet,719.0,8,6,37.2523862,-3.6527881,Albolote
990000.0,chalet,719.0,8,6,37.2523105,-3.6535416,Albolote
990000.0,chalet,719.0,8,6,37.2502014,-3.6524937,Albolote
990000.0,duplex,358.0,4,4,37.179284,-3.6057756,calle Gran Capitán
990000.0,chalet,430.0,2,5,36.7442061,-3.7691761,Barrio Los Cármenes - Cerro Gordo
990000.0,chalet,424.0,7,8,37.3761539,-4.0703102,Montefrio
990000.0,chalet,206.0,4,2,37.1691703,-3.5866683,Barrio Cuesta Escoriaza - Barranco del Abogado
990000.0,chalet,433.0,5,3,36.7348041,-3.7369307,Barrio La Herradura
990000.0,duplex,317.0,4,3,37.1764104,-3.6077727,plaza de Gran Capitán
990000.0,chalet,420.0,3,3,36.73766,-3.77127,Diseminado San Tarsicio Pol 37
990000.0,countryHouse,613.0,5,2,37.1389163,-3.5878669,carretera de la Zubia
985000.0,chalet,372.0,5,5,36.7512308,-3.6130008,calle Olmo
985000.0,chalet,175.0,3,2,36.7327766,-3.7163662,Cotobro
980000.0,flat,198.0,4,2,37.1732102,-3.5980033,calle Acera del Darro
980000.0,chalet,190.0,6,5,37.1764266,-4.1800029,Loja
980000.0,flat,261.0,5,3,37.1699091,-3.5943075,"paseo del Salón, 9"
980000.0,flat,260.0,5,3,37.169818,-3.5953932,paseo del Salón
980000.0,flat,260.0,5,3,37.1699091,-3.5943075,"paseo del Salón, 9"
980000.0,flat,261.0,5,3,37.1716611,-3.5946406,paseo del Salón
980000.0,flat,198.0,4,2,37.1704622,-3.5982376,calle Acera del Darro
980000.0,flat,198.0,4,2,37.1714989,-3.5999179,Figares
980000.0,flat,198.0,4,2,37.1719719,-3.5968599,Figares
980000.0,chalet,424.0,4,3,36.7286425,-3.7317883,Barrio Punta La Mona
975000.0,flat,445.0,5,3,37.1802657,-3.5996953,"calle Gran Vía de Colón, 40"
975000.0,flat,445.0,5,3,37.1796186,-3.5985445,calle Gran Vía de Colón
975000.0,flat,445.0,5,3,37.1804307,-3.6017402,calle Gran Vía de Colón
975000.0,flat,449.0,5,3,37.1819526,-3.6001639,calle Gran Vía de Colón
975000.0,flat,449.0,5,3,37.1802657,-3.5996953,"calle Gran Vía de Colón, 40"
975000.0,flat,445.0,5,3,37.1802657,-3.5996953,"calle Gran Vía de Colón, 40"
975000.0,flat,439.0,5,3,37.1788253,-3.5986579,calle Gran Vía de Colón
975000.0,flat,445.0,5,3,37.1808368,-3.6014502,calle Gran Vía de Colón
975000.0,chalet,441.0,11,4,37.2175403,-3.6947177,carretera Pinos Puente s/n
975000.0,flat,449.0,5,3,37.1802657,-3.5996953,"calle Gran Vía de Colón, 40"
975000.0,flat,445.0,5,3,37.1814468,-3.6003241,calle Gran Vía de Colón
975000.0,flat,449.0,5,3,37.1795435,-3.5989994,calle Gran Vía de Colón
975000.0,flat,445.0,5,3,37.1816749,-3.600918,calle Gran Vía de Colón
975000.0,flat,449.0,5,3,37.1808691,-3.598825,calle Gran Vía de Colón
975000.0,flat,449.0,5,3,37.1792842,-3.6008534,Barrio Gran Vía
975000.0,flat,445.0,5,3,37.1790178,-3.6002486,calle Gran Vía de Colón
975000.0,flat,449.0,5,3,37.178313,-3.5993981,calle Gran Vía de Colón
975000.0,flat,445.0,5,3,37.1815339,-3.5998598,Barrio Gran Vía
975000.0,flat,445.0,5,3,37.1787077,-3.5987308,Barrio Gran Vía
975000.0,chalet,245.0,5,3,36.7312681,-3.6799585,"calle Belpanorama, 17"
975000.0,flat,449.0,5,3,37.1802657,-3.5996953,"calle Gran Vía de Colón, 40"
975000.0,flat,445.0,3,3,37.1802657,-3.5996953,"calle Gran Vía de Colón, 40"
975000.0,flat,449.0,5,3,37.1789207,-3.6010998,calle Gran Vía de Colón
975000.0,flat,445.0,5,3,37.1801635,-3.6007866,calle Gran Vía de Colón
975000.0,chalet,242.0,5,3,36.7317182,-3.6785163,calle Belpanorama
975000.0,countryHouse,300.0,6,2,37.4043161,-3.0095604,Gor
975000.0,chalet,239.0,5,3,36.7490641,-3.6106572,avenida Almendros
975000.0,flat,449.0,5,3,37.1803325,-3.5985042,Barrio Gran Vía
975000.0,flat,445.0,5,3,37.1813574,-3.6001554,Barrio Gran Vía
975000.0,flat,445.0,5,3,37.1808042,-3.5989215,calle Gran Vía de Colón
975000.0,flat,449.0,5,3,37.1795497,-3.5978883,Barrio Gran Vía
975000.0,flat,449.0,5,3,37.1782491,-3.5991643,Barrio Gran Vía
975000.0,flat,449.0,5,3,37.1805506,-3.6009489,Barrio Gran Vía
975000.0,flat,445.0,5,3,37.1795572,-3.601034,Barrio Gran Vía
975000.0,flat,445.0,5,3,37.1792735,-3.6002545,Barrio Gran Vía
975000.0,chalet,475.0,7,5,37.1486947,-3.5773144,"calle Guajira, 15"
950000.0,chalet,350.0,5,4,37.1596089,-3.5783406,calle Adinamar
950000.0,chalet,674.0,5,3,37.1108418,-3.6001171,Gojar
950000.0,chalet,350.0,5,4,37.1603372,-3.5793453,calle Adinamar
950000.0,chalet,350.0,5,4,37.1595179,-3.5800367,"calle Adinamar, 18"
950000.0,chalet,674.0,5,4,37.1127373,-3.599318,"calle Abeto, 8"
950000.0,chalet,350.0,5,4,37.158609,-3.578694,calle Adinamar
950000.0,chalet,674.0,5,4,37.1127373,-3.599318,"calle Abeto, 8"
950000.0,chalet,674.0,5,4,37.1127373,-3.599318,"calle Abeto, 8"
950000.0,chalet,350.0,5,4,37.1594443,-3.5813125,calle Adinamar
950000.0,chalet,674.0,5,4,37.1134582,-3.6000631,calle Abeto
950000.0,chalet,674.0,5,4,37.1136563,-3.6007471,calle Abeto
950000.0,chalet,350.0,5,4,37.1594155,-3.5780698,calle Adinamar
950000.0,chalet,350.0,5,4,37.1590816,-3.5783727,calle Adinamar
950000.0,chalet,630.0,6,5,37.1626465,-3.6937612,calle Mirlo
950000.0,chalet,350.0,5,4,37.1577865,-3.5809871,calle Adinamar
950000.0,chalet,674.0,5,4,37.1144519,-3.5988058,Gojar
950000.0,chalet,480.0,8,4,37.1700227,-3.5995506,"calle San Antón, 55"
950000.0,flat,157.0,4,2,37.1765558,-3.6004921,"plaza de la Romanilla, 12"
950000.0,chalet,350.0,5,4,37.1608914,-3.5813133,calle Adinamar
950000.0,chalet,674.0,5,4,37.1137619,-3.5997897,calle Abeto
950000.0,chalet,350.0,5,4,37.1595179,-3.5800367,"calle Adinamar, 18"
950000.0,chalet,674.0,5,4,37.1127373,-3.599318,"calle Abeto, 8"
950000.0,chalet,315.0,4,3,36.7280695,-3.7324558,"carretera Road de la Playa, 61"
950000.0,chalet,350.0,5,4,37.1578611,-3.5798416,calle Adinamar
950000.0,chalet,350.0,5,4,37.1606217,-3.5785267,calle Adinamar
950000.0,chalet,239.0,5,3,36.7477176,-3.607647,calle del Aguacate
950000.0,chalet,250.0,4,4,36.7310062,-3.7289236,carretera de la Playa
950000.0,chalet,350.0,4,3,36.733906,-3.6779222,calle Belpanorama
950000.0,chalet,250.0,4,3,36.7273419,-3.7330766,punta de la mona
950000.0,chalet,674.0,5,3,37.111684,-3.5977533,Gojar
950000.0,chalet,350.0,5,4,37.1614476,-3.5807699,calle Adinamar
950000.0,chalet,481.0,4,4,36.7303984,-3.734068,Barrio Punta La Mona
950000.0,chalet,315.0,4,3,36.7354499,-3.7390893,Barrio La Herradura
950000.0,chalet,480.0,11,8,37.1730143,-3.6035977,"moral de la mahdalena, 35"
949900.0,chalet,567.0,6,5,37.2404315,-3.6386083,calle Granados
949900.0,chalet,567.0,6,5,37.234325,-3.6277281,"OLIVOS, URBANIZACIÓN MONTELUZ"
949900.0,chalet,567.0,6,5,37.2402478,-3.6403078,calle Granados
949900.0,chalet,567.0,6,5,37.2391459,-3.6400357,"calle Granados, 7 -5"
949900.0,chalet,567.0,6,5,37.2402031,-3.6437922,"avenida de los Olivos, 156"
949900.0,chalet,567.0,6,5,37.2401349,-3.6418603,calle Granados
949900.0,chalet,567.0,6,5,37.2373887,-3.640011,Peligros
945000.0,flat,258.0,4,3,37.1721541,-3.595389,"plaza de los Campos, 5"
945000.0,flat,258.0,4,3,37.1721541,-3.595389,"plaza de los Campos, 5"
945000.0,flat,258.0,5,3,37.1721541,-3.595389,"plaza de los Campos, 5"
945000.0,flat,258.0,4,3,37.1704593,-3.5952279,plaza de los Campos
945000.0,flat,258.0,4,3,37.1721541,-3.595389,"plaza de los Campos, 5"
945000.0,flat,258.0,4,3,37.1736458,-3.5959554,plaza de los Campos
945000.0,chalet,431.0,6,5,36.7474437,-3.6084272,calle Naranjo
945000.0,flat,258.0,4,3,37.1738428,-3.5962189,Barrio San Matías - Pavaneras
945000.0,chalet,227.0,4,4,36.739667,-3.7580484,Urbanización las Palomas
945000.0,chalet,401.0,7,4,36.746047,-3.604708,Monte los Almendros - El Pargo - Costa Aguilera
945000.0,chalet,372.0,4,4,36.7389308,-3.7579783,Urbanización las Palomas
936000.0,flat,1551.0,3,2,36.9728091,-3.1549995,avenida de Andalucía
930000.0,chalet,281.0,3,2,36.7393023,-3.7614487,Urbanización las Palomas
925000.0,chalet,350.0,6,5,36.7366244,-3.7609059,"Urbanización las Palomas, 603"
920000.0,chalet,388.0,6,8,37.179326,-3.5958551,calle Quijada s/n
920000.0,chalet,358.0,4,4,37.1989051,-3.6142927,Barrio de los Periodistas
920000.0,chalet,358.0,4,4,37.1981683,-3.6137234,"calle Castoreño, 7"
920000.0,chalet,358.0,4,4,37.1981683,-3.6137234,"calle Castoreño, 7"
920000.0,chalet,358.0,4,4,37.1981683,-3.6137234,"calle Castoreño, 7"
920000.0,chalet,358.0,4,4,37.1981683,-3.6137234,"calle Castoreño, 7"
920000.0,chalet,358.0,4,4,37.1982351,-3.6136326,"calle Castoreño, 9"
920000.0,chalet,358.0,4,4,37.1981683,-3.6137234,"calle Castoreño, 7"
920000.0,chalet,340.0,6,7,37.1776378,-3.5952016,calle Quijada
900000.0,chalet,400.0,4,3,36.7476827,-3.6020469,Monte los Almendros - El Pargo - Costa Aguilera
900000.0,countryHouse,1130.0,10,4,37.5189575,-2.4928899,GR-9109
900000.0,flat,491.0,8,6,37.1587712,-3.4429742,Güéjar-Sierra
900000.0,chalet,300.0,6,2,37.1633999,-4.1362033,"calle los Geranios, 25"
899900.0,chalet,167.0,4,4,37.1835914,-3.5901074,"calle Cruz de la Rauda, 9"
899900.0,chalet,167.0,4,4,37.1835914,-3.5901074,"calle Cruz de la Rauda, 9"
899900.0,chalet,167.0,4,4,37.1834725,-3.5888249,calle Cruz de la Rauda
899900.0,chalet,167.0,4,4,37.1817919,-3.5893308,calle Cruz de la Rauda
899900.0,chalet,167.0,4,4,37.1835914,-3.5901074,"calle Cruz de la Rauda, 9"
899900.0,chalet,167.0,4,4,37.1855114,-3.5904061,calle Cruz de la Rauda
899900.0,chalet,167.0,4,4,37.1826843,-3.5906249,Albaicín
899900.0,chalet,167.0,4,4,37.1827442,-3.5917114,Albaicín
899900.0,chalet,167.0,4,4,37.1821374,-3.5902323,Albaicín
895000.0,countryHouse,616.0,8,5,37.1889954,-3.5929511,callejón de Aynadamar
895000.0,chalet,353.0,6,3,37.1796759,-3.5927735,"calle Azacayuela de San Pedro, 5 -3"
895000.0,countryHouse,616.0,8,5,37.1880618,-3.5924927,callejón de Aynadamar s/n
895000.0,chalet,365.0,5,5,37.1689219,-3.597562,"calle Rejas de la Virgen, 28"
895000.0,chalet,365.0,5,5,37.1689219,-3.597562,"calle Rejas de la Virgen, 28"
895000.0,chalet,616.0,8,5,37.1967741,-3.5860984,"A-4002, 2"
895000.0,chalet,365.0,5,5,37.1707094,-3.5976917,calle Rejas de la Virgen
895000.0,chalet,365.0,5,5,37.1709143,-3.5977457,calle Rejas de la Virgen
895000.0,chalet,365.0,5,5,37.1673284,-3.5965445,Figares
895000.0,chalet,365.0,5,5,37.1693556,-3.5963317,Figares
895000.0,chalet,365.0,5,5,37.1689219,-3.597562,"calle Rejas de la Virgen, 28"
895000.0,chalet,616.0,8,5,37.1880618,-3.5924927,callejón de Aynadamar s/n
895000.0,countryHouse,616.0,8,5,37.2104238,-3.558512,alto Barrio
895000.0,chalet,365.0,5,5,37.1681395,-3.5967874,calle Rejas de la Virgen
895000.0,chalet,264.0,4,3,36.7462414,-3.6081768,calle Naranjo
895000.0,countryHouse,616.0,8,5,37.1988121,-3.5828508,A-4002
895000.0,countryHouse,616.0,8,5,37.2018296,-3.5852383,Albaicín
895000.0,chalet,365.0,5,5,37.1692042,-3.5986801,Figares
895000.0,chalet,365.0,5,5,37.1673262,-3.5972735,calle Rejas de la Virgen
895000.0,countryHouse,616.0,8,5,37.1890218,-3.5936894,Albaicín
895000.0,chalet,300.0,5,5,36.7411193,-3.6891133,Almuñecar Centro
890000.0,chalet,365.0,8,5,37.15892,-3.57954,"Aixa la Horra, 13"
890000.0,chalet,800.0,3,1,37.3939265,-3.0282514,Gor
875000.0,chalet,1000.0,4,5,36.7567515,-3.5227624,"calle Gerardo Diego, 17"
875000.0,chalet,450.0,6,3,37.1656409,-4.1429195,camino Molinillos s/n
875000.0,chalet,365.0,5,4,37.1540593,-3.5834489,calle Almajara
875000.0,countryHouse,246.0,8,8,36.7549287,-3.7322494,El Rescate - Río Seco
860000.0,chalet,484.0,5,4,36.9178784,-3.5478352,El Pinar
860000.0,chalet,714.0,10,6,37.2309143,-3.6560236,calle Ramón y Cajal
860000.0,chalet,375.0,5,4,36.7302987,-3.7313429,carretera de La Playa s/n
860000.0,countryHouse,459.0,5,6,36.9172414,-3.54809,El Pinar
860000.0,chalet,300.0,6,4,37.2300446,-3.6573185,"calle Ramón y Cajal, 7"
859000.0,duplex,152.0,4,2,37.1985542,-3.6161204,calle Gloria Mas
859000.0,duplex,152.0,4,2,37.1989302,-3.61669,calle Gloria Mas
859000.0,duplex,152.0,4,2,37.1973202,-3.6158404,"calle Gloria Mas, 2"
859000.0,duplex,152.0,4,2,37.1987229,-3.6157838,Barrio de los Periodistas
859000.0,duplex,152.0,4,2,37.1969571,-3.6146128,calle Gloria Mas
859000.0,duplex,152.0,4,2,37.196984,-3.6146039,Barrio de los Periodistas
859000.0,duplex,152.0,4,2,37.1958447,-3.6170692,Barrio de los Periodistas
859000.0,duplex,152.0,4,2,37.1972446,-3.6177608,calle Gloria Mas
859000.0,duplex,162.0,4,2,37.1973202,-3.6158404,"calle Gloria Mas, 2"
859000.0,duplex,152.0,4,2,37.1976586,-3.6175027,Barrio de los Periodistas
850000.0,penthouse,207.0,3,2,37.1703943,-3.6051443,Figares
850000.0,penthouse,152.0,3,2,36.7242453,-3.7299969,calle la Testa s/n
850000.0,penthouse,152.0,3,2,36.7252015,-3.7288158,calle la Testa
850000.0,chalet,264.0,11,4,37.1521383,-3.5635249,calle Alemania
850000.0,chalet,165.0,4,5,36.72391,-3.7329805,"camino Path de la Ermita, 24"
850000.0,chalet,475.0,5,4,37.154788,-3.5818556,"calle Almajara, 10"
850000.0,chalet,264.0,6,3,37.153198,-3.5610737,calle Alemania
850000.0,chalet,264.0,11,4,37.1543076,-3.5611383,calle Alemania
850000.0,penthouse,124.0,3,1,36.7238003,-3.7302987,"calle la Testa, 14"
850000.0,penthouse,168.0,3,2,36.7229642,-3.7300968,"calle la Testa, 3"
850000.0,penthouse,152.0,3,2,36.7230719,-3.7295691,calle la Testa
850000.0,penthouse,123.0,3,2,36.7247043,-3.7288789,calle la Testa
850000.0,flat,320.0,6,3,37.1717176,-3.597783,Figares
850000.0,chalet,570.0,9,5,37.1760626,-3.9575456,Moraleda de Zafayona
850000.0,chalet,264.0,6,3,37.1527807,-3.5610671,calle Alemania
850000.0,chalet,264.0,6,3,37.1541185,-3.5643535,calle Alemania
850000.0,chalet,264.0,6,3,37.1531044,-3.5611576,calle Alemania
850000.0,penthouse,123.0,3,1,36.7245818,-3.731458,Barrio Punta La Mona
850000.0,flat,111.0,3,3,37.0936073,-3.3959025,"calle de los Pinos, 4"
850000.0,chalet,170.0,4,3,36.740835,-3.6900843,Almuñecar Centro
850000.0,chalet,400.0,7,7,36.7344954,-3.6801358,"calle la Ribera Baja, 14"
845000.0,chalet,292.0,5,3,36.7337083,-3.6755027,cuesta de los Pinos
845000.0,chalet,200.0,5,3,36.7428072,-3.6695512,calle Portichuelo Alto
845000.0,chalet,420.0,5,3,36.7346138,-3.6757783,"cuesta de los Pinos, 29"
845000.0,chalet,199.0,4,3,36.7343552,-3.676501,"cuesta de los Pinos, 29"
845000.0,chalet,434.0,4,3,36.7346864,-3.6780292,cuesta de los Pinos s/n
845000.0,chalet,185.0,4,3,36.7352794,-3.6777292,avenida de los Pinos
845000.0,chalet,344.0,4,5,36.7457056,-3.6706684,calle Citalsol
845000.0,chalet,186.0,4,3,36.7346138,-3.6757783,"cuesta de los Pinos, 29"
845000.0,chalet,200.0,4,2,36.7392801,-3.6755038,Velilla - Velilla Taramay
845000.0,chalet,198.0,5,3,36.7349103,-3.6742408,Velilla - Velilla Taramay
845000.0,chalet,198.0,5,2,36.7304735,-3.686185,Almuñecar Centro
840000.0,chalet,210.0,5,2,37.1675265,-3.9655245,"extrarradio, 35"
840000.0,chalet,281.0,5,3,37.1759316,-3.5939515,Barrio Molinos - Santiago
830000.0,chalet,229.0,6,3,37.1796759,-3.5927735,"calle Azacayuela de San Pedro, 5 -3"
830000.0,chalet,230.0,6,3,37.1824607,-3.6011676,"calle Limon, 24"
830000.0,chalet,353.0,6,3,37.1796406,-3.5940382,calle Limón
830000.0,chalet,220.0,6,3,37.1802657,-3.5916606,calle Limón
825000.0,chalet,465.0,5,4,37.1851358,-3.5905151,puerta DE FAJALAUZA
825000.0,chalet,481.0,6,7,37.1543273,-3.5764831,avenida Loaysa
825000.0,chalet,348.0,5,5,36.7538892,-3.6130973,Monte de los Almendros
820000.0,chalet,300.0,4,3,36.7513142,-3.4955683,"Las Zorreras, polígono 29 (Casería La Joya)"
820000.0,flat,212.0,5,3,37.174895,-3.5976958,calle Salamanca
810000.0,chalet,351.0,12,10,36.9527995,-3.5197149,"calle Lecrin, 10"
800000.0,penthouse,140.0,3,2,36.7339703,-3.7015756,"paseo San Cristóbal, 18"
800000.0,chalet,316.0,3,2,37.1740194,-3.5847023,"paseo de la Sabica, 22"
800000.0,chalet,316.0,3,2,37.1760848,-3.5847282,paseo de la Sabica
800000.0,chalet,316.0,3,2,37.1740194,-3.5847023,"paseo de la Sabica, 22"
800000.0,chalet,316.0,3,2,37.1750073,-3.5847913,paseo de la Sabica
800000.0,chalet,316.0,3,2,37.1736136,-3.586206,paseo de la Sabica
800000.0,chalet,139.0,1,1,37.1757595,-3.5841372,paseo de la Sabica
800000.0,chalet,316.0,3,2,37.1740194,-3.5847023,"paseo de la Sabica, 22"
800000.0,chalet,379.0,5,4,36.7181529,-3.5595275,calle Rector Juan de Dios López González
800000.0,countryHouse,38000.0,1,1,36.7759062,-3.7321587,El Rescate - Río Seco
800000.0,chalet,214.0,3,3,36.7334998,-3.71717,"calle Principal, 7"
800000.0,chalet,700.0,10,2,37.19153,-3.59516,"paseo de Cartuja, 7"
799990.0,chalet,350.0,3,4,36.7190253,-3.5566809,calle Rector Juan de Dios López González s/n
799000.0,chalet,451.0,5,3,37.169643,-3.585918,"camino Nuevo del Cementerio, 50"
799000.0,chalet,537.0,9,7,37.1133198,-3.5925902,Altos de la Zubia
798000.0,chalet,357.0,4,3,37.2336601,-3.6585104,"camino Cubillas, 3"
798000.0,chalet,357.0,4,3,37.2324558,-3.6586449,camino Cubillas
798000.0,chalet,357.0,4,3,37.2340502,-3.6573392,Albolote
798000.0,chalet,357.0,4,3,37.2355678,-3.6579801,camino Cubillas
798000.0,chalet,357.0,4,3,37.2349475,-3.6581634,Albolote
798000.0,chalet,357.0,4,3,37.232591,-3.6583422,Albolote
798000.0,chalet,323.0,7,2,37.2855863,-3.6657158,paseo del Arte
798000.0,chalet,357.0,4,3,37.2844158,-3.6649724,"paseo del Arte, 3"
798000.0,chalet,357.0,4,3,37.2337412,-3.6585582,camino Cubillas
798000.0,chalet,357.0,4,3,37.2352156,-3.6584855,Albolote
798000.0,chalet,357.0,4,3,37.233697,-3.6596903,Albolote
795000.0,chalet,292.0,3,2,36.7907886,-3.5942309,Molvizar
795000.0,chalet,313.0,4,3,36.74769,-3.6477513,Urbanización Delta
795000.0,chalet,258.0,5,3,36.7496321,-3.6121687,calle El Sol
795000.0,chalet,250.0,3,2,36.7331724,-3.689462,Almuñecar Centro
795000.0,countryHouse,624.0,8,6,37.2785574,-3.7629974,Pinos-Puente
795000.0,chalet,285.0,5,3,36.7498278,-3.6118249,calle El Sol
795000.0,chalet,238.0,4,4,36.74224,-3.62248,"Urbanizacion Costa Aguilera, 1"
795000.0,chalet,298.0,6,2,36.7488282,-3.6041461,Monte los Almendros - El Pargo - Costa Aguilera
795000.0,chalet,340.0,4,4,36.7565408,-3.6130175,calle Roble
795000.0,chalet,346.0,3,3,36.7551275,-3.6135781,avenida Almendros
795000.0,chalet,420.0,4,3,36.7492057,-3.6458616,Urbanización Delta
795000.0,chalet,258.0,5,3,36.7504134,-3.6094321,calle El Sol
795000.0,chalet,313.0,4,5,36.7501302,-3.6473941,Urbanizacion delta
795000.0,chalet,178.0,4,3,36.7414939,-3.6209719,Urbanizacion Costa Aguilera
795000.0,chalet,107.0,3,2,36.745858,-3.5826405,carretera Nacional N-340
795000.0,chalet,250.0,3,3,36.7341989,-3.7120405,paseo de Cotobro
795000.0,chalet,250.0,3,3,36.7354647,-3.7171257,calle Principal
795000.0,chalet,250.0,3,3,36.7331622,-3.7187423,calle Principal
795000.0,chalet,159.0,4,3,36.7450155,-3.6155521,Monte los Almendros - El Pargo - Costa Aguilera
795000.0,chalet,258.0,5,3,36.7477828,-3.6103739,Monte los Almendros - El Pargo - Costa Aguilera
795000.0,chalet,500.0,3,3,36.7343011,-3.7192114,"calle Principal, 1"
795000.0,chalet,500.0,3,3,36.73307,-3.7187841,calle Principal
795000.0,chalet,313.0,4,3,36.7513173,-3.6463563,Velilla - Velilla Taramay
795000.0,chalet,249.0,3,3,36.7313934,-3.7120572,Cotobro
790000.0,chalet,391.0,5,4,37.1909013,-3.6165884,"avenida de Andalucía, 34"
790000.0,chalet,676.0,6,5,37.0992961,-3.5815181,Altos de la Zubia
790000.0,chalet,197.0,3,2,37.1732978,-3.589703,"carril de San Cecilio, 9"
790000.0,chalet,197.0,3,2,37.1732978,-3.589703,"carril de San Cecilio, 9"
790000.0,chalet,190.0,5,4,36.7356426,-3.7625211,calle Enebro
790000.0,countryHouse,692.0,5,5,37.3237684,-4.0333529,Montefrio
790000.0,chalet,197.0,3,2,37.173561,-3.5910422,carril de San Cecilio
790000.0,chalet,197.0,3,2,37.1749941,-3.5905032,carril de San Cecilio
790000.0,chalet,197.0,3,2,37.1725246,-3.5906886,carril de San Cecilio
790000.0,chalet,420.0,4,2,37.1706749,-3.5913829,"calle Santiago, 42"
790000.0,countryHouse,692.0,5,5,37.3209911,-4.029764,Diseminado Extrarradio
790000.0,chalet,365.0,5,4,37.1533612,-3.5830117,calle Almenara
790000.0,chalet,197.0,3,2,37.1745606,-3.5892739,Barrio Cuesta Escoriaza - Barranco del Abogado
790000.0,countryHouse,692.0,5,5,37.324762,-4.0317335,Montefrio
790000.0,chalet,500.0,4,3,37.2152582,-3.7702652,camino Fte. Vaqueros-Pedro Ruiz
790000.0,penthouse,276.0,6,3,37.1494141,-3.6032996,"avenida de la Ilustración, 77"
790000.0,countryHouse,692.0,5,5,37.3238286,-4.0324946,Montefrio
790000.0,chalet,197.0,3,2,37.174576,-3.588664,Barrio Cuesta Escoriaza - Barranco del Abogado
780000.0,chalet,413.0,10,5,37.1698049,-3.5986087,"calle San Isidro, 37"
780000.0,chalet,640.0,8,4,36.7369357,-3.7041836,avenida del Mediterráneo
780000.0,chalet,694.0,4,3,36.7391892,-3.6990773,calle Instituto
775000.0,chalet,444.0,5,4,36.7513424,-3.612367,Monte los Almendros - El Pargo - Costa Aguilera
775000.0,chalet,474.0,5,5,36.75158,-3.6173048,calle Almendros
770000.0,chalet,310.0,6,4,37.1647583,-3.5944397,calle Bruselas
770000.0,chalet,326.0,3,4,37.1702155,-3.5872519,Barrio Cuesta Escoriaza - Barranco del Abogado
770000.0,chalet,310.0,6,4,37.163288,-3.5928333,"calle Bruselas, 16"
770000.0,chalet,326.0,3,4,37.1689941,-3.5872985,"calle Parrilla, 3"
770000.0,chalet,310.0,6,4,37.1619083,-3.5931845,calle Bruselas
770000.0,chalet,310.0,6,4,37.1626963,-3.5937286,calle Bruselas
770000.0,chalet,310.0,6,4,37.1646418,-3.5943867,calle Bruselas
770000.0,chalet,326.0,3,4,37.1700918,-3.586585,calle Parrilla
770000.0,chalet,310.0,6,4,37.162056,-3.5929375,calle Bruselas
770000.0,chalet,310.0,6,4,37.1650045,-3.5933441,calle Bruselas
770000.0,chalet,326.0,3,4,37.1689941,-3.5872985,"calle Parrilla, 3"
770000.0,chalet,310.0,6,4,37.1623707,-3.5938721,calle Bruselas
770000.0,chalet,326.0,3,4,37.1677349,-3.587603,calle Parrilla
770000.0,chalet,310.0,6,4,37.1636067,-3.5917853,calle Bruselas
770000.0,chalet,326.0,3,4,37.168193,-3.5881931,calle Parrilla
770000.0,chalet,326.0,3,4,37.1692494,-3.5892043,Barrio Cuesta Escoriaza - Barranco del Abogado
770000.0,chalet,310.0,6,4,37.1644577,-3.5925185,calle Bruselas
770000.0,chalet,500.0,10,2,37.499232,-2.7469514,"carretera de Murcia km 175,5 s/n"
765000.0,chalet,210.0,3,2,36.7025193,-3.4861361,"calle Milano, 7"
760000.0,flat,185.0,4,3,37.18003,-3.6089481,calle Melchor Almagro
755000.0,flat,230.0,4,3,37.1740024,-3.6097317,"Arabial, 47"
754900.0,chalet,383.0,10,10,37.1802164,-3.5930129,"calle Aljibe de Trillo, 23"
750000.0,chalet,180.0,5,4,36.7602354,-3.6576961,"Diseminado Taramay Pol 26, 226 B"
750000.0,chalet,316.0,5,5,37.1650098,-3.6088299,"calle Doctor López Font, 38"
750000.0,chalet,316.0,5,5,37.1650098,-3.6088299,"calle Doctor López Font, 38"
750000.0,chalet,315.0,5,5,37.1638929,-3.6076193,calle Doctor López Font
750000.0,chalet,316.0,5,5,37.1654502,-3.610848,calle Doctor López Font
750000.0,chalet,316.0,5,5,37.1662195,-3.6090047,Figares
750000.0,chalet,316.0,5,5,37.1659309,-3.6092512,calle Doctor López Font
750000.0,chalet,316.0,5,5,37.1637479,-3.6079469,Figares
750000.0,chalet,316.0,5,5,37.1645604,-3.6104782,Figares
750000.0,chalet,316.0,5,5,37.1650167,-3.6106422,Figares
750000.0,chalet,316.0,5,5,37.1653408,-3.610225,Figares
750000.0,chalet,316.0,5,5,37.1658039,-3.6081167,Figares
750000.0,chalet,840.0,7,1,36.794651,-3.6696514,Jete
750000.0,chalet,180.0,5,4,36.7602884,-3.6583224,Torrecuevas - Lomas del Gato
750000.0,chalet,316.0,5,5,37.1650622,-3.6083123,"calle Doctor López Font, 31"
750000.0,chalet,316.0,5,5,37.1640396,-3.6093202,calle Doctor López Font
750000.0,chalet,270.0,8,5,36.7257401,-3.7299804,calle Las Lomas s/n
750000.0,chalet,763.0,7,1,36.796685,-3.6674016,carretera Suspiro del Moro
750000.0,chalet,365.0,5,4,37.1587749,-3.5831663,Bola de Oro s/n
750000.0,chalet,365.0,5,4,37.1549696,-3.5820524,calle Almenara
750000.0,chalet,316.0,5,5,37.1641682,-3.6095588,Figares
750000.0,chalet,316.0,5,5,37.163778,-3.609118,Figares
750000.0,chalet,316.0,5,5,37.165721,-3.6081833,calle Doctor López Font
750000.0,chalet,316.0,5,5,37.1645019,-3.6078194,Figares
750000.0,chalet,316.0,5,5,37.1644365,-3.6097679,Figares
750000.0,chalet,316.0,5,5,37.1662433,-3.60853,Figares
750000.0,chalet,335.0,6,3,36.7451425,-3.664284,francisco raya
750000.0,chalet,120.0,5,4,36.7583084,-3.6586938,via del Mediterráneo s/n
750000.0,chalet,763.0,7,1,36.7940793,-3.6659552,carretera Suspiro del Moro
750000.0,chalet,220.0,4,2,36.7453337,-3.6708007,calle Citalmar
750000.0,countryHouse,200.0,4,2,37.4938072,-2.7622327,Baza
750000.0,chalet,180.0,5,3,36.7557214,-3.6665372,Torrecuevas - Lomas del Gato
750000.0,chalet,273.0,3,2,36.7651511,-3.5965795,Centro
750000.0,countryHouse,1236.0,20,2,37.8107577,-2.5401138,"calle Carril, 3"
750000.0,chalet,400.0,4,4,37.1228234,-3.608534,"calle Caño el Palo, 1"
750000.0,flat,160.0,3,2,37.1729635,-3.5997206,"calle Acera del Darro, 2"
749900.0,chalet,290.0,5,3,37.1926843,-3.6139437,calle Joaquín García
749000.0,penthouse,164.0,5,2,37.1732334,-3.602548,calle Recogidas
749000.0,penthouse,164.0,5,2,37.1722861,-3.6017458,"calle Recogidas, 13"
749000.0,penthouse,164.0,5,2,37.1729843,-3.6032477,calle Recogidas
749000.0,penthouse,164.0,5,2,37.1704888,-3.6007067,calle Recogidas
749000.0,penthouse,164.0,5,2,37.1722861,-3.6017458,"calle Recogidas, 13"
749000.0,penthouse,164.0,5,2,37.1736175,-3.6001509,calle Recogidas
749000.0,penthouse,164.0,5,2,37.1716023,-3.6004143,calle Recogidas
749000.0,penthouse,164.0,5,2,37.1731335,-3.6009847,calle Recogidas
749000.0,penthouse,164.0,5,2,37.1727114,-3.599936,calle Recogidas
749000.0,penthouse,164.0,5,2,37.1703622,-3.6011685,calle Recogidas
749000.0,penthouse,164.0,5,2,37.1722861,-3.6017458,"calle Recogidas, 13"
749000.0,penthouse,164.0,5,2,37.1704618,-3.6027424,calle Recogidas
749000.0,penthouse,164.0,5,2,37.1732678,-3.6029242,calle Recogidas
749000.0,penthouse,164.0,5,2,37.1720772,-3.6030163,calle Recogidas
749000.0,penthouse,164.0,5,2,37.1726252,-3.5997766,calle Recogidas
749000.0,penthouse,164.0,5,2,37.1723949,-3.6039393,calle Recogidas
745000.0,chalet,387.0,3,4,36.9375657,-3.5724419,"calle Triana, 17"
745000.0,chalet,413.0,3,3,36.9389626,-3.5711731,calle Triana
740000.0,chalet,440.0,5,5,36.7529956,-3.6094742,calle Roble
740000.0,chalet,966.0,6,6,36.7520777,-3.5209656,"avenida Enrique Martín Cuevas, 20"
740000.0,chalet,300.0,5,3,36.7566729,-3.6107019,Monte los Almendros - El Pargo - Costa Aguilera
740000.0,chalet,300.0,5,4,36.7531911,-3.611845,"calle Roble monte de Almendros, 2302"
740000.0,chalet,434.0,5,4,36.7528096,-3.6103112,calle Roble
740000.0,chalet,484.0,5,3,36.75384,-3.61223,El Roble
740000.0,chalet,400.0,4,4,36.7528904,-3.609652,Monte los Almendros - El Pargo - Costa Aguilera
740000.0,chalet,224.0,4,4,36.7405117,-3.7394731,Barrio La Herradura
739000.0,flat,248.0,5,3,37.1834012,-3.605018,avenida de la Constitución
738000.0,chalet,370.0,5,4,37.1850262,-3.5960886,Albaicín
737000.0,chalet,466.0,6,4,37.1877937,-3.5999362,"calle Real de Cartuja, 73 -63"
737000.0,chalet,466.0,6,4,37.1877084,-3.5998015,"calle REAL DE CARTUJA, 72"
737000.0,chalet,466.0,6,4,37.1877084,-3.5998015,"calle Real de Cartuja, 72"
737000.0,chalet,466.0,6,4,37.1877084,-3.5998015,"calle Real de Cartuja, 72"
735000.0,chalet,160.0,4,4,36.7372594,-3.7570932,"calle el Enclave, 18"
730000.0,countryHouse,22488.0,1,2,36.7475047,-3.4706469,Vía
730000.0,chalet,238.0,3,3,36.7336098,-3.7069288,Cotobro
725000.0,countryHouse,223.0,3,4,36.7453782,-3.5310304,"camino Minasierra, 1891"
725000.0,countryHouse,223.0,3,4,36.7465976,-3.5307844,camino Minasierra
725000.0,countryHouse,223.0,3,4,36.7448701,-3.5293842,camino Minasierra
725000.0,chalet,423.0,5,3,36.9350295,-3.5710517,calle Molino Bajo
725000.0,chalet,498.0,5,3,37.1207173,-3.6091804,camino de las Gabias
725000.0,countryHouse,223.0,3,4,36.7442639,-3.5325687,camino Minasierra
725000.0,chalet,376.0,5,4,36.7516927,-3.6088986,calle Espino
725000.0,chalet,377.0,5,4,36.7538211,-3.611003,Monte los Almendros - El Pargo - Costa Aguilera
725000.0,chalet,498.0,5,3,37.1204575,-3.6062301,Ogijares
720000.0,chalet,529.0,5,6,37.253499,-3.6495794,"calle Tramontana, 28"
720000.0,chalet,529.0,5,6,37.253499,-3.6495794,"calle Tramontana, 28"
720000.0,chalet,235.0,5,3,36.8005705,-3.652952,Jete
720000.0,chalet,235.0,5,3,36.8024671,-3.6514942,Vía
720000.0,chalet,250.0,5,3,36.8015871,-3.6509905,Jete
720000.0,chalet,235.0,5,3,36.7998228,-3.6531454,Jete
720000.0,chalet,1500.0,16,5,37.08409,-3.62893,"calle Olmo, 9"
715000.0,flat,290.0,6,4,37.168941,-3.5902871,paseo de los Basilios
715000.0,countryHouse,343.0,7,4,36.8305677,-3.5078079,Vélez de Benaudalla
700000.0,chalet,159.0,4,3,37.0976012,-3.3951609,"calle del Torcal, 8"
700000.0,chalet,159.0,4,3,37.0976012,-3.3951609,"calle del Torcal, 8"
700000.0,chalet,376.0,4,4,37.1609874,-3.5882919,"calle San Vicente de Paul, 18"
700000.0,chalet,376.0,4,4,37.1609874,-3.5882919,"calle San Vicente de Paul, 18"
700000.0,chalet,376.0,4,4,37.1593191,-3.5889994,calle San Vicente de Paul
700000.0,chalet,376.0,4,4,37.1629932,-3.5888385,calle San Vicente de Paul
700000.0,chalet,376.0,4,4,37.1601207,-3.5893948,calle San Vicente de Paul
700000.0,chalet,376.0,4,4,37.1622612,-3.5887332,calle San Vicente de Paul
700000.0,chalet,390.0,6,3,37.1289371,-3.6031383,"calle TENERIFE, 5"
700000.0,chalet,808.0,12,6,37.2992543,-3.1360407,calle DUENDE
700000.0,flat,232.0,5,3,37.1771676,-3.5960379,plaza de las Descalzas
700000.0,chalet,159.0,4,3,37.0976012,-3.3951609,"calle del Torcal, 8"
700000.0,chalet,159.0,4,3,37.0959292,-3.3956385,calle del Torcal
700000.0,chalet,376.0,4,4,37.1625072,-3.5875144,calle San Vicente de Paul
700000.0,chalet,159.0,4,3,37.0976012,-3.3951609,"calle del Torcal, 8"
700000.0,chalet,159.0,4,3,37.0991204,-3.3947976,"calle de los Peñones, 131"
700000.0,chalet,159.0,4,3,37.0976012,-3.3951609,"calle del Torcal, 8"
700000.0,flat,232.0,5,3,37.1655593,-3.5820455,"Placeta la d eAtalaya, 3"
700000.0,chalet,376.0,4,4,37.1609874,-3.5882919,"calle San Vicente de Paul, 18"
700000.0,countryHouse,439.0,4,3,37.2997019,-3.1388853,"calle San Miguel, 42"
700000.0,chalet,376.0,4,4,37.1599053,-3.5882965,Cervantes-Palacio de Deportes
700000.0,countryHouse,270.0,2,1,36.7698281,-3.7441661,Diseminado el Cerval Pol 15
700000.0,chalet,278.0,4,3,37.1757692,-4.1763565,calle Arrayan
700000.0,countryHouse,80.0,2,1,36.7817618,-3.7173904,camino de Río Seco s/n cortijo
700000.0,duplex,300.0,11,11,37.0969043,-3.3973344,"calle de la Virgen de las Nieves, 9 -P"
700000.0,chalet,700.0,8,5,37.1456027,-3.5689763,"callejón de las Pitas, 19"
699900.0,chalet,618.0,6,4,37.1048009,-3.5987877,calle del Abedul
699000.0,chalet,453.0,7,4,37.1063117,-3.5994042,"calle del Abedul, 44"
695000.0,chalet,372.0,6,3,36.7477376,-3.644849,calle mallorca
695000.0,chalet,515.0,6,4,37.7970454,-2.7798467,calle Diseminados
695000.0,flat,171.0,4,2,37.1729635,-3.5997206,"calle Acera del Darro, 2"
695000.0,chalet,310.0,7,3,37.1684719,-3.5966213,calle Santa Catalina Baja
695000.0,chalet,480.0,4,3,36.7357078,-3.6925273,plaza del ayuntamiento
695000.0,chalet,310.0,7,3,37.1693798,-3.5952327,Barrio Carrera de la Virgen - Paseo del Salón
695000.0,chalet,228.0,4,4,37.1820051,-3.5930065,"callejón San Cecilio, 15"
695000.0,flat,171.0,4,2,37.1729635,-3.5997206,"calle Acera del Darro, 2"
695000.0,chalet,228.0,4,4,37.1823099,-3.5945298,callejón San Cecilio
695000.0,countryHouse,685.0,5,5,37.1927352,-3.7205614,"carretera Malaga, 1"
695000.0,chalet,228.0,4,3,37.1820051,-3.5930065,"callejón San Cecilio, 15"
695000.0,flat,160.0,4,2,37.1729635,-3.5997206,"calle Acera del Darro, 2"
695000.0,chalet,228.0,4,4,37.1820764,-3.5945085,callejón San Cecilio
695000.0,flat,160.0,4,2,37.1729635,-3.5997206,"calle Acera del Darro, 2"
695000.0,chalet,228.0,4,4,37.1833139,-3.5935325,callejón San Cecilio
695000.0,chalet,228.0,4,3,37.1823674,-3.5940328,Albaicín
695000.0,chalet,228.0,4,4,37.1822838,-3.5950138,callejón San Cecilio
695000.0,flat,171.0,4,2,37.1731446,-3.5982592,calle Acera del Darro
695000.0,chalet,228.0,4,4,37.1809702,-3.5942132,callejón San Cecilio
695000.0,chalet,228.0,4,3,37.1820898,-3.5943942,Albaicín
695000.0,chalet,240.0,5,2,37.1526656,-3.5796719,calle Almenara
695000.0,flat,160.0,4,2,37.1729635,-3.5997206,"calle Acera del Darro, 2"
695000.0,chalet,240.0,5,2,37.1539854,-3.5787436,calle Almenara
695000.0,flat,160.0,4,2,37.1729635,-3.5997206,"calle Acera del Darro, 2"
695000.0,chalet,228.0,4,3,37.1820051,-3.5930065,"callejón San Cecilio, 15"
695000.0,countryHouse,685.0,5,5,37.1917932,-3.72105,calle Legazpi
695000.0,chalet,228.0,4,4,37.1809605,-3.5918445,callejón San Cecilio
695000.0,flat,349.0,4,3,36.7342614,-3.6893646,"CONSTITUCION, DE LA"
695000.0,flat,349.0,4,3,36.7342614,-3.6893646,"CONSTITUCION, DE LA"
695000.0,chalet,252.0,7,6,37.1774049,-3.5965784,"calle Hospital Corpus Christi, 7"
695000.0,flat,160.0,4,2,37.1729635,-3.5997206,"calle Acera del Darro, 2"
695000.0,countryHouse,520.0,8,6,37.0959823,-4.2588864,camino del Trabuco
695000.0,flat,160.0,4,2,37.1729635,-3.5997206,"calle Acera del Darro, 2"
695000.0,countryHouse,200.0,4,3,36.9158937,-3.4596498,Lanjaron
695000.0,chalet,435.0,6,4,37.106684,-3.5981526,calle del Sauce
695000.0,chalet,309.0,6,5,36.7456504,-3.6883242,Almuñecar Centro
695000.0,chalet,232.0,4,3,36.7547363,-3.609452,calle Espino
695000.0,flat,160.0,4,2,37.1709306,-3.5983255,calle Acera del Darro s/n
695000.0,chalet,228.0,4,4,37.1831527,-3.592807,callejón San Cecilio
695000.0,chalet,228.0,4,3,37.1805691,-3.5930842,Albaicín
695000.0,chalet,228.0,4,3,37.1811819,-3.5919074,callejón San Cecilio
695000.0,chalet,228.0,4,3,37.1829686,-3.5922192,Albaicín
695000.0,chalet,228.0,4,3,37.1836276,-3.5923509,Albaicín
695000.0,countryHouse,685.0,5,5,37.1919601,-3.7188997,Santa Fe
695000.0,chalet,228.0,4,3,37.1809609,-3.5916194,Albaicín
695000.0,chalet,228.0,4,4,37.1799666,-3.5931568,Albaicín
695000.0,chalet,228.0,4,3,37.1803915,-3.5923456,Albaicín
690000.0,flat,235.0,4,2,37.1729831,-3.5969057,"calle San Matías, 8"
690000.0,chalet,303.0,6,4,36.7364752,-3.6713622,"paseo de Velilla, 10"
690000.0,duplex,300.0,3,3,37.1783739,-3.613542,Arabial
690000.0,countryHouse,240.0,5,2,36.9352877,-3.5704301,El Valle
690000.0,chalet,280.0,7,4,36.737642,-3.7074192,Cotobro
690000.0,chalet,193.0,4,4,36.7259751,-3.7306354,"avenida Marina del Este, 20"
690000.0,chalet,160.0,3,4,36.7437476,-3.6679931,calle Campotajo
690000.0,chalet,581.0,8,6,37.1299713,-3.571966,Cajar
690000.0,chalet,212.4,5,4,36.7453898,-3.7065945,Cotobro
690000.0,chalet,393.0,4,4,37.2339643,-3.5622395,Alfacar
689900.0,chalet,266.0,4,3,37.1663908,-3.5841078,"carretera de la Sierra, 41"
689900.0,chalet,266.0,4,3,37.1666996,-3.5825767,carretera de la Sierra
689900.0,chalet,267.0,4,3,37.1663908,-3.5841078,"carretera de la Sierra, 41"
689900.0,chalet,266.0,4,3,37.1664798,-3.5851909,carretera de la Sierra
689900.0,chalet,266.0,4,3,37.1659503,-3.5830161,carretera de la Sierra
689900.0,chalet,266.0,4,3,37.1678051,-3.5843621,carretera de la Sierra
689000.0,chalet,160.0,5,3,36.7427613,-3.6688969,Velilla - Velilla Taramay
685000.0,chalet,242.0,3,2,36.7445268,-3.7355567,Barrio La Herradura
685000.0,chalet,126.0,3,1,36.7364936,-3.7363878,calle Obispo
684900.0,chalet,190.0,6,2,36.7072453,-3.4897339,Torrenueva Costa
684900.0,chalet,390.0,6,2,36.7459077,-3.5875674,Centro
680000.0,countryHouse,554.0,11,3,36.7442136,-3.5870681,Centro
680000.0,countryHouse,250.0,7,4,36.7596262,-3.4548936,Los Tablones - La Garnatilla
680000.0,chalet,200.0,3,4,36.7394859,-3.6660129,calle Campo Velilla
680000.0,chalet,200.0,3,4,36.7423678,-3.6677241,"calle Campotajo, 3 A"
680000.0,chalet,150.0,5,3,36.7369829,-3.6780315,"calle las Raíces, 1"
680000.0,chalet,148.0,3,3,36.7463529,-3.7571449,Barrio Urb. San Antonio
680000.0,chalet,160.0,5,4,36.7406199,-3.667583,Velilla - Velilla Taramay
680000.0,chalet,307.0,4,4,36.7515538,-3.6166963,Monte los Almendros - El Pargo - Costa Aguilera
680000.0,chalet,285.0,7,4,36.7368489,-3.708592,calle Nuevo Miramar
680000.0,chalet,150.0,5,3,36.7348096,-3.6768305,calle las Raíces
680000.0,chalet,400.0,12,3,37.2575976,-3.0961899,Carretera s/n OO
679000.0,penthouse,170.0,3,2,37.1723361,-3.5979696,"plaza del Campillo, 5"
675000.0,countryHouse,250.0,3,2,36.7307261,-3.477032,calle Cañada Real
675000.0,chalet,1254.0,1,1,37.1100781,-3.5675126,carretera de Cumbres Verdes
675000.0,chalet,240.0,4,4,36.7450366,-3.5877105,avenida 28 de Febrero
675000.0,countryHouse,309.0,4,2,36.7506644,-3.644486,Velilla - Velilla Taramay
675000.0,countryHouse,3165.0,1,1,37.1199891,-3.5847215,La Zubia
675000.0,chalet,568.0,6,2,37.0922704,-3.6330437,Otura
675000.0,countryHouse,400.0,7,4,36.7107852,-3.4673624,Torrenueva Costa
674900.0,chalet,220.0,5,4,37.181743,-3.5918202,callejón del Mentidero
674900.0,chalet,220.0,5,3,37.1827191,-3.5929547,callejón del Mentidero
674900.0,chalet,220.0,5,4,37.183368,-3.5914363,"callejón del Mentidero, 4"
674900.0,chalet,220.0,5,4,37.1821614,-3.5899291,callejón del Mentidero
674900.0,chalet,220.0,5,4,37.1843801,-3.5906125,callejón del Mentidero
674900.0,chalet,220.0,5,4,37.1818169,-3.5907903,callejón del Mentidero
674900.0,chalet,220.0,5,4,37.1849913,-3.5910193,callejón del Mentidero
670000.0,chalet,407.0,5,4,37.1266865,-3.6233928,EL CARMELO
670000.0,chalet,407.0,5,4,37.1289306,-3.6251468,Urbanización El Carmelo
670000.0,chalet,407.0,5,4,37.1295192,-3.6263655,Ogijares
670000.0,chalet,407.0,5,4,37.1270809,-3.6242262,Ogijares
670000.0,chalet,407.0,5,4,37.126659,-3.6259436,Ogijares
669890.0,chalet,900.0,1,0,37.1978016,-3.6752324,Poligono Los Sáez s/n
669890.0,countryHouse,900.0,1,0,37.1956184,-3.6752923,Vía
669890.0,chalet,900.0,1,0,37.1992015,-3.6754917,La Chana
669890.0,countryHouse,900.0,1,0,37.1994363,-3.6768399,Vía
669890.0,countryHouse,900.0,1,0,37.1981887,-3.6768274,Vía
669890.0,countryHouse,900.0,1,0,37.1967454,-3.676604,La Chana
668000.0,chalet,560.0,8,3,37.1632622,-3.6918677,"calle Jilguero, 7"
660000.0,chalet,182.0,4,4,36.7591234,-3.5991938,cuesta de Las Burras
659900.0,chalet,203.0,4,4,36.9787471,-3.5388943,larga s/n
659900.0,chalet,203.0,4,5,36.9764938,-3.5378469,calle Larga
659900.0,chalet,203.0,4,5,36.9764068,-3.5401484,Nigüelas
659900.0,chalet,203.0,4,5,36.9755327,-3.5382276,Nigüelas
655000.0,chalet,347.0,4,3,37.1519891,-3.5770704,"avenida Loaysa, 6 --10"
655000.0,chalet,347.0,4,3,37.1517871,-3.5770367,"avenida Loaysa, 6"
655000.0,chalet,347.0,4,3,37.1519891,-3.5770704,"avenida Loaysa, 6 -10"
655000.0,chalet,347.0,4,3,37.1519891,-3.5770704,"avenida Loaysa, 6 -10"
655000.0,chalet,347.0,4,3,37.152981,-3.5772176,avenida Loaysa
655000.0,chalet,347.0,4,3,37.1519891,-3.5770704,"avenida Loaysa, 6 -10"
655000.0,chalet,347.0,4,3,37.1519891,-3.5770704,"avenida Loaysa, 6 -10"
655000.0,chalet,347.0,4,3,37.153097,-3.5780541,avenida Loaysa
655000.0,chalet,347.0,4,3,37.1519891,-3.5770704,"avenida Loaysa, 6 -10"
655000.0,chalet,347.0,4,3,37.1517871,-3.5770367,"avenida Loaysa, 6"
655000.0,chalet,347.0,4,3,37.1519891,-3.5770704,"avenida Loaysa, 6 -10"
655000.0,chalet,347.0,4,3,37.1519891,-3.5770704,"avenida Loaysa, 6 -10"
655000.0,chalet,347.0,4,3,37.1519891,-3.5770704,"avenida Loaysa, 6 -10"
655000.0,chalet,347.0,4,3,37.1519891,-3.5770704,"avenida Loaysa, 6 -10"
655000.0,chalet,347.0,4,3,37.1519891,-3.5770704,"avenida Loaysa, 6 -10"
655000.0,chalet,347.0,4,3,37.1519891,-3.5770704,"avenida Loaysa, 6 -10"
650000.0,chalet,264.0,5,4,36.7303936,-3.6793677,calle Belpanorama
650000.0,chalet,275.0,5,3,36.7491731,-3.6524522,"Diseminado Br Cabria Pol 35, 144 -B"
650000.0,chalet,200.0,4,2,37.1258153,-3.5800532,"camino Cájar, 12"
650000.0,chalet,200.0,4,2,37.1249552,-3.579415,camino Cájar
650000.0,chalet,363.0,3,5,37.1178697,-3.6046225,"calle Parral de Zota, 6"
650000.0,chalet,363.0,3,5,37.1178697,-3.6046225,"calle Parral de Zota, 6"
650000.0,chalet,200.0,4,2,37.1258153,-3.5800532,"camino Cájar, 12"
650000.0,chalet,326.0,3,5,37.1164978,-3.6052131,calle Parral de Zota
650000.0,chalet,389.0,3,6,37.0897302,-3.6451166,"calle Cariñena, 4"
650000.0,chalet,363.0,3,5,37.11676,-3.6031807,calle Parral de Zota
650000.0,chalet,363.0,3,5,37.1191569,-3.6053074,Ogijares
650000.0,chalet,363.0,3,5,37.1178638,-3.6035945,calle Parral de Zota
650000.0,chalet,363.0,3,5,37.1161276,-3.6046767,Ogijares
650000.0,countryHouse,188.0,4,3,36.7351242,-3.6896779,camino Río Seco
650000.0,chalet,288.0,5,3,37.156848,-3.5900781,"calle Joven Marcelo, 8"
650000.0,chalet,2905.0,6,2,37.4011017,-2.9959634,"A-4104, 8"
650000.0,chalet,363.0,3,5,37.1167074,-3.6039579,Ogijares
650000.0,chalet,389.0,3,6,37.0897302,-3.6451166,"calle Cariñena, 4"
650000.0,chalet,200.0,4,2,37.1265593,-3.5810141,camino Cájar
650000.0,chalet,389.0,3,6,37.0912089,-3.6452195,cariñena
650000.0,chalet,389.0,3,6,37.0897302,-3.6451166,"calle Cariñena, 4"
650000.0,chalet,389.0,3,6,37.0897302,-3.6451166,"calle Cariñena, 4"
650000.0,chalet,288.0,5,3,37.1580693,-3.5909038,calle Joven Marcelo
650000.0,chalet,288.0,5,3,37.1556703,-3.5889128,calle Joven Marcelo
650000.0,chalet,200.0,4,2,37.1250472,-3.5819685,camino Cájar
650000.0,chalet,354.0,4,4,37.1220023,-3.6087927,calle Caño el Palo
650000.0,chalet,288.0,5,3,37.1558503,-3.5894444,calle Joven Marcelo
650000.0,chalet,780.0,6,6,37.4802491,-2.7641163,carretera de Caniles
650000.0,chalet,182.0,3,2,37.1615779,-3.5987315,calle Florencia s/n
650000.0,chalet,495.0,5,3,36.7223124,-3.3682303,GR-5209
650000.0,chalet,182.0,3,2,37.1610678,-3.5977791,calle Florencia
650000.0,chalet,182.0,3,2,37.1632698,-3.5975649,calle Florencia
650000.0,chalet,200.0,4,2,37.1271482,-3.5814547,camino Cájar
650000.0,chalet,363.0,3,5,37.1178697,-3.6046225,"calle Parral de Zota, 6"
650000.0,chalet,200.0,4,2,37.1247385,-3.5807812,camino Cájar
650000.0,chalet,363.0,3,5,37.1189182,-3.6055572,calle Parral de Zota
650000.0,chalet,475.0,7,4,37.1077534,-3.5890801,"calle Mulhacén, 34"
650000.0,chalet,472.0,6,4,36.7381409,-3.674299,"avenida los Pinos, 24"
650000.0,chalet,200.0,4,2,37.1258153,-3.5800532,"camino Cájar, 12"
650000.0,chalet,389.0,3,6,37.0897302,-3.6451166,"calle Cariñena, 4"
650000.0,chalet,150.0,4,3,37.0399252,-3.6397248,"calle E-1, 13"
650000.0,chalet,363.0,3,5,37.1173602,-3.6056975,Ogijares
650000.0,chalet,363.0,3,5,37.118857,-3.604066,calle Parral de Zota
650000.0,chalet,363.0,3,5,37.1188793,-3.6053134,Ogijares
650000.0,countryHouse,188.0,4,2,36.7357566,-3.6915083,Almuñecar Centro
650000.0,chalet,363.0,3,5,37.1178664,-3.6028422,Ogijares
650000.0,chalet,200.0,5,3,37.156848,-3.5900781,"calle Joven Marcelo, 8"
650000.0,chalet,499.0,5,5,37.2753041,-3.6974432,"calle Laurel, 93 ----119"
650000.0,chalet,159.0,3,3,37.1788827,-3.593657,callejón de las Tomasas
650000.0,chalet,264.0,5,3,36.7329889,-3.6804364,calle Belpanorama
650000.0,chalet,200.0,4,2,37.1238145,-3.5807254,La Zubia
650000.0,countryHouse,1200.0,17,14,37.1890706,-3.1555801,Jerez del Marquesado
650000.0,chalet,126.0,3,3,36.7364215,-3.674458,calle la Romántica
650000.0,chalet,363.0,3,5,37.1185783,-3.6057739,Ogijares
650000.0,chalet,288.0,5,3,37.1581003,-3.5915183,Cervantes-Palacio de Deportes
650000.0,chalet,182.0,3,2,37.1615779,-3.5987315,calle Florencia s/n
650000.0,countryHouse,178.0,4,3,36.758482,-3.6626995,Torrecuevas - Lomas del Gato
650000.0,chalet,182.0,3,2,37.1607128,-3.6001326,calle Florencia
650000.0,chalet,364.0,6,5,36.7453173,-3.6676052,Velilla - Velilla Taramay
650000.0,countryHouse,178.0,5,3,36.7590165,-3.6574482,Torrecuevas - Lomas del Gato
650000.0,countryHouse,365.0,9,2,36.936854,-3.5676159,"GR-3204, 3"
650000.0,chalet,182.0,3,2,37.1624382,-3.5993722,calle Florencia
650000.0,chalet,182.0,3,2,37.163592,-3.5990727,calle Florencia
650000.0,countryHouse,500.0,7,3,37.1777138,-4.14753,camino de los Arenales s/n sn
650000.0,chalet,200.0,4,2,37.1258776,-3.5811303,La Zubia
650000.0,chalet,290.0,5,4,36.7362731,-3.6731073,avenida los Pinos
650000.0,chalet,182.0,3,2,37.1607147,-3.5974308,calle Florencia
650000.0,countryHouse,400.0,6,7,37.34056,-3.78652,"calle Eras, 12"
650000.0,chalet,500.0,4,3,37.1136409,-3.6027296,"urbanisación los cerezos, 1"
650000.0,chalet,800.0,4,3,37.1895101,-3.7195037,"calle Real de Santa Fe, 33"
650000.0,countryHouse,300.0,4,3,36.9190375,-3.4669883,"carril Mimbron Chaparra, 7 GR"
650000.0,countryHouse,400.0,4,3,36.9157894,-3.4609579,Unnamed Road s/n
649990.0,chalet,435.0,6,4,37.103192,-3.6036596,avenida de Carmen Morcillo
649900.0,chalet,3700.0,1,1,36.9586748,-3.050349,camino la Vega
649000.0,chalet,470.0,4,3,37.1326365,-3.5638562,calle Los Llanos
649000.0,chalet,142.0,4,2,36.7370375,-3.7426461,Barrio La Herradura
649000.0,chalet,445.0,8,3,37.1088866,-3.5993987,avenida de los Cerezos s/n
645000.0,chalet,160.0,3,3,37.0947231,-3.3954903,"Urbanizacion Solynieve, 63"
645000.0,countryHouse,650.0,6,5,37.4408715,-2.7223759,las Molineras s/n
640000.0,chalet,349.0,4,4,37.1272796,-3.6696163,"calle Buenavista, 2"
640000.0,chalet,349.0,4,3,37.128194,-3.6686055,calle Buenavista
640000.0,chalet,234.0,6,5,37.1632734,-3.5636755,calle la Iruela
640000.0,chalet,234.0,6,5,37.1619169,-3.5623637,calle la Iruela
640000.0,chalet,234.0,6,5,37.1638184,-3.5633241,"calle la Iruela, 457"
640000.0,chalet,234.0,6,5,37.1649475,-3.56147,calle la Iruela
640000.0,chalet,234.0,6,5,37.1630545,-3.5637801,calle la Iruela
640000.0,chalet,234.0,6,5,37.1641692,-3.5603218,calle la Iruela
640000.0,chalet,349.0,4,4,37.1272796,-3.6696163,"calle Buenavista, 2"
640000.0,chalet,349.0,4,4,37.1275326,-3.668156,calle Buenavista
640000.0,chalet,349.0,4,4,37.1270144,-3.6678684,San Francisco - El Chorrillo
640000.0,chalet,234.0,6,5,37.163742,-3.5621291,"calle la Iruela, 45"
640000.0,chalet,234.0,6,5,37.1644452,-3.5629132,calle la Iruela
640000.0,chalet,350.0,4,4,37.1274224,-3.6701221,"calle Buenavista, 2"
640000.0,chalet,234.0,6,5,37.1643797,-3.5603262,calle la Iruela
640000.0,chalet,349.0,4,4,37.1263352,-3.6688593,calle Buenavista
640000.0,duplex,253.0,6,3,37.1705389,-3.6000077,calle Mulhacén
640000.0,chalet,234.0,6,5,37.1633409,-3.5640254,Ctra Sierra - Acceso Nuevo Alhambra
640000.0,chalet,234.0,6,5,37.1655645,-3.5635362,calle la Iruela
640000.0,chalet,234.0,6,5,37.1635922,-3.5609054,calle la Iruela
640000.0,chalet,234.0,6,5,37.165047,-3.5605053,calle la Iruela
640000.0,chalet,234.0,6,5,37.1628663,-3.5628153,Ctra Sierra - Acceso Nuevo Alhambra
640000.0,chalet,349.0,4,4,37.1269992,-3.6713615,San Francisco - El Chorrillo
640000.0,chalet,349.0,4,4,37.1289245,-3.6691516,San Francisco - El Chorrillo
640000.0,chalet,349.0,4,4,37.1290712,-3.6689429,San Francisco - El Chorrillo
640000.0,chalet,401.0,5,5,37.1531346,-3.5777552,"carril Carril Santo Domingo, 25"
640000.0,countryHouse,520.0,4,2,37.16888,-3.9642,"carretera del Canal, 20"
630000.0,chalet,213.0,4,4,36.7556184,-3.6104562,avenida Almendros
630000.0,flat,205.0,5,5,37.1763181,-3.6034071,"calle Lavadero Tablas, 8"
629000.0,chalet,200.0,3,2,36.7439983,-3.743119,Barrio La Herradura
629000.0,countryHouse,150.0,4,2,37.1598944,-3.4412922,carretera A-4030 s/n
625000.0,chalet,541.0,6,6,37.1065897,-3.6015422,Gojar
625000.0,chalet,541.0,6,6,37.1080803,-3.6005993,Gojar
625000.0,chalet,541.0,6,6,37.1067579,-3.5994902,"calle del Abedul, 23"
625000.0,chalet,541.0,6,6,37.1071597,-3.6007134,calle del Abedul
625000.0,chalet,541.0,6,6,37.1052994,-3.5994964,Gojar
625000.0,chalet,541.0,6,6,37.1053287,-3.5987636,calle del Abedul
625000.0,chalet,541.0,6,6,37.1067579,-3.5994902,"calle del Abedul, 23"
625000.0,chalet,541.0,6,6,37.1058114,-3.5982051,Gojar
625000.0,chalet,541.0,6,6,37.1068026,-3.6009658,Gojar
625000.0,chalet,600.0,5,5,37.2410523,-3.6420539,calle Naranjos
625000.0,chalet,285.0,5,3,37.1765653,-3.4851867,"la encina, 19"
620000.0,chalet,380.0,6,4,37.1012602,-3.5811764,"calle Cullar Vega, 7"
620000.0,flat,244.0,5,3,37.1683518,-3.5988792,calle San Antón
620000.0,flat,127.0,3,2,37.1695208,-3.6043494,"calle Manuel de Falla, 13"
620000.0,flat,244.0,5,3,37.1706803,-3.5979302,calle San Antón
620000.0,chalet,172.0,3,3,36.7371566,-3.7604841,La Herradura
620000.0,flat,111.0,3,3,37.1301755,-3.5409728,Monachil
620000.0,chalet,250.0,4,3,37.1715298,-3.599965,calle San José Baja
620000.0,flat,244.0,5,3,37.169325,-3.5985867,Figares
620000.0,flat,244.0,5,3,37.1697755,-3.6010785,Figares
620000.0,chalet,160.0,6,5,36.7201261,-3.3608544,"rambla Hileros, 36"
620000.0,countryHouse,902.0,8,2,37.206881,-3.8007893,"calle del Molino, 1"
618000.0,chalet,400.0,6,3,37.1391337,-3.5639372,Monachil
617526.0,chalet,354.0,4,4,37.1231745,-3.6093492,calle Caño el Palo
617000.0,chalet,237.0,3,2,37.1033857,-3.5997656,calle Serrallo s/n SN
615000.0,chalet,273.0,4,3,36.7372851,-3.7572516,calle los Holandeses de Almuñécar
615000.0,chalet,290.0,5,3,37.1475997,-3.5754842,ANDALUCIA
615000.0,chalet,290.0,5,3,37.147818,-3.5772008,Huétor-Vega
610000.0,flat,125.0,3,2,37.1695208,-3.6043494,"calle Manuel de Falla, 13"
610000.0,countryHouse,277.0,4,4,36.9377978,-3.3057869,Portugos
600000.0,flat,225.0,4,3,37.185109,-3.6043982,"avenida de Madrid, 5"
600000.0,chalet,103.0,4,2,36.7469069,-3.5301929,Motril pueblo
600000.0,penthouse,197.0,3,2,37.1659241,-3.5968131,"calle Sos del Rey Católico, 3"
600000.0,chalet,732.0,23,2,37.1816792,-3.5754987,"calle Santo Sepulcro del Sacromonte, 1"
600000.0,chalet,226.0,4,3,36.7319336,-3.695687,Almuñecar Centro
600000.0,chalet,364.0,6,3,36.7365176,-3.6737828,calle la Romántica s/n
600000.0,chalet,302.0,5,2,37.1271385,-3.5727661,"Libreros, 2"
600000.0,chalet,260.0,6,4,37.15961,-3.95283,"extramuros extrarradio, 415 P"
600000.0,countryHouse,200.0,3,2,36.9294884,-3.595753,"calle Carretera, 1"
600000.0,countryHouse,600.0,27,14,37.5628734,-3.4002813,"carretera Huelma, 66"
600000.0,countryHouse,1000.0,21,2,37.1901441,-3.7168405,"calle real de santa fe, 2"
600000.0,countryHouse,260.0,8,3,36.9671377,-3.052366,calle de Nueva Apertura V s/n
599000.0,chalet,411.0,4,3,37.2498699,-3.6553556,calle Monzones
599000.0,chalet,489.0,6,4,37.2065363,-3.6441216,Maracena
599000.0,chalet,340.0,4,4,37.1258062,-3.5577537,"calle Cordoba, 46"
599000.0,chalet,474.0,4,3,37.2403198,-3.6424441,"rotonda del Almez, 14"
599000.0,chalet,474.0,4,2,37.2420178,-3.643506,rotonda del Almez
599000.0,chalet,411.0,4,3,37.2509345,-3.6536789,"calle Monzones, 6"
599000.0,chalet,474.0,4,3,37.2395589,-3.6437863,rotonda del Almez
599000.0,chalet,411.0,4,3,37.2500292,-3.6527472,calle Monzones
599000.0,chalet,411.0,4,3,37.2488947,-3.6539762,calle Monzones
599000.0,chalet,411.0,4,3,37.2499378,-3.6544344,Albolote
599000.0,chalet,333.0,4,2,37.183948,-3.9419844,Moraleda de Zafayona
599000.0,chalet,522.0,5,6,37.4830437,-2.7659987,Baza
599000.0,chalet,411.0,4,3,37.2514112,-3.6546067,calle Monzones
599000.0,chalet,411.0,4,3,37.2507159,-3.6536383,"calle Monzones, 6"
599000.0,chalet,333.0,4,2,37.182939,-3.9372685,Vía
599000.0,countryHouse,145.0,4,2,36.9168032,-3.4817245,"A-348, 1"
599000.0,chalet,474.0,4,3,37.2403198,-3.6424441,"rotonda del Almez, 14"
599000.0,chalet,474.0,4,3,37.2403198,-3.6424441,"rotonda del Almez, 14"
599000.0,chalet,474.0,4,3,37.2403198,-3.6424441,"rotonda del Almez, 14"
599000.0,countryHouse,457.0,9,3,37.4198547,-3.5097955,"Diseminado Saladillo, 272"
599000.0,chalet,474.0,4,3,37.2412077,-3.6443027,rotonda del Almez
599000.0,chalet,474.0,4,3,37.2403198,-3.6424441,"rotonda del Almez, 14"
599000.0,flat,247.0,6,2,37.1702496,-3.6041321,calle Martínez Campos
599000.0,chalet,333.0,4,2,37.183457,-3.9382752,Vía
599000.0,chalet,411.0,4,3,37.2499452,-3.6549322,calle Monzones
599000.0,chalet,411.0,4,3,37.2495569,-3.6537891,Albolote
599000.0,chalet,411.0,4,3,37.2512738,-3.6547916,Albolote
599000.0,chalet,333.0,4,2,37.1709369,-3.9635758,Moraleda de Zafayona
599000.0,chalet,333.0,4,2,37.1851681,-3.9396786,Moraleda de Zafayona
598500.0,chalet,111.0,3,4,37.4397978,-2.7222931,calle Rambla s/n
598000.0,chalet,460.0,8,4,37.1932434,-3.6239195,"avenida de Andalucía, 134"
598000.0,chalet,460.0,8,4,37.1950958,-3.6311763,avenida de andalucia
598000.0,chalet,460.0,8,4,37.191181,-3.6235789,Barrio de los Periodistas
598000.0,chalet,460.0,8,4,37.1944259,-3.6254552,Barrio de los Periodistas
596000.0,chalet,628.0,6,4,37.221162,-3.7498871,"calle Fuente Salinas, 35 -1"
596000.0,chalet,628.0,6,4,37.2186873,-3.7486275,calle Fuente Salinas
596000.0,chalet,628.0,6,4,37.2198785,-3.7511846,calle Fuente Salinas
595000.0,chalet,197.0,5,3,37.1839481,-3.5979207,"calle Alpargateros Alta, 18"
595000.0,flat,393.0,13,6,37.1689279,-3.6025063,"calle Alhamar, 31"
595000.0,flat,226.0,5,3,37.1727519,-3.5974613,"calle Ángel Ganivet, 15"
595000.0,chalet,365.0,5,3,37.184362,-3.5897683,calle de San Luis
595000.0,chalet,672.0,7,5,37.1063088,-3.6656394,"calle Buenos Aires, 69"
595000.0,flat,226.0,5,3,37.1727519,-3.5974613,"calle Ángel Ganivet, 15"
595000.0,flat,226.0,5,3,37.1723777,-3.599137,calle Ángel Ganivet
595000.0,flat,393.0,13,6,37.1688291,-3.6027495,"calle Alhamar, 33"
595000.0,flat,393.0,13,6,37.1688484,-3.604819,calle Alhamar
595000.0,flat,393.0,13,6,37.1688291,-3.6027495,"calle Alhamar, 33"
595000.0,chalet,404.0,6,3,37.1629785,-3.5595968,"carretera de la Sierra, 293"
595000.0,flat,393.0,13,6,37.1684892,-3.603843,calle Alhamar
595000.0,flat,226.0,5,3,37.1718141,-3.5986764,Barrio San Matías - Pavaneras
595000.0,flat,393.0,13,6,37.170259,-3.6032612,calle Alhamar
595000.0,flat,226.0,5,3,37.173102,-3.5985541,Barrio San Matías - Pavaneras
595000.0,flat,226.0,5,3,37.1727519,-3.5974613,"calle Ángel Ganivet, 15"
595000.0,flat,393.0,13,6,37.1688826,-3.6043444,Figares
595000.0,flat,226.0,5,3,37.1742958,-3.5973704,calle Ángel Ganivet
595000.0,flat,226.0,5,3,37.1708845,-3.596812,calle Ángel Ganivet
595000.0,flat,393.0,13,6,37.1697966,-3.6042074,Figares
595000.0,flat,226.0,5,3,37.1721629,-3.5956334,Barrio San Matías - Pavaneras
595000.0,flat,393.0,13,6,37.1677629,-3.6044563,calle Alhamar
595000.0,flat,226.0,5,3,37.1735872,-3.5959461,calle Ángel Ganivet
595000.0,flat,169.0,4,2,37.1695208,-3.6043494,"calle Manuel de Falla, 13"
595000.0,flat,221.0,5,3,37.1701268,-3.5995572,"calle San Antón, 53"
595000.0,chalet,220.0,2,1,36.7406605,-3.7558748,calle Nueva Peña Parda
595000.0,flat,393.0,13,6,37.170549,-3.6025337,calle Alhamar
595000.0,flat,226.0,5,3,37.1742472,-3.5963414,Barrio San Matías - Pavaneras
595000.0,chalet,220.0,3,2,36.7411576,-3.7513233,Barrio Las Palomas
595000.0,flat,226.0,5,3,37.1741713,-3.5967248,Barrio San Matías - Pavaneras
595000.0,chalet,170.0,4,4,36.7461293,-3.753352,Barrio Urb. San Antonio
595000.0,chalet,170.0,4,2,36.7447508,-3.7557274,calle Castilla
595000.0,flat,393.0,13,6,37.1709025,-3.6023126,Figares
595000.0,flat,393.0,13,6,37.1698145,-3.6045804,Figares
595000.0,chalet,145.0,3,2,36.7352049,-3.703127,Cotobro
595000.0,chalet,450.0,3,4,37.2400419,-3.6421892,Peligros
595000.0,chalet,188.0,5,2,36.7441407,-3.6664335,"calle el Chileno, 8"
590000.0,chalet,249.0,4,3,37.1574862,-3.5799547,Bola de Oro
590000.0,chalet,249.0,4,3,37.1587191,-3.5829484,camino de las Conejeras
590000.0,chalet,249.0,4,3,37.158542,-3.5816845,"camino de las Conejeras, 24"
590000.0,chalet,249.0,4,3,37.158542,-3.5816845,"camino de las Conejeras, 24"
590000.0,chalet,249.0,4,3,37.1582209,-3.5804136,camino de las Conejeras
590000.0,chalet,249.0,4,3,37.1580507,-3.5807364,camino de las Conejeras
590000.0,chalet,249.0,4,3,37.1571068,-3.582176,camino de las Conejeras
590000.0,chalet,249.0,4,4,37.1579367,-3.5861926,calle Torre de los Carros
590000.0,chalet,249.0,4,3,37.1570113,-3.5811547,camino de las Conejeras
590000.0,chalet,249.0,4,3,37.158013,-3.5833539,camino de las Conejeras
590000.0,chalet,249.0,4,3,37.158542,-3.5816845,"camino de las Conejeras, 24"
590000.0,countryHouse,118.0,3,3,36.7618598,-3.6137,Pago de Matagallares s/n
590000.0,chalet,249.0,4,3,37.1571299,-3.5826965,camino de las Conejeras
590000.0,chalet,249.0,4,3,37.1583417,-3.5797298,camino de las Conejeras
590000.0,chalet,249.0,4,3,37.1572309,-3.5802277,camino de las Conejeras
590000.0,penthouse,218.0,5,3,37.1798371,-3.6058136,calle Melchor Almagro
590000.0,countryHouse,247.0,4,3,36.8304511,-3.521933,Diseminado Diseminados
590000.0,chalet,146.0,3,4,36.7331294,-3.678974,"calle Belpanorama, 21"
590000.0,chalet,249.0,4,3,37.1572895,-3.5811571,camino de las Conejeras
590000.0,chalet,249.0,4,3,37.1587474,-3.5799791,camino de las Conejeras
590000.0,chalet,319.0,6,4,37.2340666,-3.5589017,cuesta de Viznar
590000.0,chalet,249.0,4,3,37.1572111,-3.5819171,camino de las Conejeras
590000.0,chalet,249.0,4,2,37.1600845,-3.5812568,camino de las Conejeras
590000.0,countryHouse,118.0,3,3,36.7642903,-3.5987907,Centro
589800.0,countryHouse,300.0,5,5,36.9490645,-3.5486615,Lecrin
589000.0,chalet,460.0,8,4,37.1929957,-3.6251896,Barrio de los Periodistas
587515.0,chalet,183.0,4,2,37.8063979,-2.5441561,Diseminados
585000.0,flat,245.0,5,3,37.1698767,-3.5996159,calle San Antón s/n
585000.0,flat,221.0,5,3,37.17116,-3.5981212,Figares
585000.0,chalet,362.0,5,3,37.188766,-3.5969282,Albaicín
585000.0,flat,221.0,5,3,37.1701268,-3.5995572,"calle San Antón, 53"
585000.0,flat,169.0,4,2,37.1695208,-3.6043494,"calle Manuel de Falla, 13"
585000.0,flat,221.0,5,3,37.1701268,-3.5995572,"calle San Antón, 53"
585000.0,flat,245.0,5,3,37.1701268,-3.5995572,"calle San Antón, 53"
585000.0,flat,221.0,5,3,37.168468,-3.5992108,calle San Antón
585000.0,flat,221.0,5,3,37.1698767,-3.5996159,calle San Antón s/n
585000.0,countryHouse,282.0,3,2,37.1677339,-3.9659211,Moraleda de Zafayona
580000.0,flat,219.0,5,2,37.1781817,-3.6008306,calle Gran Vía de Colón
580000.0,flat,219.0,5,2,37.1785762,-3.5989345,"calle Gran Vía de Colón, 28"
580000.0,flat,219.0,5,2,37.1785762,-3.5989345,"calle Gran Vía de Colón, 28"
580000.0,flat,219.0,5,2,37.1799692,-3.5987239,calle Gran Vía de Colón
580000.0,flat,219.0,5,2,37.1772433,-3.5984847,calle Gran Vía de Colón
580000.0,flat,219.0,5,2,37.1785762,-3.5989345,"calle Gran Vía de Colón, 28"
580000.0,flat,219.0,5,2,37.1775596,-3.5987238,calle Gran Vía de Colón
580000.0,flat,219.0,5,2,37.1778736,-3.6001562,calle Gran Vía de Colón
580000.0,flat,219.0,5,2,37.179404,-3.5982522,calle Gran Vía de Colón
580000.0,flat,219.0,5,2,37.1806255,-3.6012643,calle Gran Vía de Colón
580000.0,flat,219.0,5,2,37.1797569,-3.5979373,calle Gran Vía de Colón
580000.0,chalet,255.0,4,5,36.7346507,-3.7378029,"Casa de Diseño en la Herradura, 20 Clmorena"
580000.0,chalet,300.0,5,3,37.1115662,-3.6112298,cuesta colora s/n
580000.0,flat,219.0,4,2,37.1769263,-3.5980664,"calle Gran Vía de Colón, 4"
580000.0,flat,219.0,5,2,37.1792639,-3.6003764,calle Gran Vía de Colón
580000.0,flat,219.0,5,2,37.1770286,-3.5986647,calle Gran Vía de Colón
580000.0,flat,219.0,5,2,37.1785762,-3.5989345,"calle Gran Vía de Colón, 28"
580000.0,flat,219.0,5,2,37.1785762,-3.5989345,"calle Gran Vía de Colón, 28"
580000.0,chalet,350.0,6,5,36.740189,-3.6909204,Almuñecar Centro
580000.0,flat,219.0,5,2,37.1776232,-3.6000399,calle Gran Vía de Colón
580000.0,flat,219.0,5,2,37.1772843,-3.6000026,calle Gran Vía de Colón
580000.0,flat,219.0,5,2,37.1804886,-3.5977042,calle Gran Vía de Colón
580000.0,flat,219.0,5,2,37.1768166,-3.5991983,calle Gran Vía de Colón
580000.0,flat,219.0,5,2,37.1789785,-3.6003262,calle Gran Vía de Colón
580000.0,chalet,311.0,4,2,36.7409421,-3.5845712,Centro
580000.0,chalet,250.0,11,2,37.4989869,-2.7465344,carretera de Murcia s/n
580000.0,flat,205.0,5,2,37.1785762,-3.5989345,"calle Gran Vía de Colón, 28"
578000.0,chalet,308.0,6,3,37.1417205,-3.6545797,"calle Plantel, 17"
578000.0,chalet,321.0,6,3,37.1417205,-3.6545797,"calle Plantel, 17"
578000.0,chalet,321.0,6,3,37.1423403,-3.6554162,calle Plantel
578000.0,chalet,321.0,6,3,37.1426884,-3.6527452,calle Plantel
578000.0,chalet,321.0,6,3,37.1415517,-3.6534038,calle Plantel
578000.0,chalet,321.0,6,3,37.1417205,-3.6545797,"calle Plantel, 17"
578000.0,chalet,321.0,6,3,37.1409545,-3.6535318,calle Plantel
578000.0,chalet,321.0,6,3,37.1427298,-3.653285,calle Plantel
578000.0,chalet,321.0,6,3,37.1433754,-3.654305,calle Plantel
578000.0,chalet,321.0,6,3,37.1409522,-3.6553764,calle Plantel
578000.0,chalet,321.0,6,3,37.1425053,-3.6553146,calle Plantel
578000.0,chalet,321.0,6,3,37.1425091,-3.6538584,calle Plantel
578000.0,chalet,220.0,6,2,36.7767784,-3.5993561,Molvizar
575000.0,flat,193.0,4,2,37.1713998,-3.5978151,Figares
575000.0,chalet,319.0,4,4,36.7462536,-3.646838,Urbanización Delta
575000.0,penthouse,185.0,6,3,37.1785681,-3.6074307,"calle Melchor Almagro, 16"
575000.0,flat,193.0,4,2,37.1720534,-3.5994042,"calle Acera del Darro, 26"
575000.0,flat,193.0,4,2,37.1727938,-3.5976595,calle Acera del Darro
575000.0,flat,193.0,4,2,37.1707828,-3.6001981,calle Acera del Darro
575000.0,flat,193.0,4,2,37.1730996,-3.6008348,Figares
575000.0,flat,193.0,4,2,37.1716961,-3.6003411,Figares
575000.0,flat,193.0,4,2,37.1723981,-3.6006001,Figares
575000.0,flat,193.0,4,2,37.1703764,-3.5987899,calle Acera del Darro
575000.0,flat,159.0,4,2,37.1720534,-3.5994042,"calle Acera del Darro, 26"
575000.0,chalet,108.0,3,2,36.735774,-3.5872708,Urb las golondrinas
575000.0,flat,193.0,4,2,37.1730443,-3.5995677,Figares
575000.0,flat,193.0,4,2,37.1680957,-3.5981969,calle Acera del Darro
575000.0,chalet,288.0,4,2,37.431964,-3.6076845,carretera bailen motril kilómetro
575000.0,chalet,299.0,4,4,36.9413754,-3.3127421,Portugos
575000.0,chalet,349.0,4,4,36.9420329,-3.3108803,"carretera Atalbeitar, 1"
575000.0,flat,260.0,6,3,37.1817929,-3.6055957,"calle Doctor Severo Ochoa, 13"
575000.0,flat,193.0,4,2,37.1706905,-3.6008759,Figares
575000.0,chalet,120.0,3,4,36.7361578,-3.7360342,Barrio La Herradura
573000.0,flat,1750.0,10,5,37.1960273,-3.834749,"calle Real, 47"
570000.0,chalet,351.0,5,4,37.0542529,-3.6343126,calle Romero
570000.0,countryHouse,102.0,3,1,36.8226105,-3.7030039,Otivar
570000.0,chalet,369.0,4,4,37.1012342,-3.5813712,"calle Cullar Vega, 16"
570000.0,chalet,369.0,4,4,37.1029164,-3.5813092,Altos de la Zubia
568000.0,countryHouse,120.0,1,1,36.7909372,-3.5981498,Molvizar
565000.0,chalet,502.0,3,4,37.0981636,-3.5737424,calle Charinas
565000.0,chalet,254.0,7,4,37.0914692,-3.6424828,calle Borgoña
565000.0,chalet,254.0,7,4,37.0895128,-3.6422514,"calle Borgoña, 27"
565000.0,chalet,254.0,7,4,37.0879438,-3.6410646,calle Borgoña
565000.0,chalet,254.0,7,4,37.087882,-3.6422327,calle Borgoña
565000.0,chalet,254.0,7,4,37.0892757,-3.6407017,calle Borgoña
565000.0,chalet,254.0,7,4,37.0892346,-3.6409336,calle Borgoña
565000.0,chalet,108.0,3,3,36.7436143,-3.6381305,"camino del Barranco de Enmedio, 3"
565000.0,chalet,254.0,7,4,37.0895128,-3.6422514,"calle Borgoña, 27"
565000.0,chalet,254.0,7,4,37.0886212,-3.6417203,calle Borgoña
565000.0,chalet,254.0,7,4,37.0890418,-3.6402605,calle Borgoña
565000.0,chalet,254.0,7,4,37.0884276,-3.6419623,calle Borgoña
565000.0,chalet,502.0,3,3,37.0989869,-3.5764508,calle Charinas
565000.0,chalet,254.0,7,4,37.0915343,-3.6425432,calle Borgoña
565000.0,chalet,254.0,7,4,37.0884276,-3.6419623,calle Borgoña
565000.0,chalet,149.0,3,3,36.7450762,-3.6371735,calle Golondrinas
565000.0,chalet,502.0,3,4,37.0992875,-3.5754346,"calle Charinas, 3"
565000.0,chalet,254.0,7,4,37.0902734,-3.6422951,calle Borgoña
565000.0,chalet,254.0,7,4,37.0882216,-3.643262,calle Borgoña
565000.0,chalet,502.0,3,4,37.0994508,-3.574417,Altos de la Zubia
565000.0,chalet,502.0,3,4,37.0979343,-3.5767787,Altos de la Zubia
565000.0,chalet,502.0,3,4,37.0998057,-3.5757408,Altos de la Zubia
560000.0,duplex,185.0,5,3,37.1856175,-3.5980185,"cuesta de San Antonio, 13"
560000.0,flat,222.0,5,2,37.1691343,-3.6005514,"calle Alhamar, 8"
560000.0,flat,228.0,4,3,37.1770854,-3.5971125,calle Sancti Spiritus
560000.0,chalet,192.0,3,3,36.7488938,-3.6472749,"carretera Road de Almería, 4136 ---PN4136"
560000.0,countryHouse,125.0,4,1,36.9399418,-3.302296,Busquistar
560000.0,chalet,149.0,3,2,36.7232788,-3.7326055,camino de la Torre
560000.0,chalet,166.0,3,2,36.7503776,-3.6137136,calle Pino
560000.0,chalet,192.0,3,3,36.7438383,-3.6643405,Velilla - Velilla Taramay
560000.0,chalet,160.0,3,2,36.7470222,-3.6099667,"calle Algarrobina, 1019"
560000.0,chalet,193.0,4,2,36.7379777,-3.6712842,Velilla - Velilla Taramay
559000.0,chalet,233.0,3,2,37.1022511,-3.5996615,camino de la Fábrica
559000.0,chalet,233.0,3,2,37.1029696,-3.6009658,calle Serrallo
559000.0,chalet,237.0,3,2,37.1039532,-3.5983977,calle Serrallo
559000.0,chalet,233.0,3,2,37.1027446,-3.6013339,Gojar
559000.0,chalet,193.0,4,3,36.7475787,-3.6480459,Velilla - Velilla Taramay
559000.0,chalet,240.0,4,4,36.6976749,-3.4575182,"calle Palimocho, 8"
559000.0,chalet,236.0,3,2,37.1049094,-3.5994694,calle Serrallo
555000.0,chalet,379.0,4,3,37.1184601,-3.66781,paseo de la Cueva
555000.0,chalet,343.0,6,4,37.1704082,-3.5865647,"calle Barranco del Abogado, 22"
555000.0,chalet,379.0,4,3,37.1195757,-3.6681518,San Francisco - El Chorrillo
555000.0,chalet,379.0,4,3,37.1198973,-3.6671862,"paseo de la Cueva, 8"
555000.0,chalet,379.0,4,3,37.119322,-3.6660213,paseo de la Cueva
555000.0,chalet,379.0,4,3,37.1198973,-3.6671862,"paseo de la Cueva, 8"
555000.0,chalet,379.0,4,3,37.1192709,-3.6688072,San Francisco - El Chorrillo
550000.0,penthouse,190.0,3,1,37.1687676,-3.6022855,"calle Pintor Zuloaga, 15"
550000.0,chalet,276.0,4,4,36.7190253,-3.5566809,"calle Rector Juan de Dios López González, 52"
550000.0,chalet,350.0,4,2,36.7524684,-3.4780278,camino del Cortijo Galindo
550000.0,penthouse,190.0,3,1,37.1687676,-3.6022855,"calle Pintor Zuloaga, 15"
550000.0,flat,223.0,5,3,37.1691378,-3.6018174,"calle Alhamar, 22"
550000.0,flat,223.0,5,3,37.1699572,-3.6029975,calle Alhamar
550000.0,flat,223.0,5,3,37.1699572,-3.6029975,calle Alhamar
550000.0,chalet,249.0,4,3,37.1576262,-3.5870136,torre de los carros
550000.0,chalet,225.0,5,4,37.2763539,-3.6999154,"avenida Paraiso, 14 -122"
550000.0,chalet,170.0,4,4,37.1579873,-3.5859412,calle Torre de los Carros
550000.0,chalet,234.0,4,4,37.1287581,-3.6241051,"Urbanización El Carmelo, 110 -134"
550000.0,chalet,249.0,4,4,37.1574939,-3.5877539,calle Torre de los Carros
550000.0,chalet,249.0,4,4,37.1575291,-3.5844291,calle Torre de los Carros
550000.0,chalet,234.0,4,4,37.1289569,-3.6234587,"EL CARMELO, 110"
550000.0,chalet,432.0,8,5,37.1329239,-3.552733,calle Clavel
550000.0,chalet,234.0,4,4,37.1307166,-3.6243267,Urbanización El Carmelo
550000.0,chalet,234.0,4,4,37.12979,-3.6248952,Urbanización El Carmelo
550000.0,chalet,234.0,4,4,37.1273981,-3.6230505,Urbanización El Carmelo
550000.0,chalet,210.0,4,1,37.1468234,-3.5709291,"calle Cañadilla, 4"
550000.0,chalet,210.0,4,1,37.1468234,-3.5709291,"calle Cañadilla, 4"
550000.0,chalet,210.0,4,1,37.146411,-3.5720412,calle Cañadilla
550000.0,chalet,234.0,4,4,37.1286152,-3.625054,Ogijares
550000.0,flat,223.0,5,3,37.1691378,-3.6018174,"calle Alhamar, 22"
550000.0,flat,223.0,5,3,37.1691378,-3.6018174,"calle Alhamar, 22"
550000.0,flat,223.0,5,3,37.1691378,-3.6018174,"calle Alhamar, 22"
550000.0,chalet,612.0,7,3,36.8979141,-3.4242355,"calle Rafael Alberti, 2"
550000.0,flat,223.0,5,3,37.1691378,-3.6018174,"calle Alhamar, 22"
550000.0,chalet,234.0,4,4,37.1289447,-3.6251658,"residencial el carmelo, 110"
550000.0,flat,223.0,5,3,37.1691378,-3.6018174,"calle Alhamar, 22"
550000.0,chalet,234.0,4,4,37.1300959,-3.6251018,Urbanización El Carmelo
550000.0,chalet,110.0,2,1,36.7402854,-3.7065322,calle Rancho Río Verde
550000.0,chalet,338.0,7,2,37.1197161,-3.5843792,"calle Castillo, 1"
550000.0,duplex,225.0,4,3,37.1779149,-3.5991978,calle Colegio Catalino
550000.0,flat,223.0,5,3,37.1698079,-3.6005168,calle Alhamar
550000.0,chalet,249.0,4,4,37.1567207,-3.5859473,"calle Torre de los Carros, 20"
550000.0,chalet,210.0,4,1,37.1468234,-3.5709291,"calle Cañadilla, 4"
550000.0,chalet,249.0,4,4,37.1573176,-3.5870711,calle Torre de los Carros
550000.0,chalet,210.0,4,1,37.1479258,-3.5707351,calle Cañadilla
550000.0,chalet,249.0,4,4,37.1563135,-3.5842791,calle Torre de los Carros
550000.0,chalet,170.0,4,4,37.1577908,-3.5846387,calle Torre de los Carros
550000.0,chalet,305.0,5,5,37.1649606,-3.6088174,"calle Doctor López Font, 40"
550000.0,countryHouse,250.0,3,2,36.7791457,-3.6694013,poligono 507 s/n
550000.0,chalet,249.0,4,4,37.1569417,-3.5876193,calle Torre de los Carros
550000.0,chalet,250.0,4,4,37.1570107,-3.5861195,"calle Torre de los Carros, 9"
550000.0,chalet,249.0,4,4,37.1555973,-3.5847047,calle Torre de los Carros
550000.0,chalet,249.0,4,4,37.155508,-3.5862889,calle Torre de los Carros
550000.0,penthouse,216.0,5,2,37.1776992,-3.6096824,camino de Ronda
550000.0,chalet,128.0,3,3,36.7766082,-3.6749978,Vía
550000.0,chalet,234.0,4,4,37.1291977,-3.6252475,Ogijares
550000.0,chalet,242.0,6,2,36.7373383,-3.7494472,calle Atlántico
550000.0,chalet,160.0,6,5,36.7192589,-3.3595115,Castell de Ferro
550000.0,chalet,234.0,4,4,37.128596,-3.6221021,Ogijares
550000.0,chalet,234.0,4,4,37.128251,-3.621952,Ogijares
550000.0,chalet,234.0,4,3,37.1276504,-3.6237488,Urbanización El Carmelo
550000.0,chalet,170.0,5,5,36.7476957,-3.6080685,"calle Olivo, 2"
550000.0,chalet,220.0,6,2,36.7847069,-3.6087185,Molvizar
550000.0,chalet,195.0,5,3,37.1629937,-3.5683748,"calle Sala dos Hermanas, 22"
550000.0,chalet,219.0,3,3,36.7350621,-3.6751082,Velilla - Velilla Taramay
550000.0,countryHouse,200.0,8,3,37.585601,-2.5846356,"carretera Benamaurel, 6"
550000.0,chalet,166.0,3,2,36.746205,-3.6093495,Monte los Almendros - El Pargo - Costa Aguilera
550000.0,chalet,210.0,4,1,37.1467872,-3.5691437,Huétor-Vega
550000.0,chalet,854.0,4,3,37.2083221,-3.6386324,Maracena
550000.0,flat,280.0,6,3,37.1816001,-3.605657,"calle Santa Bárbara, 18"
550000.0,flat,180.0,4,4,37.1662566,-3.5963217,"calle Alminares del Genil, 5"
550000.0,countryHouse,1000.0,9,6,36.9507149,-3.0625892,rambla Carlonca s/n
550000.0,chalet,250.0,5,4,36.6977298,-3.4175188,"calle Pensamiento, 6"
550000.0,flat,245.0,4,3,37.1690328,-3.6023682,"calle Alhamar, 22"
550000.0,countryHouse,200.0,2,2,37.1568964,-3.4385985,carretera de Maitena s/n
550000.0,chalet,500.0,3,3,36.7678043,-3.693887,"rambla de Torrecuevas, 5"
549000.0,penthouse,153.0,4,2,37.173259,-3.5976768,calle Acera del Darro
549000.0,chalet,420.0,5,4,37.1294644,-3.6674804,avenida Andalucía
549000.0,penthouse,164.0,4,2,37.1676035,-3.5955285,callejón de Arenas
549000.0,chalet,420.0,5,4,37.1281824,-3.6660832,"avenida Andalucía, 96"
549000.0,chalet,420.0,5,4,37.1281824,-3.6660832,"avenida Andalucía, 96"
549000.0,chalet,420.0,5,4,37.128059,-3.6679574,avenida Andalucía
549000.0,penthouse,164.0,4,2,37.1681376,-3.5987903,Figares
549000.0,chalet,420.0,5,4,37.1281824,-3.6660832,"avenida Andalucía, 96"
549000.0,chalet,420.0,5,4,37.1281824,-3.6660832,"avenida Andalucía, 96"
549000.0,chalet,210.0,4,3,36.7416143,-3.7009593,Cotobro
549000.0,chalet,420.0,5,4,37.1281824,-3.6660832,"avenida Andalucía, 96"
549000.0,chalet,420.0,5,4,37.1283366,-3.6664424,"avenida Andalucía, 96"
549000.0,chalet,757.0,10,2,36.9620761,-3.0549469,"calle Convento, 12"
549000.0,chalet,210.0,4,3,36.7417984,-3.6991149,calle Nuevo Colorado Alto
549000.0,chalet,420.0,5,4,37.1281824,-3.6660832,"avenida Andalucía, 96"
549000.0,penthouse,164.0,4,2,37.1685348,-3.5974421,"callejón de Arenas, 4"
549000.0,penthouse,164.0,4,2,37.1698814,-3.5955305,callejón de Arenas
549000.0,penthouse,164.0,4,2,37.1696861,-3.5980054,callejón de Arenas
549000.0,chalet,189.0,4,3,36.7529818,-3.6131323,calle Algarrobo
549000.0,penthouse,164.0,4,2,37.1677693,-3.5986244,Figares
549000.0,chalet,420.0,5,4,37.1295363,-3.6671428,avenida Andalucía
549000.0,penthouse,153.0,4,2,37.1687985,-3.5990373,Figares
549000.0,countryHouse,680.0,22,22,36.897809,-3.4133614,Cortijo Romero s/n
545000.0,chalet,146.0,3,4,37.0842959,-3.6326059,"calle Tirso de Molina, 14"
545000.0,chalet,146.0,3,4,37.0842959,-3.6326059,"calle Tirso de Molina, 14"
545000.0,chalet,146.0,3,4,37.0842959,-3.6326059,"calle Tirso de Molina, 14"
545000.0,chalet,146.0,3,4,37.0842959,-3.6326059,"calle Tirso de Molina, 14"
545000.0,chalet,146.0,3,4,37.0842959,-3.6326059,"calle Tirso de Molina, 14"
545000.0,chalet,146.0,3,4,37.0829147,-3.6314945,calle Tirso de Molina
545000.0,chalet,146.0,3,4,37.0839311,-3.6336491,calle Tirso de Molina
545000.0,chalet,146.0,3,4,37.0842959,-3.6326059,"calle Tirso de Molina, 14"
545000.0,chalet,146.0,3,4,37.0842959,-3.6326059,"calle Tirso de Molina, 14"
